,timestamp_start,timestamp_end,acc.x,acc.y,acc.z,gyro.x,gyro.y,gyro.z,stateEstimate.x,stateEstimate.y,stateEstimate.z,stabilizer.pitch,stabilizer.roll,stabilizer.yaw
0,32699,32698,0.046066414564847946,-0.22411476075649261,0.9136227369308472,-44.40846252441406,5.167788982391357,-6.065779209136963,1.9697579145431519,3.963621139526367,0.14804448187351227,-0.35270753502845764,1.8302372694015503,3.9369781017303467
1,32709,32708,-0.013400135561823845,-0.03092617355287075,1.0526330471038818,-41.333213806152344,1.9119523763656616,-6.14561653137207,1.9695848226547241,3.963977336883545,0.1516663134098053,-0.40001675486564636,1.2301745414733887,3.8791663646698
2,32719,32718,-0.04938006401062012,0.13023628294467926,1.108388900756836,-31.189756393432617,-1.0866844654083252,-6.434678554534912,1.9675525426864624,3.9622766971588135,0.15321794152259827,-0.38095083832740784,0.9090496897697449,3.839594841003418
3,32729,32728,-0.001325090299360454,0.021715184673666954,1.1083661317825317,-19.044321060180664,-1.9553464651107788,-6.52154541015625,1.9674497842788696,3.9617722034454346,0.15502990782260895,-0.39081647992134094,0.43155962228775024,3.755770206451416
4,32739,32738,0.0321556031703949,-0.07754325121641159,1.044007420539856,-8.043296813964844,-2.8768367767333984,-6.070303916931152,1.965829610824585,3.960175037384033,0.15719041228294373,-0.30210354924201965,0.32432541251182556,3.723606824874878
5,32749,32748,-0.02991567552089691,-0.08743539452552795,1.0072309970855713,-1.083685040473938,-2.9154036045074463,-5.600865840911865,1.9651191234588623,3.9580037593841553,0.15904982388019562,-0.3664085865020752,0.30790266394615173,3.6455299854278564
6,32759,32758,-0.01691792905330658,0.1481863260269165,1.0745750665664673,0.32272636890411377,-3.249964714050293,-4.917594909667969,1.965083122253418,3.960244655609131,0.161078080534935,-0.35108238458633423,0.18006856739521027,3.5752274990081787
7,32769,32768,0.010514396242797375,0.16295139491558075,1.0880786180496216,-3.6351547241210938,-3.083491563796997,-4.894463539123535,1.9648085832595825,3.95869779586792,0.16403630375862122,-0.47746291756629944,0.027351850643754005,3.4862396717071533
8,32779,32778,-0.037783339619636536,0.06726168096065521,1.067092776298523,-7.185848712921143,-3.2739717960357666,-4.276579856872559,1.9660189151763916,3.9630520343780518,0.166145458817482,-0.4146449565887451,-0.1554921418428421,3.429990291595459
9,32789,32788,-0.028115201741456985,-0.0506056547164917,1.0234452486038208,-9.65507984161377,-4.796262741088867,-4.182936668395996,1.9648443460464478,3.9625818729400635,0.16819855570793152,-0.3474527597427368,-0.3732236325740814,3.3766796588897705
10,32799,32798,0.015498966909945011,-0.12321455776691437,0.9931574463844299,-9.587752342224121,-4.019203186035156,-4.125274181365967,1.9662789106369019,3.9683632850646973,0.16977259516716003,-0.33840179443359375,-0.8279470801353455,3.304591417312622
11,32809,32808,0.03295541927218437,-0.118171826004982,0.9648063778877258,-3.8769688606262207,-4.053442478179932,-4.1272478103637695,1.9672917127609253,3.972090482711792,0.17561478912830353,-0.2749308943748474,-0.7853503227233887,3.27820086479187
12,32819,32818,0.035132601857185364,-0.00756798917427659,0.9840848445892334,2.025789499282837,-4.77392578125,-4.436953067779541,1.9709889888763428,3.971717357635498,0.1776328980922699,-0.9174541234970093,-0.9592371582984924,3.2225301265716553
13,32829,32828,-0.051283858716487885,0.035062987357378006,1.052313208580017,8.309255599975586,-7.765650749206543,-3.4335615634918213,1.972184181213379,3.9749836921691895,0.18032701313495636,-0.8036796450614929,-0.9420983791351318,3.172105550765991
14,32839,32838,-0.0011621041921898723,0.09923151135444641,1.114789366722107,13.473936080932617,-14.156283378601074,-2.2518177032470703,1.970916986465454,3.973623514175415,0.18414749205112457,-0.6572755575180054,-0.8267139196395874,3.1335034370422363
15,32849,32848,-0.02071893960237503,0.034628625959157944,1.07977294921875,14.733203887939453,-19.19400978088379,-2.428253650665283,1.9711319208145142,3.9754559993743896,0.18686434626579285,-0.46273019909858704,-0.7012609839439392,3.1097466945648193
16,32859,32858,-0.022137749940156937,-0.01867029443383217,0.9351055026054382,11.961845397949219,-20.927371978759766,-3.288219451904297,1.9710090160369873,3.97682523727417,0.18995243310928345,-0.0377969816327095,-0.47615760564804077,3.0803165435791016
17,32869,32868,-0.03528113290667534,-0.06341713666915894,0.9479661583900452,9.096575736999512,-19.294218063354492,-3.891005516052246,1.9693223237991333,3.979602336883545,0.1934346854686737,0.36717918515205383,-0.5067384839057922,3.020012140274048
18,32879,32878,0.008690816350281239,-0.02191914990544319,0.9539595246315002,3.7215120792388916,-12.323814392089844,-4.156723499298096,1.9692834615707397,3.978749990463257,0.19615139067173004,0.6331853866577148,-0.2697302997112274,2.986626386642456
19,32889,32888,-0.013207333162426949,0.10232406854629517,1.0162047147750854,-1.6556053161621094,-5.606851100921631,-3.6380605697631836,1.9683858156204224,3.979463815689087,0.19870497286319733,0.8365039229393005,-0.35242941975593567,2.929809808731079
20,32899,32898,-0.047330353409051895,0.2562384605407715,0.9855222702026367,-4.748013019561768,2.1563704013824463,-4.080398082733154,1.9681260585784912,3.9692821502685547,0.2017466276884079,1.0178416967391968,1.0594966411590576,2.895481586456299
21,32909,32908,-0.030315743759274483,0.04794756695628166,0.9140941500663757,-7.458198070526123,8.540426254272461,-3.704155921936035,1.968309760093689,3.9697468280792236,0.2085465043783188,0.9833542108535767,0.8651766777038574,2.8617172241210938
22,32919,32918,-0.004428372252732515,0.07487516105175018,0.988716721534729,-17.188085556030273,8.109769821166992,-2.7947587966918945,1.969315767288208,3.9715189933776855,0.21281781792640686,0.684458315372467,0.5698288679122925,2.8430252075195312
23,32929,32928,-0.010140113532543182,0.052476655691862106,1.034353494644165,-23.44798469543457,14.890129089355469,-3.1385462284088135,1.9680476188659668,3.9722812175750732,0.2160656899213791,0.745049238204956,0.31310421228408813,2.815175771713257
24,32939,32938,0.03151269629597664,-0.07540766894817352,0.8851385116577148,-28.50362777709961,13.473438262939453,-2.597120523452759,1.967025876045227,3.9725327491760254,0.21725822985172272,0.7088111639022827,0.03157426044344902,2.7892959117889404
25,32949,32948,-0.0901368111371994,0.022988086566329002,1.004977822303772,-27.729583740234375,11.564781188964844,-2.7713136672973633,1.9672235250473022,3.9751882553100586,0.2204805165529251,0.48706555366516113,-0.47748324275016785,2.7854063510894775
26,32959,32958,0.044981230050325394,0.042076438665390015,0.923186719417572,-23.249923706054688,8.874351501464844,-2.6638572216033936,1.9670286178588867,3.9750657081604004,0.22321519255638123,0.38428452610969543,-0.7319797277450562,2.7584400177001953
27,32969,32968,-0.12774109840393066,0.41929611563682556,1.029982089996338,-17.406307220458984,2.241682767868042,-2.719259262084961,1.966238021850586,3.977142095565796,0.22528843581676483,0.29499122500419617,-1.365198016166687,2.761467218399048
28,32979,32978,-0.09753839671611786,0.3799642026424408,0.9615637063980103,-4.438819408416748,1.4362720251083374,-2.7787067890167236,1.9657628536224365,3.97808837890625,0.22770194709300995,0.2551448941230774,-1.700425386428833,2.7473840713500977
29,32989,32988,0.20567087829113007,-0.09101048111915588,0.8610539436340332,7.361202716827393,1.0647923946380615,-2.576443672180176,1.9652146100997925,3.9785850048065186,0.23022156953811646,0.22546620666980743,-1.8051527738571167,2.7249908447265625
30,32999,32998,0.10288403928279877,-0.06082737445831299,0.9204045534133911,17.799488067626953,1.783994197845459,-2.9108712673187256,1.9651126861572266,3.9805057048797607,0.2326393872499466,0.2055869996547699,-1.7809267044067383,2.7079851627349854
31,33009,33008,0.0008891161996871233,-0.02131805568933487,0.9057416319847107,22.941659927368164,2.4810729026794434,-3.3552515506744385,1.9669088125228882,3.9803924560546875,0.23551982641220093,-0.045974548906087875,-1.5801090002059937,2.702962875366211
32,33019,33018,0.06003856286406517,-0.2524910569190979,0.7383732795715332,23.251131057739258,2.2062931060791016,-3.675848960876465,1.977757453918457,3.9832100868225098,0.23628422617912292,-1.4597103595733643,-1.6433329582214355,2.8803272247314453
33,33029,33028,-0.05045747384428978,-0.016399778425693512,0.8269542455673218,20.56610870361328,-5.252198696136475,-3.639230728149414,1.9768604040145874,3.9826438426971436,0.2396550178527832,-1.2984379529953003,-1.291741967201233,2.8189380168914795
34,33039,33038,0.0032458181958645582,-0.04864992946386337,0.8651111125946045,17.783523559570312,-17.663188934326172,-3.054901361465454,1.976085901260376,3.9841196537017822,0.23817427456378937,-1.0461938381195068,-1.1456406116485596,2.7424161434173584
35,33049,33048,0.08057162165641785,0.0681188628077507,0.9270532131195068,15.388975143432617,-24.504758834838867,-3.1095340251922607,1.9766628742218018,3.9844579696655273,0.2398596554994583,-0.8423860669136047,-0.9578570127487183,2.7087600231170654
36,33059,33058,0.09390374273061752,0.08441546559333801,0.9829433560371399,11.11495304107666,-35.13149642944336,-2.8407719135284424,1.977181077003479,3.984137773513794,0.24134941399097443,-0.6268625259399414,-0.8189642429351807,2.6767783164978027
37,33069,33068,0.0420381985604763,0.019257264211773872,0.9689233303070068,8.385297775268555,-39.241477966308594,-3.553905487060547,1.9756611585617065,3.983095169067383,0.24157921969890594,-0.09631534665822983,-0.6713725328445435,2.612030029296875
38,33079,33078,0.033882930874824524,-0.036792561411857605,0.8911634087562561,5.470209121704102,-36.067787170410156,-3.1776463985443115,1.9752627611160278,3.985511541366577,0.24300652742385864,0.40607622265815735,-0.720642626285553,2.545966863632202
39,33089,33088,0.15853995084762573,-0.011742317117750645,0.9153633117675781,7.765877723693848,-29.098955154418945,-3.112980842590332,1.9749085903167725,3.984189748764038,0.2443922609090805,0.7739840745925903,-0.571986734867096,2.5170228481292725
40,33099,33098,0.15571457147598267,-0.08321266621351242,0.9174006581306458,9.194443702697754,-18.306310653686523,-3.1478357315063477,1.9744815826416016,3.9845616817474365,0.24603474140167236,1.1200854778289795,-0.5486232042312622,2.479294776916504
41,33109,33108,0.04885125905275345,-0.2548772394657135,0.8108999133110046,10.041685104370117,-2.5319128036499023,-3.5760059356689453,1.9742438793182373,3.983741283416748,0.24725912511348724,1.3823254108428955,-0.32912561297416687,2.4433889389038086
42,33119,33118,0.07480942457914352,-0.08487865328788757,0.9215949773788452,10.824759483337402,7.4216508865356445,-3.0496671199798584,1.9745076894760132,3.9849605560302734,0.24834126234054565,1.380662202835083,-0.26104500889778137,2.4212141036987305
43,33129,33128,0.023102501407265663,-0.120088130235672,1.011242389678955,8.410431861877441,13.893287658691406,-2.6163971424102783,1.9739537239074707,3.9853718280792236,0.24922974407672882,1.463788628578186,-0.028286762535572052,2.3701231479644775
44,33139,33138,-0.0198553167283535,-0.13359253108501434,0.9760354161262512,6.21561861038208,14.48695182800293,-2.2692747116088867,1.9728963375091553,3.9854235649108887,0.2494373768568039,1.354333758354187,0.0906243696808815,2.3429243564605713
45,33149,33148,0.007088556420058012,-0.010258045047521591,0.916637122631073,2.9353528022766113,11.841795921325684,-1.6364444494247437,1.9724130630493164,3.9853885173797607,0.25021883845329285,1.284584641456604,0.1529964804649353,2.3203113079071045
46,33159,33158,-0.0006439279532060027,0.0060546062886714935,0.9225506782531738,1.8498152494430542,6.57825231552124,-1.434659481048584,1.9715368747711182,3.987476348876953,0.25097209215164185,1.2933299541473389,0.012962406501173973,2.3180043697357178
47,33169,33168,0.009347066283226013,-0.12073710560798645,0.8892595171928406,2.570173501968384,2.0122416019439697,-2.1018667221069336,1.9711402654647827,3.9862823486328125,0.2521340548992157,1.2225548028945923,0.10137088596820831,2.300178050994873
48,33179,33178,0.01654699817299843,0.004297094419598579,0.9925498366355896,4.35205078125,-0.7441524267196655,-2.649211883544922,1.9704915285110474,3.987579584121704,0.2527067959308624,1.3147854804992676,0.04133030027151108,2.2882742881774902
49,33189,33188,-0.05410468578338623,-0.044330425560474396,0.9438310265541077,6.981348991394043,-2.3089752197265625,-1.7033554315567017,1.9693313837051392,3.986240863800049,0.2533310055732727,1.3900748491287231,0.24929079413414001,2.2375097274780273
50,33199,33198,-0.05370679497718811,-0.281000554561615,0.8323792815208435,7.712313175201416,-2.6798901557922363,-1.887169361114502,1.9693166017532349,3.988481044769287,0.2538515329360962,1.4752650260925293,0.3270457684993744,2.217224597930908
51,33209,33208,0.07745837420225143,-0.022902576252818108,0.8626453280448914,6.969145774841309,3.524869203567505,-0.7885309457778931,1.9682376384735107,3.988445281982422,0.25428733229637146,1.511690378189087,0.340008020401001,2.2069287300109863
52,33219,33218,0.09368336200714111,0.15198466181755066,0.9098080992698669,4.6954426765441895,7.553969383239746,-0.5414822101593018,1.9675281047821045,3.9919631481170654,0.25450488924980164,1.5949515104293823,0.34807056188583374,2.2183985710144043
53,33229,33228,0.08605057746171951,-0.02174227125942707,0.8781277537345886,4.649726390838623,9.124942779541016,-0.1848917305469513,1.9680379629135132,3.9924228191375732,0.25474870204925537,1.4440085887908936,0.48879286646842957,2.19973087310791
54,33239,33238,0.022635871544480324,-0.18904231488704681,0.8979359865188599,1.9822155237197876,15.250240325927734,-0.0002999930002260953,1.967559576034546,3.993318796157837,0.2542349100112915,1.2405281066894531,0.4573948383331299,2.208690643310547
55,33249,33248,0.011587965302169323,0.013264238834381104,0.950452446937561,-0.4572167694568634,16.509580612182617,0.5235572457313538,1.9684385061264038,3.996267795562744,0.254149466753006,1.1121162176132202,0.5424709320068359,2.1980836391448975
56,33259,33258,-0.002964005107060075,0.05136939138174057,1.063239574432373,0.42044082283973694,14.891188621520996,0.254185289144516,1.9661418199539185,3.996795415878296,0.2539084851741791,1.1191625595092773,0.5690963268280029,2.2027103900909424
57,33269,33268,-0.008368542417883873,-0.008233752101659775,1.0329651832580566,0.2064620703458786,12.306737899780273,0.36641910672187805,1.9655462503433228,3.9958720207214355,0.25416290760040283,0.9706221222877502,0.6080557703971863,2.1996026039123535
58,33279,33278,-0.04684843122959137,0.07938851416110992,1.1060669422149658,0.09535159170627594,9.897760391235352,0.3897525668144226,1.9669057130813599,3.9961249828338623,0.2541290521621704,0.7105257511138916,0.6407821178436279,2.1909191608428955
59,33289,33288,-0.02956792153418064,0.0025964893866330385,1.1445696353912354,-0.12314502894878387,8.145479202270508,0.36021414399147034,1.965226650238037,3.9961559772491455,0.254121869802475,0.6607064604759216,0.5859159827232361,2.2074248790740967
60,33299,33298,-0.013361610472202301,0.018879249691963196,1.06062912940979,0.06971149891614914,7.031213760375977,0.5075974464416504,1.9641520977020264,3.9982852935791016,0.2571972608566284,0.6602402925491333,0.5318032503128052,2.229154109954834
61,33309,33308,0.039826035499572754,-0.0004734073008876294,1.0895535945892334,0.8120713233947754,8.22548770904541,0.2416778951883316,1.9622451066970825,3.998373508453369,0.25759220123291016,0.6471434235572815,0.5644732117652893,2.2342793941497803
62,33319,33318,0.01991553232073784,-0.11198072135448456,0.9998477101325989,1.0619763135910034,6.8408966064453125,1.0841429233551025,1.9636958837509155,4.00015115737915,0.2581171691417694,0.4823548197746277,0.6842985153198242,2.2150919437408447
63,33329,33328,0.020206768065690994,-0.1727619618177414,0.9925320148468018,-0.36228299140930176,6.421606540679932,0.899047315120697,1.9627792835235596,4.001733779907227,0.2585989832878113,0.55274498462677,0.7123948931694031,2.2317824363708496
64,33339,33338,0.05268329381942749,-0.10121732950210571,0.97892826795578,-1.8626582622528076,5.635387420654297,1.6066203117370605,1.9611079692840576,4.0022711753845215,0.2616809010505676,0.5076267719268799,0.7112312316894531,2.245520830154419
65,33349,33348,0.003345899051055312,-0.061361219733953476,0.9946494102478027,-5.015293598175049,7.164616107940674,1.324609398841858,1.9615041017532349,4.002505779266357,0.26238250732421875,0.3303813934326172,0.6818747520446777,2.252753973007202
66,33359,33358,-0.09575452655553818,0.25151196122169495,1.2193148136138916,-4.739963531494141,14.394116401672363,-0.07350631803274155,1.9616540670394897,4.003957748413086,0.2631402611732483,0.1287408471107483,0.5999470949172974,2.2547786235809326
67,33369,33368,-0.08670338243246078,0.155296191573143,1.2106386423110962,-6.439957141876221,18.944196701049805,1.0651555061340332,1.96005117893219,4.005364894866943,0.2666182219982147,0.0676577091217041,0.5204958915710449,2.2671358585357666
68,33379,33378,-0.045432452112436295,0.12796494364738464,1.1023985147476196,-7.141434192657471,25.602495193481445,0.4542856216430664,1.9585081338882446,4.004548072814941,0.2677515149116516,-0.07781713455915451,0.49321770668029785,2.2810819149017334
69,33389,33388,0.05378623679280281,-0.09360991418361664,0.9790294766426086,-5.9980669021606445,25.99650001525879,0.6702083945274353,1.959928274154663,4.005831241607666,0.269161194562912,-0.6001655459403992,0.3694702684879303,2.2699809074401855
70,33399,33398,-0.006418739911168814,-0.04527115821838379,1.0717880725860596,-4.997468948364258,28.96095085144043,0.5829864144325256,1.959528923034668,4.0087809562683105,0.2735637426376343,-0.760011613368988,0.2766033709049225,2.291088104248047
71,33409,33408,-0.013988849706947803,-0.15600663423538208,1.0116009712219238,-3.0411651134490967,25.515483856201172,0.17522607743740082,1.9562950134277344,4.008257865905762,0.27520841360092163,-0.7859004735946655,0.27887144684791565,2.3171608448028564
72,33419,33418,0.0015510107623413205,0.006598354782909155,1.0322974920272827,-2.6422266960144043,22.04819679260254,0.055872391909360886,1.958509087562561,4.009961128234863,0.27678850293159485,-1.261234998703003,0.23588688671588898,2.2988219261169434
73,33429,33428,0.14575453102588654,-0.21181005239486694,0.8688666820526123,-1.6055388450622559,16.949615478515625,0.14977502822875977,1.9575183391571045,4.011190891265869,0.2782861292362213,-1.339752197265625,0.20352521538734436,2.3142597675323486
74,33439,33438,0.014584747143089771,-0.04661599174141884,0.9552099108695984,0.5200158357620239,17.497920989990234,-0.8066059350967407,1.95785653591156,4.01237154006958,0.2797311544418335,-1.5828771591186523,0.18869827687740326,2.31280255317688
75,33449,33448,0.049322180449962616,-0.06751970201730728,0.8844273686408997,-0.010196718387305737,9.315901756286621,0.0006951410905458033,1.9599231481552124,4.014578819274902,0.2810353636741638,-1.8791717290878296,0.21206454932689667,2.300314426422119
76,33459,33458,0.06957235932350159,-0.04963616654276848,0.9021677374839783,-1.1573463678359985,4.890264511108398,-0.45753005146980286,1.9567772150039673,4.013792991638184,0.2827052175998688,-1.6599258184432983,0.2906150817871094,2.3315274715423584
77,33469,33468,-0.017143476754426956,-0.06721779704093933,0.9414734244346619,-2.340108871459961,3.0913186073303223,-0.24492193758487701,1.9567171335220337,4.013701438903809,0.2814626693725586,-1.7821325063705444,0.2671726942062378,2.321462392807007
78,33479,33478,0.01668240688741207,-0.09631338715553284,0.8834167122840881,-3.752920627593994,5.632614612579346,-1.0332672595977783,1.9560271501541138,4.014143466949463,0.2824711501598358,-1.7881500720977783,0.21965263783931732,2.3156254291534424
79,33489,33488,-0.038574058562517166,0.009318563155829906,0.9687203764915466,-3.92655086517334,6.477170467376709,-1.295344591140747,1.9566222429275513,4.014380931854248,0.28335657715797424,-1.9008173942565918,0.15593461692333221,2.296175241470337
80,33499,33498,0.11948888748884201,-0.10709326714277267,0.8852277994155884,-4.042250633239746,7.622347354888916,-1.2100372314453125,1.957149624824524,4.014030456542969,0.28503528237342834,-2.038837432861328,0.09260929375886917,2.275611639022827
81,33509,33508,-0.029618598520755768,0.46075141429901123,1.0421684980392456,-2.7260961532592773,5.139859199523926,-2.183976888656616,1.9566586017608643,4.013808250427246,0.28591784834861755,-2.078725814819336,0.10521141439676285,2.275824785232544
82,33519,33518,-0.0053575229831039906,0.1679290533065796,0.8997858166694641,-2.0706353187561035,3.6571860313415527,-1.5076332092285156,1.9563157558441162,4.014527320861816,0.2867938280105591,-2.05814266204834,0.14281682670116425,2.272916555404663
83,33529,33528,0.05637616664171219,-0.0795174390077591,0.871816873550415,-1.0026880502700806,4.2932610511779785,-1.8522061109542847,1.9564018249511719,4.0141777992248535,0.2866160571575165,-2.1015212535858154,0.18071424961090088,2.2735984325408936
84,33539,33538,0.011634351685643196,-0.020298559218645096,0.9560170769691467,-0.3528171479701996,5.51623010635376,-1.6157878637313843,1.9585022926330566,4.017324447631836,0.28725874423980713,-2.257300615310669,0.07343655079603195,2.223747968673706
85,33549,33548,0.0017642173916101456,0.013792836107313633,0.9508994221687317,-2.6498043537139893,8.4682035446167,-1.9058971405029297,1.9597060680389404,4.019807815551758,0.2878614664077759,-2.3370018005371094,0.054760124534368515,2.2055349349975586
86,33559,33558,0.027090655639767647,0.0711822435259819,0.9408731460571289,-1.6150833368301392,3.1544570922851562,-0.9294920563697815,1.9602421522140503,4.020930767059326,0.2883368134498596,-2.4426722526550293,0.011589017696678638,2.1808698177337646
87,33569,33568,-0.09411744028329849,0.19270959496498108,1.0165860652923584,-1.4918227195739746,-0.33017775416374207,-1.1061638593673706,1.9610099792480469,4.022651672363281,0.28646254539489746,-2.449815511703491,-0.02630453370511532,2.1691431999206543
88,33579,33578,-0.1565447896718979,0.2600056231021881,0.9744500517845154,1.3510230779647827,-3.7586565017700195,-1.1527372598648071,1.9605402946472168,4.022421360015869,0.2868398129940033,-2.388845920562744,-0.04981542006134987,2.1572601795196533
89,33589,33588,-0.18090884387493134,0.3721187710762024,1.0254483222961426,1.766937255859375,-6.837355613708496,-1.1027212142944336,1.961097002029419,4.0252461433410645,0.2872772216796875,-2.2720224857330322,-0.10284249484539032,2.1258597373962402
90,33599,33598,-0.11255990713834763,0.18386727571487427,0.9310797452926636,4.26615047454834,-8.323431968688965,-1.7638530731201172,1.9631574153900146,4.026319980621338,0.2855880856513977,-2.3447656631469727,-0.05862946808338165,2.116826295852661
91,33609,33608,-0.11061282455921173,0.1042138934135437,1.0450479984283447,5.302735328674316,-6.865500450134277,-1.9335485696792603,1.9632283449172974,4.025052070617676,0.28582361340522766,-2.225566864013672,0.08965948224067688,2.1387181282043457
92,33619,33618,-0.1099342629313469,0.08397731930017471,1.0779155492782593,4.956718921661377,-4.584141731262207,-1.6297047138214111,1.9654325246810913,4.027561187744141,0.28601527214050293,-2.1942343711853027,0.1606968492269516,2.1294965744018555
93,33629,33628,-0.06224246695637703,0.17354896664619446,1.0513968467712402,2.8877768516540527,-3.3804779052734375,-1.4999295473098755,1.9638774394989014,4.028761386871338,0.2860223352909088,-2.0363595485687256,0.07351541519165039,2.0660979747772217
94,33639,33638,-0.05342230200767517,0.12825120985507965,0.9813986420631409,1.0203680992126465,-2.0844132900238037,-1.6094005107879639,1.9641499519348145,4.028573036193848,0.28629040718078613,-2.002699851989746,0.11639348417520523,2.058994770050049
95,33649,33648,-0.09815352410078049,-0.013856296427547932,0.9754673838615417,1.8343364000320435,-5.8219146728515625,-1.5139755010604858,1.9645994901657104,4.028693675994873,0.28655728697776794,-1.9823824167251587,0.13476094603538513,2.0455427169799805
96,33659,33658,-0.07807645201683044,0.22986046969890594,0.9601444602012634,0.09563659876585007,-1.8780155181884766,-1.9918092489242554,1.9646334648132324,4.029041290283203,0.28752049803733826,-1.8986620903015137,0.1555475890636444,2.035430908203125
97,33669,33668,-0.025463497266173363,0.15077535808086395,1.019561767578125,0.570738673210144,-2.7837135791778564,-1.716192603111267,1.9679594039916992,4.031333923339844,0.2875696122646332,-2.176342010498047,0.001281033270061016,1.9589000940322876
98,33679,33678,-0.030323587357997894,0.04237110912799835,0.9744724631309509,2.7783405780792236,-5.960693836212158,-1.6804693937301636,1.9669761657714844,4.031346321105957,0.2880033552646637,-2.005675792694092,0.029459841549396515,1.949153184890747
99,33689,33688,0.04837619885802269,0.7727109789848328,0.9739981889724731,3.949711561203003,-9.371932983398438,-1.6649549007415771,1.9677021503448486,4.0313310623168945,0.28823304176330566,-1.9281785488128662,0.1730192005634308,1.9770739078521729
100,33699,33698,-0.026949534192681313,0.4316132962703705,0.9354165196418762,4.709663391113281,-12.07855224609375,-1.914488673210144,1.96877920627594,4.0324296951293945,0.2876377999782562,-1.786618709564209,0.25083309412002563,1.974662184715271
101,33709,33708,0.04886519908905029,0.039951711893081665,0.8328049182891846,4.834989547729492,-11.52454948425293,-2.0344605445861816,1.9693673849105835,4.033708572387695,0.287729948759079,-1.6916344165802002,0.2597903311252594,1.936990737915039
102,33719,33718,-0.04387509822845459,-0.04778368026018143,1.009423017501831,3.205396890640259,-11.55321216583252,-1.3071608543395996,1.9713448286056519,4.035220623016357,0.287572979927063,-1.6919748783111572,0.2623828649520874,1.9058527946472168
103,33729,33728,0.09855622798204422,-0.11124467104673386,0.9607273936271667,-0.4688316881656647,-11.99976634979248,-1.615631103515625,1.970926284790039,4.034784317016602,0.287052720785141,-1.4419426918029785,0.31132546067237854,1.900551676750183
104,33739,33738,0.04384772479534149,-0.16610459983348846,0.9532951712608337,0.9250997304916382,-15.226863861083984,-1.0584514141082764,1.972262978553772,4.036280155181885,0.2870074510574341,-1.250623345375061,0.3824957609176636,1.9124144315719604
105,33749,33748,0.0029176303651183844,-0.08306675404310226,0.9850314855575562,-0.431636244058609,-12.67609977722168,-1.5042701959609985,1.9752153158187866,4.036420822143555,0.28670457005500793,-1.2830631732940674,0.39312493801116943,1.8986347913742065
106,33759,33758,-0.019009916111826897,0.021158432587981224,0.9700812697410583,-2.9550230503082275,-9.57691478729248,-1.8464447259902954,1.9763239622116089,4.037085056304932,0.2869482636451721,-1.1911579370498657,0.2981036305427551,1.8588999509811401
107,33769,33768,-0.005704809445887804,0.31725311279296875,1.080570101737976,-1.8151826858520508,-10.226419448852539,-0.9666597843170166,1.9777170419692993,4.038443565368652,0.28679192066192627,-1.1179876327514648,0.16809937357902527,1.820544719696045
108,33779,33778,-0.039587363600730896,0.04818040505051613,1.0217572450637817,-0.93792325258255,-11.159521102905273,-0.5267345309257507,1.9777814149856567,4.037756443023682,0.28679564595222473,-0.9597907066345215,0.23201265931129456,1.8333227634429932
109,33789,33788,0.014162426814436913,0.003933706320822239,1.0081355571746826,1.3652873039245605,-9.282142639160156,-1.1367000341415405,1.9771350622177124,4.037649631500244,0.28690773248672485,-0.713987410068512,0.23970796167850494,1.8279988765716553
110,33799,33798,-0.08406475931406021,0.13127607107162476,1.088881254196167,3.030363082885742,-10.710897445678711,-0.5844096541404724,1.980450987815857,4.0372138023376465,0.283780574798584,-0.8899617791175842,0.2781582772731781,1.8171143531799316
111,33809,33808,-0.15478020906448364,0.21538692712783813,1.2056314945220947,2.9107284545898438,-7.940164566040039,-0.3962506055831909,1.9812071323394775,4.038359642028809,0.2837628126144409,-0.7030308246612549,0.25815796852111816,1.806164026260376
112,33819,33818,-0.05110304430127144,-0.0023672503884881735,0.9946396350860596,3.4558846950531006,-6.805480003356934,-0.7573021054267883,1.982406735420227,4.0400004386901855,0.2838813364505768,-0.5619288086891174,0.31570595502853394,1.8125643730163574
113,33829,33828,-0.038391679525375366,-0.04176419600844383,1.0319606065750122,4.150352478027344,-6.7100090980529785,-0.24045196175575256,1.9831790924072266,4.039924621582031,0.28468960523605347,-0.521236002445221,0.37784886360168457,1.817926287651062
114,33839,33838,-0.006220810580998659,-0.04518456757068634,0.9817209839820862,1.65605628490448,-8.045613288879395,-0.34716853499412537,1.9838550090789795,4.042603969573975,0.28498756885528564,-0.3147754669189453,0.36001431941986084,1.8234156370162964
115,33849,33848,0.037776149809360504,-0.15432196855545044,0.9633196592330933,0.6479567289352417,-8.916823387145996,-0.39883995056152344,1.9876644611358643,4.042352676391602,0.28483834862709045,-0.525083065032959,0.38595888018608093,1.8126840591430664
116,33859,33858,0.012765085324645042,0.014669540338218212,0.95522141456604,-1.650381326675415,-10.213766098022461,-0.30732262134552,1.988409399986267,4.04368257522583,0.2861146330833435,-0.35716843605041504,0.3893677890300751,1.8172833919525146
117,33869,33868,0.06063137948513031,0.07816174626350403,0.9836537837982178,-1.2544916868209839,-12.496848106384277,-0.979085385799408,1.990885853767395,4.0453290939331055,0.28616654872894287,-0.2917388081550598,0.35701367259025574,1.807920217514038
118,33879,33878,0.004728715866804123,-0.03561274707317352,0.9861358404159546,-3.8200881481170654,-14.22673225402832,-1.8695883750915527,1.9916775226593018,4.045739650726318,0.2863526940345764,-0.12959323823451996,0.3242007791996002,1.7877132892608643
119,33889,33888,0.04702657088637352,-0.04052376747131348,1.014155626296997,-3.6252481937408447,-15.633464813232422,-1.316866397857666,1.9944865703582764,4.046830654144287,0.28627219796180725,-0.09788277000188828,0.2681756317615509,1.7642349004745483
120,33899,33898,-0.018779106438159943,0.015479824505746365,1.0565193891525269,-3.047309160232544,-16.20478630065918,-0.6763212084770203,1.9948188066482544,4.045589923858643,0.28895872831344604,0.11661133170127869,0.3662705421447754,1.7672669887542725
121,33909,33908,-0.05690867826342583,-0.026588547974824905,1.0368759632110596,-2.7568893432617188,-14.247379302978516,-1.4052282571792603,1.9956700801849365,4.047702789306641,0.28945136070251465,0.3955395817756653,0.2999083995819092,1.7666696310043335
122,33919,33918,-0.06791860610246658,0.14649051427841187,1.112430214881897,-3.391434907913208,-12.77033519744873,-1.9471335411071777,1.99893319606781,4.048844814300537,0.2896384000778198,0.32103732228279114,0.24525849521160126,1.7457467317581177
123,33929,33928,-0.052406590431928635,0.11832968890666962,1.112911581993103,-2.3834409713745117,-10.767986297607422,-1.559483289718628,1.9989670515060425,4.04899263381958,0.2888985276222229,0.5570985078811646,0.18605554103851318,1.733006238937378
124,33939,33938,-0.038816288113594055,0.0842888355255127,1.0919888019561768,-2.141801595687866,-5.608942985534668,-1.7386786937713623,2.000316858291626,4.0485992431640625,0.2893577218055725,0.6221432685852051,0.22331537306308746,1.710092544555664
125,33949,33948,-0.024828189983963966,0.04108766093850136,1.0473495721817017,-1.720568299293518,-2.075779676437378,-2.015108108520508,2.0006535053253174,4.0490875244140625,0.28998351097106934,0.6981489062309265,0.1798458844423294,1.6912134885787964
126,33959,33958,-0.008788421750068665,-0.018682625144720078,0.9793585538864136,-2.2185757160186768,-2.8632187843322754,-1.9370683431625366,2.0015907287597656,4.049113750457764,0.2878076136112213,0.742724597454071,0.22385159134864807,1.67571222782135
127,33969,33968,0.0325472466647625,0.04165073111653328,1.0104314088821411,-3.1382086277008057,-4.415861129760742,-1.7576537132263184,2.003422737121582,4.050489902496338,0.28827419877052307,0.7291715145111084,0.17602409422397614,1.6725431680679321
128,33979,33978,0.006745579186826944,0.083774134516716,1.0151044130325317,-3.660684823989868,-4.461299419403076,-1.3168953657150269,2.0035948753356934,4.0512495040893555,0.28881552815437317,0.8455603122711182,0.11966090649366379,1.6589043140411377
129,33989,33988,0.055249184370040894,-0.025240600109100342,0.9140339493751526,-4.721078872680664,-5.26957368850708,-1.568922519683838,2.0058956146240234,4.051772594451904,0.287674218416214,0.7753657698631287,0.040145907551050186,1.6467359066009521
130,33999,33998,-0.042925503104925156,0.02242097444832325,1.0372416973114014,-3.9041659832000732,-4.205030918121338,-2.1387314796447754,2.0065057277679443,4.0509867668151855,0.2880067229270935,0.8710399866104126,0.03449703007936478,1.6229737997055054
131,34009,34008,0.005312040448188782,-0.027878884226083755,0.9820701479911804,-3.4972445964813232,-2.621002435684204,-1.6230313777923584,2.0070996284484863,4.051529407501221,0.28834253549575806,0.9472198486328125,-0.02830769121646881,1.6189874410629272
132,34019,34018,-0.039930954575538635,-0.05094163864850998,0.9874545931816101,-2.450148582458496,-2.996370553970337,-1.848049283027649,2.007962226867676,4.051965713500977,0.28867748379707336,1.001747965812683,-0.09550479054450989,1.6077507734298706
133,34029,34028,-0.0017718132585287094,0.18090219795703888,1.1126081943511963,-1.4475955963134766,-3.0404422283172607,-2.9551589488983154,2.0072646141052246,4.051896095275879,0.29067978262901306,1.192270040512085,-0.12758636474609375,1.588813066482544
134,34039,34038,0.00562910083681345,-0.08217614889144897,0.969386637210846,2.2109804153442383,-2.885301351547241,-1.47834312915802,2.0105230808258057,4.05219841003418,0.29107218980789185,0.9965894222259521,-0.05751762166619301,1.5595767498016357
135,34049,34048,-0.008105741813778877,0.09879634529352188,1.0737653970718384,1.2902462482452393,0.7731002569198608,-1.674994945526123,2.0096025466918945,4.052082061767578,0.2917494475841522,1.1627845764160156,-0.02410249039530754,1.5383158922195435
136,34059,34058,-0.03145236894488335,0.10457251220941544,1.1257786750793457,2.361119508743286,2.1511223316192627,-1.3788747787475586,2.0101940631866455,4.052011013031006,0.29066434502601624,1.1892279386520386,-0.005078923422843218,1.5200679302215576
137,34069,34068,-0.017442721873521805,0.037958551198244095,1.0335997343063354,0.2103954404592514,2.614293098449707,-1.0244697332382202,2.012241840362549,4.051977634429932,0.2911667227745056,1.0371406078338623,0.012729731388390064,1.5133976936340332
138,34079,34078,-0.0936455950140953,0.09314178675413132,0.9633910059928894,-2.3074493408203125,1.7260072231292725,-1.369041919708252,2.012667417526245,4.052150249481201,0.2917900085449219,1.0291931629180908,-0.007513339631259441,1.502600073814392
139,34089,34088,-0.12245897948741913,0.2639544606208801,1.1420385837554932,-2.8833541870117188,-0.362088680267334,-1.2801403999328613,2.015704870223999,4.053544998168945,0.2879009246826172,0.8323776721954346,-0.05491333827376366,1.5092153549194336
140,34099,34098,-0.11032791435718536,0.27760937809944153,1.127469539642334,-3.4112324714660645,-0.7711251974105835,-1.2827014923095703,2.014907121658325,4.05310583114624,0.2884973883628845,0.9859738349914551,-0.11189813911914825,1.5014870166778564
141,34109,34108,-0.018888061866164207,0.4682815968990326,1.0566743612289429,-1.8193371295928955,-0.4535398781299591,-1.7133890390396118,2.015476703643799,4.052576541900635,0.2890684902667999,1.0387513637542725,-0.09090179949998856,1.4705160856246948
142,34119,34118,-0.016262192279100418,0.08868298679590225,0.983063280582428,-1.2576671838760376,0.2641957402229309,-1.4275614023208618,2.015113115310669,4.052764892578125,0.2897707223892212,1.1531087160110474,-0.12155155837535858,1.4577387571334839
143,34129,34128,0.0092145511880517,-0.00418000528588891,0.9705140590667725,-0.7879434823989868,-3.4535725116729736,-0.49888747930526733,2.014859914779663,4.052478313446045,0.28937238454818726,1.2465524673461914,-0.07527568191289902,1.4392222166061401
144,34139,34138,-0.13585948944091797,-0.011050287634134293,0.997644305229187,1.1109106540679932,5.151663303375244,-0.8985283970832825,2.0167484283447266,4.053013801574707,0.2898619472980499,1.1286530494689941,-0.0928233414888382,1.44308602809906
145,34149,34148,-0.08241917192935944,0.2777612805366516,1.0967636108398438,0.8061890006065369,6.159181594848633,-1.683804988861084,2.0166895389556885,4.053582191467285,0.2904636859893799,1.1307594776153564,-0.08249140530824661,1.4405120611190796
146,34159,34158,-0.03276662528514862,0.07665719836950302,0.9952038526535034,2.3130228519439697,10.733633995056152,-1.3293794393539429,2.016665458679199,4.053450584411621,0.2905113399028778,1.1037650108337402,-0.07651263475418091,1.4301844835281372
147,34169,34168,0.06911060214042664,-0.10544443875551224,0.8636729121208191,-0.5006349682807922,12.78359603881836,-1.6606675386428833,2.0169169902801514,4.053271293640137,0.2910606563091278,0.9961533546447754,-0.061353899538517,1.4225962162017822
148,34179,34178,0.003968548029661179,-0.112375907599926,0.869646430015564,-3.2534396648406982,13.89118766784668,-1.950683355331421,2.0172946453094482,4.052997589111328,0.2914884090423584,0.859732449054718,-0.09164442867040634,1.4102756977081299
149,34189,34188,0.05969296395778656,0.28054726123809814,0.9955782294273376,-4.181648254394531,11.889825820922852,-1.7955011129379272,2.017962694168091,4.053756237030029,0.2923237383365631,0.7155227065086365,-0.16265447437763214,1.4068070650100708
150,34199,34198,-0.08612735569477081,0.14764855802059174,1.064590573310852,-1.9989408254623413,3.9178647994995117,-2.2640702724456787,2.0174834728240967,4.054240703582764,0.2927233576774597,0.6407625675201416,-0.23059478402137756,1.4012702703475952
151,34209,34208,0.006981569807976484,-0.04014235734939575,0.9417567849159241,0.8370633721351624,6.44236421585083,-2.5490550994873047,2.0175940990448,4.05325984954834,0.2931578755378723,0.6310309767723083,-0.10238286107778549,1.3556865453720093
152,34219,34218,0.05132651701569557,-0.0035448982380330563,0.911263108253479,1.2861194610595703,4.20670747756958,-2.4417288303375244,2.0201425552368164,4.054704189300537,0.29340794682502747,0.3747275471687317,-0.10279061645269394,1.3573542833328247
153,34229,34228,0.036259207874536514,0.021120626479387283,0.970263659954071,0.855400800704956,1.5694782733917236,-2.6000113487243652,2.0209457874298096,4.054925918579102,0.2950126826763153,0.3496432304382324,-0.09355384111404419,1.3433303833007812
154,34239,34238,-0.02388664521276951,-0.12239357829093933,0.9636593461036682,-0.7078924775123596,0.42665693163871765,-2.2584807872772217,2.0207440853118896,4.05499792098999,0.2954152822494507,0.4227203130722046,-0.09137739986181259,1.3198946714401245
155,34250,34248,-0.004821628797799349,0.051270272582769394,1.0146783590316772,-2.0161375999450684,1.5661234855651855,-2.327082633972168,2.0209696292877197,4.054633617401123,0.29573190212249756,0.4009418785572052,-0.14101633429527283,1.3061954975128174
156,34259,34258,-0.005809602327644825,-0.11804456263780594,0.9406363368034363,-1.498100996017456,0.4342100918292999,-2.0034894943237305,2.021540403366089,4.055830955505371,0.29612183570861816,0.42986181378364563,-0.15381976962089539,1.2997462749481201
157,34269,34268,-0.02311083860695362,0.05896580591797829,1.048608422279358,-0.4356987178325653,3.4228720664978027,-2.0311577320098877,2.0225701332092285,4.056036949157715,0.2963692843914032,0.3298074007034302,-0.18648457527160645,1.280806303024292
158,34279,34278,0.004333124030381441,0.10934491455554962,1.0041215419769287,-0.231043741106987,4.64865255355835,-2.325810432434082,2.022498607635498,4.056812286376953,0.2967706024646759,0.3549060523509979,-0.1985447108745575,1.2732176780700684
159,34289,34288,0.0010413243435323238,0.08458291739225388,0.9811198711395264,1.0810039043426514,7.040082931518555,-2.682199716567993,2.0226902961730957,4.057027816772461,0.297202467918396,0.34426212310791016,-0.1979876011610031,1.247171401977539
160,34299,34298,0.0005005777347832918,0.016841011121869087,1.0200715065002441,1.2883248329162598,4.481124401092529,-1.3963983058929443,2.0229368209838867,4.057024955749512,0.2975406050682068,0.3215872645378113,-0.18264789879322052,1.2365766763687134
161,34309,34308,-0.012380744330585003,0.0342879593372345,0.9761154651641846,2.4350881576538086,4.421635150909424,-1.516764760017395,2.023726224899292,4.058101654052734,0.29786133766174316,0.2377742975950241,-0.1509200483560562,1.2341855764389038
162,34319,34318,-0.05024813488125801,-0.12853199243545532,0.9180417060852051,2.0219104290008545,4.921056270599365,-1.7854328155517578,2.0233852863311768,4.0574541091918945,0.2982160449028015,0.21478669345378876,-0.11732596904039383,1.1997153759002686
163,34329,34328,-0.0015837443061172962,-0.20919562876224518,1.0042948722839355,1.790913462638855,4.915953636169434,-1.8271738290786743,2.023643970489502,4.057154178619385,0.2958292067050934,0.1904660016298294,-0.09423105418682098,1.1800576448440552
164,34339,34338,0.10858242213726044,-0.1283295601606369,0.8511785864830017,1.102693796157837,2.769853115081787,-0.7689164876937866,2.0240132808685303,4.057046890258789,0.29589956998825073,0.1698969006538391,-0.06885774433612823,1.1737940311431885
165,34349,34348,0.01501160766929388,0.33702215552330017,0.9870434999465942,-1.099653720855713,5.2050275802612305,-1.7836142778396606,2.0238614082336426,4.057269096374512,0.2959098815917969,0.16931697726249695,-0.073030024766922,1.1653631925582886
166,34359,34358,0.02098805457353592,-0.007702978793531656,0.9675356149673462,-0.33303922414779663,7.490082740783691,-1.6683316230773926,2.024686813354492,4.0592522621154785,0.29628732800483704,0.10718118399381638,-0.09066104888916016,1.1689071655273438
167,34369,34368,-0.0142085961997509,-0.10807517170906067,0.9601304531097412,-2.8406145572662354,6.8444647789001465,-1.1037620306015015,2.0244455337524414,4.0580058097839355,0.29625678062438965,0.05404568836092949,-0.036198023706674576,1.142747402191162
168,34379,34378,0.08462972939014435,0.045510679483413696,1.0030618906021118,-2.6680963039398193,5.410546779632568,-0.7053858041763306,2.0272068977355957,4.059690952301025,0.2960685193538666,-0.22642745077610016,-0.1011672168970108,1.1599286794662476
169,34389,34388,-0.08489138633012772,0.06832018494606018,1.0864356756210327,-3.762484550476074,1.9603615999221802,-1.0581233501434326,2.027672290802002,4.059757232666016,0.2945653200149536,-0.29539161920547485,-0.1507146954536438,1.163718819618225
170,34399,34398,-0.0011756233870983124,0.08540911972522736,1.0583988428115845,-1.0283048152923584,0.5664175748825073,-0.6107595562934875,2.0270769596099854,4.059939384460449,0.2945646643638611,-0.22125166654586792,-0.20684199035167694,1.1608847379684448
171,34409,34408,0.007184074260294437,0.014622458256781101,1.0799000263214111,-0.33174562454223633,-3.05775785446167,0.21339188516139984,2.026808023452759,4.060844898223877,0.2946551442146301,-0.1272866427898407,-0.2246616929769516,1.167499303817749
172,34419,34418,-0.05006472021341324,0.006496897432953119,1.0910511016845703,1.9299817085266113,-0.8421334624290466,-0.09220820665359497,2.026167631149292,4.061058521270752,0.29592588543891907,-0.04392456263303757,-0.2116636484861374,1.1704871654510498
173,34429,34428,-0.02406836301088333,0.01176975853741169,1.0271131992340088,2.9405088424682617,-0.14970752596855164,0.2378602921962738,2.0281388759613037,4.060958385467529,0.29607242345809937,-0.19659188389778137,-0.16985644400119781,1.1771384477615356
174,34439,34438,-0.04306694120168686,-0.11901692301034927,1.0065722465515137,3.4345641136169434,0.26847368478775024,-0.07031296193599701,2.028541088104248,4.060785293579102,0.2963438630104065,-0.1955241560935974,-0.11830636858940125,1.184226393699646
175,34449,34448,0.059567537158727646,-0.28848087787628174,0.9193796515464783,2.0401265621185303,5.083062648773193,-0.13219505548477173,2.028014898300171,4.05971097946167,0.29663464426994324,-0.17428874969482422,-0.06760237365961075,1.166860818862915
176,34459,34458,0.017451653257012367,-0.10855226218700409,0.9707584977149963,-0.9390902519226074,3.1985416412353516,0.9446511268615723,2.0295166969299316,4.060087203979492,0.2957940697669983,-0.3238881528377533,-0.05047723650932312,1.1876516342163086
177,34469,34468,-0.030042210593819618,0.029484739527106285,1.0877243280410767,-0.5300869941711426,3.24519419670105,0.3886120021343231,2.0291879177093506,4.060057640075684,0.2959955334663391,-0.30402320623397827,-0.06311143934726715,1.1924288272857666
178,34479,34478,0.010064520873129368,-0.02534577250480652,0.9909662008285522,-1.1316912174224854,4.870319366455078,0.3104080557823181,2.029984951019287,4.060162544250488,0.2961437702178955,-0.3720707595348358,-0.08423786610364914,1.188305377960205
179,34489,34488,0.004355026409029961,-0.04135958105325699,0.9921098947525024,0.014000950381159782,-1.2552616596221924,1.44136381149292,2.029553174972534,4.059566497802734,0.29703524708747864,-0.3165622055530548,-0.10209991782903671,1.1870297193527222
180,34499,34498,-0.055082015693187714,0.06905235350131989,1.0248312950134277,3.1747219562530518,-4.464334011077881,1.9324272871017456,2.0328855514526367,4.059259414672852,0.2970292568206787,-0.5693477988243103,-0.08392211049795151,1.2143502235412598
181,34509,34508,-0.05407189577817917,0.3209260404109955,1.104653000831604,5.071959972381592,-7.2082319259643555,1.3653697967529297,2.033074140548706,4.059569358825684,0.29736581444740295,-0.4505946636199951,-0.024608787149190903,1.239611268043518
182,34519,34518,-0.14166972041130066,0.10520385205745697,1.1581125259399414,4.137746334075928,-8.019311904907227,2.208449602127075,2.032766103744507,4.060842990875244,0.29627445340156555,-0.3050828278064728,-0.1047094464302063,1.255037546157837
183,34529,34528,-0.011806643567979336,0.011590469628572464,1.0512374639511108,5.841306209564209,-9.755532264709473,2.6050238609313965,2.0335187911987305,4.061112403869629,0.2966214120388031,-0.21820276975631714,-0.003016893984749913,1.2967743873596191
184,34539,34538,-0.00028073039720766246,-0.02078847773373127,0.987306535243988,5.10343599319458,-3.7751941680908203,1.877333402633667,2.035000801086426,4.060871601104736,0.29696524143218994,-0.24907292425632477,0.09151729196310043,1.3282371759414673
185,34549,34548,-0.07037455588579178,-0.003186357207596302,1.018756628036499,3.445230007171631,-2.680691719055176,1.8211195468902588,2.035318613052368,4.062081336975098,0.2974519729614258,-0.16370141506195068,0.019433913752436638,1.3404598236083984
186,34559,34558,0.0020201413426548243,-0.018892375752329826,0.9763035178184509,-0.16736479103565216,0.7696613669395447,1.7670382261276245,2.03470778465271,4.062652111053467,0.2982202470302582,-0.06262154877185822,0.06920094043016434,1.3781157732009888
187,34569,34568,-0.07121052592992783,-0.005891123786568642,0.9626362919807434,-0.6689120531082153,2.095219373703003,2.6806273460388184,2.0360500812530518,4.062949180603027,0.2986418306827545,-0.154762402176857,0.07240541279315948,1.4091789722442627
188,34579,34578,-0.02312242053449154,-0.0641484335064888,0.923138439655304,-1.25773024559021,3.6992993354797363,2.634382724761963,2.0361669063568115,4.0618672370910645,0.2991608679294586,-0.11369820684194565,0.14357662200927734,1.431828260421753
189,34589,34588,0.027379652485251427,-0.21115244925022125,0.8959853649139404,-2.4732654094696045,7.197596549987793,1.6682806015014648,2.038343667984009,4.061659336090088,0.30223217606544495,-0.3514164090156555,0.10834310203790665,1.4511014223098755
190,34599,34598,0.09408903121948242,-0.20419394969940186,0.9156854152679443,-3.025243043899536,-0.9130642414093018,2.558441162109375,2.040656566619873,4.062390327453613,0.3024882376194,-0.5349942445755005,-0.005034052766859531,1.4715789556503296
191,34609,34608,-0.03251300007104874,-0.251629114151001,0.9506567120552063,-2.830120086669922,-2.6767077445983887,2.4411323070526123,2.0398566722869873,4.062617778778076,0.3031947910785675,-0.32861778140068054,-0.04193374887108803,1.5003482103347778
192,34619,34618,0.07048557698726654,-0.00562196085229516,0.8667767643928528,1.5196912288665771,-9.87990665435791,3.5368576049804688,2.0405893325805664,4.061706066131592,0.3023909032344818,-0.2919924557209015,0.007258813828229904,1.5196709632873535
193,34629,34628,0.09778323769569397,-0.10540472716093063,0.8495574593544006,3.617337226867676,-6.784968376159668,2.0684776306152344,2.039804458618164,4.061547756195068,0.3026826083660126,-0.043260615319013596,0.046512797474861145,1.5499045848846436
194,34639,34638,0.026171065866947174,-0.1917685866355896,0.904534101486206,3.2607386112213135,-4.15583610534668,2.186525821685791,2.040592670440674,4.061037540435791,0.30269119143486023,-0.00229762215167284,0.1063336730003357,1.5719553232192993
195,34649,34648,0.09334000945091248,-0.22317785024642944,0.9095413684844971,1.082139253616333,-4.2565155029296875,2.686937093734741,2.0416173934936523,4.060935974121094,0.3025769889354706,0.011306418105959892,0.14227530360221863,1.5969555377960205
196,34659,34658,-0.011959418654441833,-0.023932477459311485,1.0133775472640991,-0.5152083039283752,-7.39378547668457,2.882234573364258,2.0429089069366455,4.0623626708984375,0.30183979868888855,-0.006614383775740862,0.07641530781984329,1.636243462562561
197,34669,34668,-0.07294508069753647,0.08961309492588043,1.069399118423462,-0.2834824323654175,5.224235534667969,3.2004847526550293,2.0434610843658447,4.062027454376221,0.30170345306396484,0.03908894211053848,0.07169666886329651,1.6631991863250732
198,34679,34678,0.044922370463609695,-0.24308916926383972,0.8737627267837524,-2.2523725032806396,4.913158893585205,3.208714723587036,2.0467536449432373,4.061324119567871,0.30137208104133606,-0.2664615511894226,0.14158642292022705,1.6907442808151245
199,34689,34688,0.08889207243919373,-0.08904734998941422,0.950533926486969,-4.539615154266357,-0.5941421985626221,3.5929031372070312,2.046808958053589,4.061359405517578,0.3007747232913971,-0.19638507068157196,0.0752115324139595,1.718395471572876
200,34699,34698,-0.0388709120452404,0.020762529224157333,1.0509291887283325,-3.151318311691284,-4.249979496002197,3.6577188968658447,2.049110174179077,4.060736179351807,0.300370454788208,-0.28592079877853394,0.07547184824943542,1.7374060153961182
201,34709,34708,-0.023256367072463036,0.005308972205966711,1.0696717500686646,-2.7706282138824463,-8.47137451171875,4.149207592010498,2.047452211380005,4.0606842041015625,0.3005075752735138,0.014419160783290863,0.018117832019925117,1.7842707633972168
202,34719,34718,0.04271228238940239,-0.1181318461894989,0.9768779277801514,-1.2025730609893799,-13.462227821350098,4.196568489074707,2.048706531524658,4.060463905334473,0.30009031295776367,0.04239477217197418,0.05861435830593109,1.849636435508728
203,34729,34728,-0.0313473716378212,-0.11825559288263321,1.0577754974365234,-0.5962752103805542,-13.727883338928223,2.970388174057007,2.04835844039917,4.060798645019531,0.29997798800468445,0.26968884468078613,0.03818007558584213,1.8813022375106812
204,34739,34738,-0.0012982123298570514,0.06926004588603973,1.1309667825698853,-0.27707040309906006,-3.910146474838257,1.9237648248672485,2.0494542121887207,4.060081481933594,0.2997695803642273,0.2719741761684418,0.030097080394625664,1.8827321529388428
205,34749,34748,0.010817930102348328,0.08905316144227982,1.1195968389511108,0.38080164790153503,0.9028645157814026,1.9597240686416626,2.0505425930023193,4.060904502868652,0.29839178919792175,0.23554152250289917,-0.05557718873023987,1.8930768966674805
206,34759,34758,-0.023812374100089073,0.3122381567955017,1.130091667175293,-2.042128562927246,4.407602310180664,1.956524133682251,2.050987958908081,4.059969902038574,0.2984173595905304,0.22687509655952454,0.01930388994514942,1.9174307584762573
207,34769,34768,-0.03198663890361786,0.3332557678222656,1.1105538606643677,-1.568060278892517,2.957444190979004,1.3297531604766846,2.051541566848755,4.059062480926514,0.2985284924507141,0.19325700402259827,0.05793523043394089,1.9263529777526855
208,34779,34778,-0.10668714344501495,0.14036816358566284,1.0978528261184692,-3.580326557159424,1.1048595905303955,0.23455840349197388,2.0530343055725098,4.059093475341797,0.2986694574356079,0.10234184563159943,0.004220270551741123,1.9240671396255493
209,34789,34788,-0.09256409108638763,0.06988314539194107,1.1486287117004395,-4.3067522048950195,-1.6980701684951782,0.21376857161521912,2.053722620010376,4.059545516967773,0.301569402217865,0.06080694869160652,-0.06819270551204681,1.9443612098693848
210,34799,34798,-0.044139448553323746,-0.0888240784406662,0.9858115911483765,-3.672093152999878,1.2128214836120605,-0.18571381270885468,2.0536279678344727,4.059309005737305,0.30223166942596436,0.16674144566059113,-0.061098020523786545,1.9463918209075928
211,34809,34808,0.06816142797470093,-0.07445178925991058,0.9643507599830627,-2.1950414180755615,-1.2640286684036255,0.31113144755363464,2.0557219982147217,4.0606770515441895,0.30271032452583313,0.03612257540225983,-0.20285283029079437,1.9548448324203491
212,34819,34818,-0.03838874399662018,-0.09958218038082123,0.981124758720398,1.5698550939559937,-3.3965365886688232,-1.0559548139572144,2.0561106204986572,4.060232162475586,0.3041055202484131,0.10695304721593857,-0.22271808981895447,1.9367053508758545
213,34829,34828,-0.004211446736007929,-0.14539994299411774,0.9702770709991455,3.1382105350494385,-3.5135409832000732,-1.4467830657958984,2.0558736324310303,4.05950403213501,0.30483105778694153,0.26427996158599854,-0.10871633887290955,1.9324445724487305
214,34839,34838,-0.07171119749546051,-0.038623299449682236,0.999665379524231,2.912257432937622,-7.881795883178711,-2.006514549255371,2.0572104454040527,4.05853796005249,0.30530643463134766,0.19018182158470154,-0.05902557820081711,1.8969404697418213
215,34849,34848,-0.04126279428601265,-0.131952702999115,0.9623687863349915,3.614832639694214,-1.3721246719360352,-0.9121654033660889,2.056720018386841,4.058265209197998,0.307554692029953,0.3748287856578827,-0.0019463247153908014,1.873549222946167
216,34859,34858,0.07497672736644745,-0.16732977330684662,0.8783119320869446,0.34148237109184265,-0.2724393606185913,-1.087384819984436,2.0577266216278076,4.057892322540283,0.3081577718257904,0.33942753076553345,0.0326140932738781,1.8713033199310303
217,34869,34868,0.0221528559923172,-0.16085079312324524,0.9231237173080444,-2.1007349491119385,0.07611837983131409,-1.4235302209854126,2.05859112739563,4.058227062225342,0.3086491525173187,0.3086438477039337,0.032560836523771286,1.8780268430709839
218,34879,34878,0.07572241872549057,0.015394069254398346,0.93926602602005,-4.911678314208984,4.595864295959473,-1.9894965887069702,2.060230255126953,4.059490203857422,0.3090844750404358,0.20790494978427887,-0.1129719465970993,1.8697361946105957
219,34889,34888,0.027280550450086594,-0.21345363557338715,0.9230493903160095,-6.421405792236328,6.529706001281738,-1.6333588361740112,2.0601296424865723,4.059738636016846,0.311346173286438,0.22050359845161438,-0.20905889570713043,1.856465220451355
220,34899,34898,0.11514094471931458,-0.16630016267299652,0.8832187652587891,-4.560909748077393,4.756474018096924,-1.5330352783203125,2.060657501220703,4.059699058532715,0.3118550777435303,0.22393114864826202,-0.2265143245458603,1.840763807296753
221,34909,34908,0.09537624567747116,0.4402766525745392,0.8943270444869995,-1.523681640625,4.167259216308594,-1.895797610282898,2.0623621940612793,4.058117389678955,0.31217092275619507,0.08155988901853561,-0.15102675557136536,1.8117389678955078
222,34919,34918,0.0874190703034401,0.19926729798316956,0.8438783884048462,1.3335086107254028,2.0152461528778076,-1.8922532796859741,2.064622402191162,4.057843208312988,0.31367188692092896,-0.10907092690467834,-0.17791053652763367,1.7846205234527588
223,34929,34928,-0.018143918365240097,0.06100476160645485,1.0101174116134644,1.577419400215149,-2.063920736312866,-2.4414398670196533,2.0648820400238037,4.057519435882568,0.31407633423805237,0.0069288527593016624,-0.16046160459518433,1.7583023309707642
224,34939,34938,0.034463509917259216,-0.07005529850721359,0.9344486594200134,4.317019462585449,-5.155324459075928,-3.0037500858306885,2.0646731853485107,4.05743932723999,0.31436440348625183,0.10599521547555923,-0.20080482959747314,1.7150050401687622
225,34949,34948,-0.007090853992849588,-0.2584124207496643,0.8753340840339661,7.478037357330322,-7.238746166229248,-2.200601577758789,2.065640687942505,4.0576605796813965,0.31718364357948303,0.19722996652126312,-0.18313312530517578,1.6821321249008179
226,34959,34958,0.10677948594093323,-0.13005322217941284,0.918861448764801,5.991493225097656,-5.813399791717529,-1.699689507484436,2.06712007522583,4.057258605957031,0.3173937201499939,0.18430663645267487,-0.057496555149555206,1.6650245189666748
227,34969,34968,0.1937119960784912,-0.022722424939274788,0.8761047124862671,5.477542877197266,-2.8449697494506836,-2.167423963546753,2.0675153732299805,4.056859970092773,0.3176340162754059,0.2977588474750519,0.03893826901912689,1.6409639120101929
228,34979,34978,0.0874054804444313,-0.18788719177246094,0.9025437831878662,3.9953246116638184,0.47074639797210693,-3.2836761474609375,2.070845603942871,4.056281089782715,0.31982114911079407,0.13446250557899475,0.11760815232992172,1.6008399724960327
229,34989,34988,0.11522578448057175,-0.26108142733573914,0.8513994812965393,2.406555414199829,0.11458715796470642,-2.0701754093170166,2.0692451000213623,4.056787014007568,0.3199758529663086,0.2550661861896515,0.0930233970284462,1.5755685567855835
230,34999,34998,0.07357223331928253,-0.16245028376579285,0.9729232788085938,0.5350421667098999,2.722926139831543,-2.110569953918457,2.0718674659729004,4.056723594665527,0.3199760913848877,0.12056079506874084,0.10291457921266556,1.5774706602096558
231,35009,35008,0.07845333218574524,-0.221331387758255,0.8724201917648315,-3.572035789489746,3.3458173274993896,-2.5413684844970703,2.0723538398742676,4.056793689727783,0.3200947344303131,0.20049801468849182,0.10412836819887161,1.5542101860046387
232,35019,35018,-0.007890376262366772,0.05918072909116745,0.947941780090332,-2.6750552654266357,2.2306392192840576,-1.7659434080123901,2.0725297927856445,4.056718349456787,0.32112669944763184,0.2571878731250763,0.046298179775476456,1.518721103668213
233,35029,35028,0.05119159072637558,-0.15423256158828735,0.8492473363876343,-2.2411420345306396,-2.007777452468872,-1.2172120809555054,2.0744435787200928,4.05679178237915,0.32101982831954956,0.17824459075927734,-0.0494881272315979,1.4760897159576416
234,35039,35038,-0.01826677843928337,-0.0807519182562828,0.9844970703125,-1.4597938060760498,0.7713052034378052,-1.4299992322921753,2.074738025665283,4.056760787963867,0.32090938091278076,0.208760067820549,-0.05843057110905647,1.4680002927780151
235,35049,35048,0.06321508437395096,-0.13927598297595978,0.9640968441963196,1.6408361196517944,2.3885183334350586,-0.8257229328155518,2.0772857666015625,4.05712366104126,0.3200499415397644,0.08018946647644043,-0.07271172851324081,1.464247465133667
236,35059,35058,-0.026173032820224762,-0.19284401834011078,0.9266977310180664,4.266275882720947,-3.2848892211914062,-0.5102323889732361,2.077587842941284,4.056291103363037,0.3197876811027527,0.1207568421959877,-0.03993082791566849,1.4311025142669678
237,35069,35068,0.11382940411567688,-0.11396332830190659,0.861402153968811,8.819307327270508,-4.668249607086182,-0.044609688222408295,2.0782411098480225,4.055179595947266,0.31952425837516785,0.21183530986309052,0.1126275435090065,1.408143162727356
238,35079,35078,0.025528039783239365,-0.038696691393852234,0.9122071862220764,5.360376358032227,-2.7292933464050293,-0.14478686451911926,2.0775701999664307,4.054985046386719,0.31854209303855896,0.40521401166915894,0.14899536967277527,1.3983874320983887
239,35089,35088,0.12546640634536743,-0.17690439522266388,0.8781898021697998,2.780564546585083,-1.4104835987091064,0.17860735952854156,2.0798873901367188,4.054107189178467,0.31795158982276917,0.26663336157798767,0.2339044064283371,1.3860106468200684
240,35099,35098,0.07559835910797119,-0.19240102171897888,1.0150344371795654,-0.17709648609161377,-2.580965995788574,1.358376383781433,2.0816919803619385,4.054011821746826,0.31732437014579773,0.30174681544303894,0.2861135005950928,1.3999671936035156
