,timestamp_start,timestamp_end,acc.x,acc.y,acc.z,gyro.x,gyro.y,gyro.z,stateEstimate.x,stateEstimate.y,stateEstimate.z,stabilizer.pitch,stabilizer.roll,stabilizer.yaw
0,202058,202057,0.03277160972356796,-0.024142736569046974,1.057746171951294,-3.8931589126586914,-4.010459899902344,0.8222249746322632,1.9635772705078125,3.971590280532837,0.15576094388961792,-0.16756954789161682,-0.6420180201530457,2.2153515815734863
1,202068,202067,0.02394549362361431,-0.02206416055560112,1.1194058656692505,-1.919113039970398,-9.275971412658691,1.4218132495880127,1.9633194208145142,3.970369338989258,0.15811577439308167,-0.5001316666603088,-0.7543973326683044,2.243436574935913
2,202078,202077,-0.043737996369600296,0.011380616575479507,1.0639979839324951,0.6599304676055908,-9.60827922821045,1.1755638122558594,1.9653966426849365,3.97027587890625,0.15946796536445618,-0.3893333077430725,-0.8083672523498535,2.251770496368408
3,202088,202087,0.006892260164022446,-0.03508730232715607,1.0801312923431396,1.2593200206756592,-7.908275604248047,0.9527313113212585,1.9650228023529053,3.971687078475952,0.16192954778671265,-0.30741655826568604,-0.833250880241394,2.2594316005706787
4,202098,202097,0.04038144275546074,-0.14706014096736908,1.11158287525177,2.87526798248291,-10.58903694152832,1.2738757133483887,1.9653276205062866,3.9720113277435303,0.16442644596099854,-0.2046491950750351,-0.8283540606498718,2.2675540447235107
5,202108,202107,-0.03570428863167763,-0.10483246296644211,1.0696020126342773,6.1093573570251465,-15.09592342376709,1.5975955724716187,1.964475154876709,3.9715991020202637,0.16759826242923737,-0.03505856916308403,-0.497633695602417,2.305695056915283
6,202118,202117,0.029159892350435257,0.06504108756780624,1.024182915687561,6.321684837341309,-15.610081672668457,1.9729803800582886,1.9644347429275513,3.9711785316467285,0.17054499685764313,0.08129556477069855,-0.46936050057411194,2.3250977993011475
7,202128,202127,-0.004245441406965256,0.005640579853206873,1.009713888168335,3.5221524238586426,-14.866659164428711,1.6808496713638306,1.9646810293197632,3.971310615539551,0.1733393371105194,0.34398743510246277,-0.3849237263202667,2.3397018909454346
8,202138,202137,-0.03476206585764885,-0.04283139482140541,1.0560095310211182,0.6744378209114075,-13.827133178710938,1.537339687347412,1.9640957117080688,3.9716274738311768,0.17610761523246765,0.49277806282043457,-0.35765090584754944,2.3575615882873535
9,202148,202147,-0.045163314789533615,-0.2559673488140106,0.9989969730377197,-2.1579136848449707,-11.19905948638916,1.7391228675842285,1.9620611667633057,3.972059965133667,0.1789683699607849,0.5309670567512512,-1.17518949508667,2.365715980529785
10,202158,202157,-0.03281465172767639,-0.11062317341566086,0.9864904880523682,-4.656922817230225,-4.309469699859619,1.8349406719207764,1.9643806219100952,3.9782323837280273,0.18310680985450745,0.7281035780906677,-1.1633069515228271,2.3802359104156494
11,202168,202167,0.03686119243502617,-0.008273244835436344,0.979080080986023,-2.3556630611419678,1.3774281740188599,1.875476598739624,1.9634053707122803,3.9800353050231934,0.186319038271904,0.5903049111366272,-1.019519567489624,2.4046788215637207
12,202178,202177,-0.024052638560533524,-0.018053647130727768,0.9993306398391724,3.7191710472106934,3.9572536945343018,2.1739678382873535,1.964730978012085,3.9804458618164062,0.18930655717849731,0.5645062923431396,-1.0244266986846924,2.424213171005249
13,202188,202187,-0.035511214286088943,-0.038013871759176254,1.0008856058120728,12.034043312072754,4.907435894012451,2.133822441101074,1.965238332748413,3.98016095161438,0.19241923093795776,0.4828818738460541,-0.7977854013442993,2.438753128051758
14,202199,202197,-0.02013416960835457,-0.12005459517240524,0.9853216409683228,16.523479461669922,1.2756141424179077,2.344862222671509,1.965226173400879,3.979374408721924,0.1953011304140091,0.5158457159996033,-0.5406126379966736,2.4485089778900146
15,202208,202207,0.003289333079010248,-0.07672324031591415,0.9485335350036621,17.31881332397461,-4.07418155670166,2.1877894401550293,1.964419960975647,3.9788124561309814,0.19677585363388062,0.5407676696777344,-0.1872158944606781,2.4610025882720947
16,202218,202217,0.0075803715735673904,0.026678169146180153,0.9682652950286865,16.255247116088867,-8.103214263916016,1.8551716804504395,1.9636898040771484,3.9779586791992188,0.19946499168872833,0.5897338390350342,-0.014461633749306202,2.4822864532470703
17,202228,202227,0.05844496190547943,0.0032716679852455854,0.9671225547790527,11.050936698913574,-11.717992782592773,1.7475979328155518,1.9624569416046143,3.9787819385528564,0.2023756504058838,0.9121312499046326,-0.3001616299152374,2.5151426792144775
18,202238,202237,0.021024540066719055,-0.01986529305577278,0.9504142999649048,4.115677833557129,-11.811361312866211,0.8762115836143494,1.9618020057678223,3.9830000400543213,0.20554716885089874,0.8510614037513733,-0.2127269208431244,2.5353710651397705
19,202248,202247,0.01478515937924385,-0.024162421002984047,0.938266932964325,0.3167300820350647,-9.086182594299316,0.3147175908088684,1.9630740880966187,3.9828059673309326,0.2083691954612732,1.4309779405593872,0.07839677482843399,2.505366325378418
20,202258,202257,0.09791718423366547,-0.007494536694139242,0.9157325029373169,-2.4742002487182617,-1.9815802574157715,0.0745694562792778,1.9589663743972778,3.981289863586426,0.21127092838287354,1.4811872243881226,0.06704050302505493,2.505267858505249
21,202268,202267,0.09266865998506546,0.02928338572382927,0.9092182517051697,-2.9618337154388428,5.071319580078125,-0.33850589394569397,1.948499083518982,3.9906105995178223,0.21185441315174103,2.490673542022705,-1.1708577871322632,2.637413740158081
22,202278,202277,0.044511258602142334,0.01958962343633175,0.9617567658424377,4.069389343261719,18.224044799804688,-1.4754420518875122,1.9481111764907837,3.992257595062256,0.21610011160373688,2.14169979095459,-0.9904235601425171,2.600161552429199
23,202288,202287,0.04088062793016434,-0.04049338027834892,0.9429242610931396,16.15254020690918,31.952287673950195,-0.3963468670845032,1.9483962059020996,3.993699312210083,0.2208343744277954,1.8887004852294922,-0.674180805683136,2.53155779838562
24,202298,202297,0.01945003680884838,-0.03847590461373329,0.9308956861495972,26.967281341552734,42.24128723144531,-0.46029990911483765,1.9474064111709595,3.992800712585449,0.22433234751224518,1.2100305557250977,-0.2677095830440521,2.491377353668213
25,202308,202307,0.05787832662463188,0.007279106881469488,0.9212426543235779,32.57666015625,44.82582092285156,-0.6298895478248596,1.9486258029937744,3.992210626602173,0.2279811054468155,0.90671706199646,0.09901383519172668,2.4605963230133057
26,202318,202317,0.09360484033823013,-0.001572995213791728,0.9199057221412659,31.743432998657227,41.30678176879883,-1.0288134813308716,1.9456639289855957,3.9920856952667236,0.2304248809814453,0.3004249632358551,0.6383577585220337,2.4181830883026123
27,202328,202327,0.05248842015862465,-0.04512406885623932,0.9380821585655212,26.730968475341797,32.222721099853516,-1.458192229270935,1.945675015449524,3.9925317764282227,0.232920840382576,-0.0927034541964531,0.9447768926620483,2.412014961242676
28,202338,202337,0.046397220343351364,-0.08720438182353973,0.9069655537605286,17.346595764160156,18.683313369750977,-1.8729811906814575,1.9453779458999634,3.992433786392212,0.23239414393901825,-0.4445047080516815,1.261540412902832,2.390089511871338
29,202348,202347,0.02222677506506443,0.04378750920295715,0.9028854966163635,5.489801406860352,5.970538139343262,-2.2393434047698975,1.9444175958633423,3.9916861057281494,0.234454944729805,-0.6368616819381714,1.3971911668777466,2.3714048862457275
30,202358,202357,0.041108012199401855,0.14696159958839417,0.9032492637634277,-7.3376569747924805,-6.426443576812744,-1.7759803533554077,1.9442567825317383,3.992539644241333,0.2363390177488327,-0.7184361815452576,1.4569798707962036,2.3421897888183594
31,202368,202367,0.05180998146533966,0.14685140550136566,0.8986016511917114,-14.623064041137695,-12.516880989074707,-1.5418362617492676,1.9433478116989136,3.9921724796295166,0.23675228655338287,-0.6398681998252869,1.3652126789093018,2.323319911956787
32,202378,202377,0.022124281153082848,0.02967085875570774,0.9316277503967285,-18.18712043762207,-15.42635726928711,-1.6947590112686157,1.9422073364257812,3.9908547401428223,0.23816858232021332,-0.47724050283432007,1.4979255199432373,2.296724319458008
33,202388,202387,-0.010386381298303604,-0.018107367679476738,0.9393117427825928,-18.389446258544922,-13.525970458984375,-1.73984956741333,1.9413126707077026,3.9917290210723877,0.23974739015102386,-0.295794278383255,1.328467607498169,2.281763792037964
34,202398,202397,-0.07005849480628967,-0.00029548638849519193,0.9532308578491211,-18.274721145629883,-7.914773464202881,-2.130382537841797,1.9405673742294312,3.993467092514038,0.24168507754802704,-0.23774325847625732,0.9232819676399231,2.2485876083374023
35,202408,202407,-0.049765150994062424,0.020841049030423164,0.965939462184906,-15.328995704650879,-1.470689296722412,-1.1223945617675781,1.9439133405685425,3.9943044185638428,0.24190711975097656,-0.573386549949646,0.7817914485931396,2.162870168685913
36,202418,202417,-0.0628194659948349,0.006005228962749243,0.9715113639831543,-10.711601257324219,3.406278371810913,-0.7978852391242981,1.9417589902877808,3.9932475090026855,0.24349786341190338,-0.3573600947856903,0.6139400601387024,2.190835475921631
37,202428,202427,-0.0492866151034832,-0.03610553964972496,0.966006338596344,-5.10542631149292,6.8767805099487305,-0.08922776579856873,1.9419865608215332,3.994250535964966,0.24499642848968506,-0.5489413738250732,0.4487386643886566,2.1594138145446777
38,202438,202437,-0.07148559391498566,0.029880892485380173,0.9588092565536499,-0.25215378403663635,5.482077121734619,0.4868287742137909,1.9417580366134644,3.9931647777557373,0.24561652541160583,-0.6758908629417419,0.5501475930213928,2.157496452331543
39,202448,202447,-0.03874260187149048,0.16571906208992004,0.9604324698448181,2.522873640060425,3.463290214538574,0.38454294204711914,1.9395718574523926,3.989576578140259,0.2469700574874878,-0.5409895181655884,0.9377923011779785,2.2223775386810303
40,202458,202457,0.009538305923342705,0.23195217549800873,0.9802576899528503,1.9975582361221313,0.13587523996829987,0.11982830613851547,1.939468264579773,3.9884445667266846,0.2480415403842926,-0.6159766316413879,1.0754340887069702,2.2256293296813965
41,202468,202467,0.019754616543650627,0.07338643819093704,0.9791560769081116,-3.9519100189208984,-4.656048774719238,0.19766858220100403,1.9388474225997925,3.986992597579956,0.25220927596092224,-0.615086555480957,1.1611162424087524,2.2306065559387207
42,202478,202477,-0.0385916605591774,-0.009827803820371628,0.9365707039833069,-12.553373336791992,-8.235304832458496,-0.4022374451160431,1.9377753734588623,3.9892163276672363,0.25378456711769104,-0.46384015679359436,0.9673750996589661,2.232273578643799
43,202488,202487,-0.02759639360010624,0.009146658703684807,0.9555589556694031,-20.822776794433594,-8.752260208129883,-0.3126698434352875,1.9366854429244995,3.9895498752593994,0.2551161050796509,-0.5523490905761719,0.796666145324707,2.1948513984680176
44,202498,202497,-0.03225455805659294,0.05558695271611214,0.9099628329277039,-25.031963348388672,-8.377785682678223,-0.5338723659515381,1.938629150390625,3.989729166030884,0.256421834230423,-0.4773643910884857,0.565288245677948,2.187377452850342
45,202508,202507,-0.04410060867667198,0.03432237729430199,0.9949124455451965,-25.244091033935547,-6.713964939117432,-0.07538154721260071,1.938391923904419,3.9899823665618896,0.26013386249542236,-0.43309664726257324,0.13946370780467987,2.1610283851623535
46,202518,202517,-0.009083538316190243,0.02517574466764927,0.9608872532844543,-21.23870277404785,-4.199038028717041,0.05744045972824097,1.937861680984497,3.9857616424560547,0.26140546798706055,-0.4678784906864166,0.25533467531204224,2.186335802078247
47,202528,202527,0.009626869112253189,0.048832185566425323,0.9684037566184998,-16.281530380249023,-3.5305709838867188,0.040229812264442444,1.938755989074707,3.984739303588867,0.2627614736557007,-0.46687719225883484,0.008044457994401455,2.1731348037719727
48,202538,202537,-0.039864681661129,0.1056174784898758,1.0369422435760498,-12.377460479736328,-3.1023800373077393,0.21150588989257812,1.9392868280410767,3.9850711822509766,0.26312628388404846,-0.39716336131095886,-0.08499063551425934,2.1820921897888184
49,202548,202547,-0.0089231226593256,0.038205940276384354,0.9971276521682739,-9.438350677490234,-3.579385280609131,0.3879239857196808,1.938732624053955,3.9848005771636963,0.2643429636955261,-0.36691033840179443,-0.19513623416423798,2.1851847171783447
50,202558,202557,-0.056447193026542664,0.0635647401213646,0.9675859808921814,-8.077162742614746,-5.269154071807861,0.2843726873397827,1.9390004873275757,3.984860420227051,0.26555830240249634,-0.3592286705970764,-0.2898600399494171,2.182619094848633
51,202568,202567,-0.08480352908372879,0.10399305075407028,0.9210264086723328,-7.776294231414795,-5.9520368576049805,0.06799620389938354,1.939306378364563,3.986213445663452,0.2676485776901245,-0.32698771357536316,-0.5183873176574707,2.165818929672241
52,202578,202577,0.005083903204649687,-0.08447367697954178,0.9845880270004272,-8.44086742401123,-6.528006553649902,0.6587157249450684,1.9396542310714722,3.984189033508301,0.268795907497406,-0.20714876055717468,-0.4424383044242859,2.1940712928771973
53,202588,202587,-0.04731709510087967,0.10958512127399445,0.9603376388549805,-8.825599670410156,-7.7702860832214355,-0.21526531875133514,1.9385930299758911,3.983499526977539,0.2700287401676178,-0.1456632763147354,-0.5311627388000488,2.1869232654571533
54,202598,202597,0.03092658519744873,0.014626014977693558,0.9044462442398071,-10.094088554382324,-3.9461746215820312,-0.3229236900806427,1.9376702308654785,3.983947277069092,0.27004796266555786,-0.07852223515510559,-0.6243255138397217,2.187333583831787
55,202608,202607,-0.0301093477755785,0.043874580413103104,0.9816769361495972,-9.014421463012695,-8.82923698425293,0.04115046560764313,1.9381184577941895,3.9838454723358154,0.2710403501987457,-0.11033059656620026,-0.8031837344169617,2.176530599594116
56,202618,202617,-0.0749499499797821,-0.0013747719349339604,1.000838279724121,-8.430583953857422,-8.383993148803711,-0.07681001722812653,1.937390685081482,3.9836878776550293,0.272016704082489,0.06208566203713417,-0.8832243084907532,2.180542469024658
57,202628,202627,-0.1013377234339714,0.03981708362698555,1.0306274890899658,-7.034214973449707,-6.842884063720703,-0.38022151589393616,1.937490463256836,3.9824585914611816,0.2729218006134033,0.07061047852039337,-0.9439210891723633,2.1808550357818604
58,202638,202637,-0.047478385269641876,0.01643713004887104,0.9904562830924988,-6.467379093170166,-3.90620493888855,-0.5837607979774475,1.936870813369751,3.981480121612549,0.27530738711357117,0.19027209281921387,-0.9904296398162842,2.178016424179077
59,202648,202647,0.008064765483140945,-0.04948624595999718,0.94000643491745,-5.236847400665283,-3.0096397399902344,-0.5858515501022339,1.936267614364624,3.9820616245269775,0.27632033824920654,0.2719951272010803,-1.0248569250106812,2.172654628753662
60,202658,202657,-0.03171627223491669,-0.00798687245696783,0.9858095645904541,-4.947654724121094,-2.339939594268799,-0.31804904341697693,1.9365639686584473,3.9826276302337646,0.2773350775241852,0.26153311133384705,-1.1168408393859863,2.16807222366333
61,202668,202667,0.01626233570277691,-0.043525636196136475,0.938389778137207,-4.787599086761475,-3.336487054824829,-0.2936059236526489,1.9377179145812988,3.9823341369628906,0.2781725525856018,0.16866034269332886,-1.1967872381210327,2.1683895587921143
62,202678,202677,0.04322505742311478,-0.11055683344602585,0.9604188799858093,-4.6412177085876465,1.5969734191894531,-1.572974681854248,1.9365888833999634,3.9819493293762207,0.27908772230148315,0.25689923763275146,-1.2645343542099,2.1604013442993164
63,202688,202687,-0.02109532058238983,0.07010157406330109,0.9915459156036377,-2.755772113800049,-2.5023391246795654,-1.0491141080856323,1.9365569353103638,3.9809179306030273,0.2799857556819916,0.29170894622802734,-1.2437137365341187,2.149008274078369
64,202698,202697,0.012164412066340446,-0.03381681814789772,0.9328543543815613,-1.452793002128601,-3.2177517414093018,-1.1261452436447144,1.936495065689087,3.981891632080078,0.2814948260784149,0.2917458415031433,-1.2727843523025513,2.141674757003784
65,202708,202707,-0.02169206738471985,0.016408393159508705,0.9825179576873779,-1.145385980606079,-5.180937767028809,-1.290631651878357,1.9356576204299927,3.982344627380371,0.2823575437068939,0.3875303268432617,-1.3570059537887573,2.1243956089019775
66,202718,202717,-0.013897025026381016,0.0016711675561964512,0.9762776494026184,-0.5607842206954956,-4.659661293029785,-1.1915243864059448,1.935917615890503,3.982896089553833,0.2832084596157074,0.4119730293750763,-1.4265785217285156,2.1161816120147705
67,202728,202727,0.011758087202906609,0.013126512058079243,0.9488661289215088,0.6598506569862366,-4.346740245819092,-1.1219868659973145,1.9351509809494019,3.982116937637329,0.2840368151664734,0.5086800456047058,-1.327285885810852,2.098024606704712
68,202738,202737,0.004802187904715538,0.03644094988703728,0.9571914672851562,1.986838459968567,-3.9862327575683594,-1.102736234664917,1.9345871210098267,3.9814393520355225,0.2862371504306793,0.5914672017097473,-1.3618454933166504,2.0838189125061035
69,202748,202747,0.01843136176466942,0.049390606582164764,0.9102993011474609,2.223602771759033,-0.13263964653015137,-1.736424446105957,1.9345680475234985,3.9819352626800537,0.2870331406593323,0.5854875445365906,-1.3697049617767334,2.0753660202026367
70,202758,202757,-0.008499905467033386,0.09593262523412704,0.9778615236282349,2.516906976699829,-0.9880580902099609,-1.2403860092163086,1.9337290525436401,3.9804153442382812,0.28774529695510864,0.6154322028160095,-1.3670071363449097,2.0595853328704834
71,202768,202767,-0.02092609368264675,0.030979041010141373,0.9993345141410828,3.3417296409606934,0.8524190783500671,-1.4369319677352905,1.9333558082580566,3.9803314208984375,0.2867182195186615,0.6361000537872314,-1.352925419807434,2.0448529720306396
72,202778,202777,0.026021134108304977,-0.11769116669893265,0.9647759199142456,3.576834201812744,0.8908326029777527,-1.4274647235870361,1.9332540035247803,3.9799487590789795,0.2872716188430786,0.6320294141769409,-1.3164316415786743,2.032275676727295
73,202788,202787,0.012533172033727169,-0.08852912485599518,1.0075857639312744,3.7900238037109375,2.249372959136963,-1.7973710298538208,1.9356086254119873,3.9807591438293457,0.28788793087005615,0.38964468240737915,-1.356182336807251,2.0574841499328613
74,202798,202797,0.008642571978271008,-0.0069390758872032166,1.003874659538269,4.231253623962402,1.3520543575286865,-1.754542589187622,1.9348163604736328,3.981262683868408,0.28817451000213623,0.45354005694389343,-1.2347623109817505,2.018585681915283
75,202808,202807,0.05238918215036392,-0.05731109529733658,0.9298096299171448,4.322628498077393,0.5535907745361328,-1.358121633529663,1.9333921670913696,3.9811835289001465,0.2886994481086731,0.522643506526947,-1.1866302490234375,1.987722396850586
76,202818,202817,0.06959013640880585,-0.11526516824960709,0.9309635758399963,4.445131778717041,-1.2363320589065552,-1.0402030944824219,1.9336234331130981,3.9824204444885254,0.2891969680786133,0.5298209190368652,-1.133674144744873,1.9752771854400635
77,202828,202827,0.0855194628238678,-0.1960446685552597,0.9582532644271851,5.057855129241943,-2.825545072555542,-1.0685378313064575,1.9328960180282593,3.982577085494995,0.2895835340023041,0.5693984627723694,-1.07460618019104,1.9535362720489502
78,202838,202837,-0.008372262120246887,-0.060086652636528015,1.005078673362732,5.34077262878418,-2.6755332946777344,-1.2603214979171753,1.93213951587677,3.9827044010162354,0.28934773802757263,0.6202417016029358,-1.0788286924362183,1.941007137298584
79,202848,202847,0.051709383726119995,-0.13467463850975037,0.9745554327964783,4.819622039794922,-1.6544697284698486,-0.9871739745140076,1.9309875965118408,3.982124090194702,0.2896870970726013,0.6631907820701599,-0.9987252354621887,1.9206100702285767
80,202858,202857,0.06255818903446198,-0.10256078839302063,1.000226378440857,3.8362011909484863,2.7255263328552246,-1.1113282442092896,1.9308626651763916,3.982229709625244,0.29002976417541504,0.5958161354064941,-1.0081074237823486,1.9248136281967163
81,202868,202867,0.0397256575524807,-0.035628434270620346,0.984778642654419,2.759732484817505,11.657942771911621,-1.1914254426956177,1.93105149269104,3.9824955463409424,0.2910529673099518,0.5090952515602112,-0.9525940418243408,1.9138249158859253
82,202878,202877,0.030588017776608467,-0.08866719901561737,0.926772952079773,2.377417802810669,17.69099235534668,-1.3370819091796875,1.93134343624115,3.982286214828491,0.29137223958969116,0.2913876473903656,-0.9126628637313843,1.9073935747146606
83,202888,202887,-0.004469171166419983,-0.010106817819178104,0.9928441643714905,3.321068525314331,23.271955490112305,-1.132016658782959,1.931736707687378,3.9829156398773193,0.29166746139526367,0.050868578255176544,-0.950352668762207,1.9006786346435547
84,202898,202897,0.047805242240428925,-0.029564661905169487,0.9984914660453796,4.383959770202637,24.983022689819336,-1.2518867254257202,1.9317630529403687,3.983794927597046,0.28998327255249023,-0.19151067733764648,-0.8874074816703796,1.8804329633712769
85,202908,202907,0.07959131896495819,-0.04815734922885895,1.0085220336914062,5.879922389984131,22.373737335205078,-1.3599767684936523,1.9329440593719482,3.9850683212280273,0.29004597663879395,-0.5844136476516724,-0.8774113059043884,1.8793373107910156
86,202918,202917,0.03842979297041893,-0.025300048291683197,1.0162708759307861,6.672390460968018,16.119125366210938,-1.59528648853302,1.9303499460220337,3.9842519760131836,0.2905248999595642,-0.5239706039428711,-0.764657735824585,1.8258492946624756
87,202928,202927,-0.02874678745865822,0.03903283551335335,1.0504508018493652,6.557622909545898,10.952011108398438,-1.4424303770065308,1.9295845031738281,3.9846367835998535,0.29119446873664856,-0.610378623008728,-0.6471915245056152,1.8026835918426514
88,202938,202937,0.0179937481880188,-0.037773583084344864,0.9905685782432556,6.1691694259643555,8.644855499267578,-1.5567258596420288,1.9286261796951294,3.9850850105285645,0.29149922728538513,-0.6267417669296265,-0.6114910840988159,1.7812451124191284
89,202948,202947,-0.0738781988620758,0.12212228775024414,1.010956883430481,4.83681058883667,6.92982292175293,-1.5197117328643799,1.9289557933807373,3.9861903190612793,0.2917806804180145,-0.770367443561554,-0.5860114693641663,1.7718126773834229
90,202958,202957,-0.016475416719913483,0.024321023374795914,0.9860935211181641,4.207128524780273,6.380265712738037,-1.2679592370986938,1.9288127422332764,3.984527349472046,0.29200392961502075,-0.881324291229248,-0.497791051864624,1.7637014389038086
91,202968,202967,-0.032688893377780914,0.021629322320222855,1.0354914665222168,4.3011345863342285,8.406960487365723,-1.796425700187683,1.9288549423217773,3.9873766899108887,0.2908274233341217,-0.9933345317840576,-0.566412627696991,1.7455090284347534
92,202978,202977,-0.007977995090186596,-0.08020971715450287,1.003291368484497,4.304783821105957,6.449739933013916,-1.032896876335144,1.9281336069107056,3.987612009048462,0.2910597622394562,-1.0271528959274292,-0.475566565990448,1.7310702800750732
93,202988,202987,-0.017147798091173172,-0.003983662463724613,1.0305417776107788,5.733636379241943,8.596932411193848,-1.2174479961395264,1.9276700019836426,3.9874932765960693,0.2913379669189453,-1.0645736455917358,-0.3796846568584442,1.7186821699142456
94,202998,202997,0.04746795445680618,-0.028535567224025726,0.9558051824569702,5.307754993438721,10.550810813903809,-1.3690019845962524,1.9273858070373535,3.987833261489868,0.2928468883037567,-1.132722020149231,-0.2721844017505646,1.7087703943252563
95,203008,203007,-0.009121512994170189,-0.04246877506375313,0.9694570899009705,5.81793212890625,7.307882785797119,-0.7284530401229858,1.9270812273025513,3.9890403747558594,0.2931777834892273,-1.201115608215332,-0.39516523480415344,1.678641438484192
96,203018,203017,0.04813703894615173,-0.0972844734787941,1.0231355428695679,6.038263320922852,7.339970588684082,-0.29511559009552,1.9269269704818726,3.989077091217041,0.29351234436035156,-1.33169424533844,-0.26595157384872437,1.682621717453003
97,203028,203027,0.03070795349776745,-0.14302976429462433,1.032051682472229,6.815369129180908,4.386682033538818,-0.4447910189628601,1.9250617027282715,3.988560438156128,0.2969616651535034,-1.2722090482711792,-0.137594535946846,1.6824686527252197
98,203038,203037,-0.04851696640253067,-0.03648845851421356,1.0410603284835815,6.4183502197265625,4.454319953918457,-0.6468915939331055,1.925164818763733,3.9881536960601807,0.29746145009994507,-1.3431459665298462,-0.0076637184247374535,1.6855316162109375
99,203048,203047,0.004469569772481918,-0.00842341035604477,0.9787376523017883,4.790736675262451,5.246532917022705,-0.5489324331283569,1.9251704216003418,3.9897477626800537,0.2980073094367981,-1.42234468460083,-0.05248969420790672,1.6653554439544678
100,203058,203057,-0.01310023758560419,0.025433961302042007,1.036978006362915,2.6442065238952637,5.135551929473877,-0.9303672313690186,1.924804449081421,3.9890573024749756,0.29916849732398987,-1.4279556274414062,0.03402649238705635,1.6643661260604858
101,203068,203067,0.03203722462058067,0.08842609822750092,0.9734790921211243,1.670081377029419,7.208169460296631,-1.2159377336502075,1.9245102405548096,3.989518165588379,0.2980162799358368,-1.5348271131515503,0.08270874619483948,1.657840609550476
102,203078,203077,-0.023246951401233673,0.09050846099853516,1.0608508586883545,1.5058430433273315,4.294826030731201,-0.9432439208030701,1.9245795011520386,3.9895544052124023,0.2989853620529175,-1.621153712272644,0.12270545214414597,1.6504355669021606
103,203088,203087,-0.05088508129119873,-0.030909840017557144,0.9971014857292175,1.2270054817199707,0.6297986507415771,-0.5656330585479736,1.9244446754455566,3.9909653663635254,0.2990170121192932,-1.6451146602630615,0.0061490498483181,1.6159876585006714
104,203098,203097,-0.039725638926029205,-0.05326863005757332,0.9923958778381348,1.864001989364624,-1.3617308139801025,-0.6021585464477539,1.9241480827331543,3.9909589290618896,0.29866060614585876,-1.6334131956100464,0.04860079288482666,1.6176506280899048
105,203108,203107,-0.16769474744796753,0.03654501959681511,0.992891788482666,2.817528486251831,-1.505578875541687,-0.5678107738494873,1.9262313842773438,3.9923293590545654,0.2991391122341156,-1.7155838012695312,0.18135371804237366,1.6406110525131226
106,203118,203117,-0.04628242552280426,0.014111767522990704,0.9769518971443176,2.4937398433685303,0.6760945320129395,-0.25275200605392456,1.9257586002349854,3.994373321533203,0.30016234517097473,-1.668148398399353,0.0814518854022026,1.606537103652954
107,203128,203127,0.0520002581179142,-0.10585656017065048,0.962100088596344,3.1967644691467285,0.9843562841415405,0.15758836269378662,1.9255976676940918,3.993879795074463,0.2991194427013397,-1.6414217948913574,0.15075403451919556,1.61777925491333
108,203138,203137,0.05133558437228203,-0.10470172017812729,0.969853937625885,3.3636386394500732,0.04963592067360878,0.18498863279819489,1.925391435623169,3.994669198989868,0.29954349994659424,-1.6144585609436035,0.14993098378181458,1.61187744140625
109,203148,203147,0.015073387883603573,-0.1381586641073227,0.9918426871299744,3.725994825363159,-0.9317026138305664,-0.09481630474328995,1.925585389137268,3.994168519973755,0.29994791746139526,-1.5720759630203247,0.22506165504455566,1.6248297691345215
110,203158,203157,0.022895572707057,-0.27304816246032715,0.9499363303184509,3.626772165298462,-3.1311748027801514,-0.49894434213638306,1.9262981414794922,3.993309497833252,0.300571084022522,-1.5847175121307373,0.3034939169883728,1.6289901733398438
111,203168,203167,-0.05281281843781471,-0.203075110912323,1.006363034248352,3.039843797683716,-2.2756354808807373,-0.7950212955474854,1.9267492294311523,3.9952731132507324,0.2995838224887848,-1.653135061264038,0.2193351835012436,1.5843759775161743
112,203178,203177,0.0014236060669645667,-0.07380764931440353,0.9798522591590881,0.8586386442184448,-0.990965723991394,-0.882149875164032,1.9267717599868774,3.996034860610962,0.29979148507118225,-1.6507039070129395,0.20461194217205048,1.567417860031128
113,203188,203187,0.02974742092192173,-0.0036997473798692226,1.0089796781539917,-0.18251176178455353,-1.3441582918167114,-0.6168501973152161,1.92678701877594,3.9969115257263184,0.3000936508178711,-1.579362392425537,0.23946219682693481,1.5726932287216187
114,203198,203197,0.08913235366344452,-0.0326654352247715,1.0157291889190674,0.17972151935100555,-3.2417001724243164,-0.31741565465927124,1.927711009979248,3.996433973312378,0.30035147070884705,-1.5625669956207275,0.25957682728767395,1.5700773000717163
115,203208,203207,0.05364620313048363,-0.013951146975159645,0.9750427603721619,0.9396573305130005,-5.171760559082031,-1.08050537109375,1.9297324419021606,3.9983561038970947,0.30043861269950867,-1.669512152671814,0.13660679757595062,1.5186065435409546
116,203218,203217,-0.031175198033452034,-0.05726257339119911,1.002035140991211,2.424095392227173,-4.6512227058410645,-0.5214822292327881,1.9299476146697998,3.998072385787964,0.30073392391204834,-1.584197998046875,0.19119644165039062,1.5251415967941284
117,203228,203227,-0.01691289246082306,-0.11281981319189072,0.9705444574356079,3.8424603939056396,-5.739792823791504,-0.504629909992218,1.9294556379318237,3.9977123737335205,0.29853183031082153,-1.5012671947479248,0.2658643126487732,1.5336840152740479
118,203238,203237,0.03137809410691261,-0.017227662727236748,0.9896687269210815,4.551476001739502,-6.794985771179199,-0.016786223277449608,1.9314088821411133,3.999183416366577,0.29844528436660767,-1.5540724992752075,0.2072989046573639,1.497620940208435
119,203248,203247,0.006895744241774082,0.02744753658771515,0.9972342252731323,5.022922515869141,-7.247814655303955,0.3495357632637024,1.9306108951568604,3.999372959136963,0.2986482083797455,-1.3500791788101196,0.32166022062301636,1.527461290359497
120,203258,203257,0.037678368389606476,0.06375105679035187,1.0099257230758667,5.140811920166016,-7.2544846534729,0.3740048110485077,1.929935336112976,3.998572587966919,0.2987090051174164,-1.224974513053894,0.4334750473499298,1.5514003038406372
121,203268,203267,0.009424632415175438,0.0950610488653183,1.060669183731079,4.842062473297119,-6.033881187438965,0.1100592091679573,1.9323440790176392,3.9974098205566406,0.30116719007492065,-1.3394606113433838,0.5370349287986755,1.5495954751968384
122,203278,203277,-0.004187953658401966,0.05080105736851692,1.0237826108932495,1.6304681301116943,-5.076504230499268,-0.2841796576976776,1.9316329956054688,3.9964053630828857,0.3014766573905945,-1.1469351053237915,0.6133100390434265,1.572075605392456
123,203288,203287,-0.076766237616539,0.06342648714780807,0.9725623726844788,-1.3355165719985962,-4.311426639556885,-0.04981256648898125,1.9341167211532593,3.9980480670928955,0.30160701274871826,-1.2882816791534424,0.47983500361442566,1.5222442150115967
124,203298,203297,-0.06391545385122299,0.049395062029361725,1.0191653966903687,-3.06500244140625,-5.434353351593018,0.6577553749084473,1.9339125156402588,3.999113082885742,0.3006511330604553,-1.10545015335083,0.5420404672622681,1.5567409992218018
125,203308,203307,0.053057048469781876,-0.127302885055542,0.9632049202919006,-4.062653541564941,-4.70189094543457,0.19754986464977264,1.934630274772644,4.0001091957092285,0.3008221685886383,-1.0842564105987549,0.4163104295730591,1.5390321016311646
126,203318,203317,-0.052008241415023804,-0.003566271625459194,1.0557236671447754,-3.275947093963623,-7.3560709953308105,0.0627966970205307,1.9347730875015259,4.000958442687988,0.30101096630096436,-0.9645212888717651,0.36388757824897766,1.5443354845046997
127,203328,203327,0.005382632836699486,-0.0611993633210659,1.0038447380065918,-1.079576849937439,-7.78561544418335,-0.9254171848297119,1.9350289106369019,4.0019707679748535,0.30080515146255493,-0.8229379653930664,0.3387143611907959,1.546753168106079
128,203338,203337,-0.013773897662758827,0.015669671818614006,1.0482358932495117,1.8554922342300415,-4.488857269287109,-0.8761630058288574,1.9365031719207764,4.002938270568848,0.3009188175201416,-0.8566790819168091,0.3592657148838043,1.5298638343811035
129,203348,203347,-0.006210120860487223,0.009029753506183624,1.0381455421447754,2.9839460849761963,-3.610708236694336,-0.054834719747304916,1.9374052286148071,4.002470016479492,0.30108967423439026,-0.8318202495574951,0.49550876021385193,1.5412219762802124
130,203358,203357,0.030706631019711494,-0.06748774647712708,0.998063862323761,2.373774528503418,-3.0197176933288574,0.09127259999513626,1.9369512796401978,4.00233268737793,0.2983763813972473,-0.6684165000915527,0.5507365465164185,1.5591307878494263
131,203368,203367,0.017983747646212578,-0.017062203958630562,1.015769124031067,0.9653397798538208,-4.061257362365723,-0.6415002942085266,1.9393341541290283,4.002163887023926,0.2983354330062866,-0.8204905986785889,0.587290346622467,1.531462550163269
132,203378,203377,0.032202571630477905,-0.0679071769118309,0.9701173305511475,-1.5927722454071045,-6.289495468139648,-0.6229487061500549,1.9395891427993774,4.001210689544678,0.2984640300273895,-0.6990840435028076,0.584945559501648,1.5355945825576782
133,203388,203387,0.008240279741585255,-0.025025004521012306,1.0331027507781982,-3.9643046855926514,-3.975297689437866,-0.8054749965667725,1.9394502639770508,4.002549648284912,0.29862409830093384,-0.5695112347602844,0.46566733717918396,1.5258238315582275
134,203398,203397,0.0600336454808712,0.007873756811022758,0.9555266499519348,-5.502859115600586,-3.2367935180664062,-1.3339509963989258,1.9409559965133667,4.00153923034668,0.29787352681159973,-0.7748592495918274,0.3881414234638214,1.465398907661438
135,203408,203407,-0.012133783660829067,0.04261556267738342,0.993689239025116,-4.604697227478027,-6.6277852058410645,-0.8819857835769653,1.941650390625,4.001163482666016,0.2979748845100403,-0.6564568281173706,0.3828660547733307,1.47858726978302
136,203418,203417,0.014559473842382431,-0.049492210149765015,1.0014817714691162,-2.927225112915039,-5.908462047576904,-1.0174381732940674,1.941617488861084,4.001412868499756,0.2982163727283478,-0.4347885847091675,0.4703829288482666,1.505527138710022
137,203428,203427,-0.00816676951944828,0.026169167831540108,1.0567474365234375,-0.9672946929931641,-5.211215972900391,-1.2215737104415894,1.9442592859268188,4.001665115356445,0.3004132807254791,-0.5460864305496216,0.3469657599925995,1.457505226135254
138,203438,203437,0.00953064113855362,-0.014524203725159168,1.0125527381896973,-0.6018880009651184,-4.367813587188721,-0.6105349063873291,1.9442073106765747,4.002233982086182,0.3007268011569977,-0.3424261510372162,0.3336784243583679,1.472631812095642
139,203448,203447,-0.034726571291685104,0.04907960817217827,0.9822441935539246,-0.1650550216436386,-4.675702095031738,-0.6461943984031677,1.9453142881393433,4.002101898193359,0.3008514940738678,-0.38175004720687866,0.3290829658508301,1.4556430578231812
140,203458,203457,0.019426845014095306,-0.002886496251448989,0.9949068427085876,-0.785187304019928,-2.8414723873138428,0.04484264925122261,1.9458469152450562,4.001630783081055,0.30108627676963806,-0.2691076099872589,0.3968173861503601,1.4649666547775269
141,203468,203467,0.04737567529082298,-0.14114849269390106,1.0143928527832031,-0.9156447649002075,-3.628002166748047,0.17883653938770294,1.9470640420913696,4.0012664794921875,0.30126988887786865,-0.2530340552330017,0.38100412487983704,1.4619510173797607
142,203478,203477,-0.011403372511267662,-0.13058096170425415,0.9855738282203674,-2.350736379623413,-2.7950494289398193,-0.2375301867723465,1.9473844766616821,3.999785900115967,0.3014966547489166,-0.1630123257637024,0.4249342083930969,1.469559907913208
143,203488,203487,0.01473913062363863,0.08906221389770508,1.0070103406906128,-3.718275785446167,1.2207720279693604,-0.7084787487983704,1.951528787612915,4.00026273727417,0.30175700783729553,-0.3303462564945221,0.36166858673095703,1.4529364109039307
144,203498,203497,0.033836957067251205,0.13697446882724762,0.927379846572876,-5.710942268371582,-0.5216386914253235,-0.6281142234802246,1.9506281614303589,4.000430583953857,0.30014535784721375,-0.28371113538742065,0.26670148968696594,1.4515403509140015
145,203508,203507,0.0407940149307251,0.11497076600790024,0.9849734306335449,-5.800696849822998,-3.3197546005249023,-0.22691480815410614,1.9527701139450073,4.000425338745117,0.3001362383365631,-0.3536332845687866,0.23695971071720123,1.4393985271453857
146,203518,203517,0.05216328054666519,0.009154369123280048,0.9682999849319458,-4.234270095825195,-7.38241720199585,0.4713817834854126,1.9530298709869385,4.000327110290527,0.30030882358551025,-0.2172882854938507,0.13314953446388245,1.4381258487701416
147,203528,203527,-0.05765027925372124,0.009798604063689709,1.0423024892807007,-1.7897282838821411,-13.837026596069336,0.9820696711540222,1.952426552772522,3.9990196228027344,0.3000315725803375,0.052159737795591354,0.21471531689167023,1.4496554136276245
148,203538,203537,-0.06553781777620316,-0.04991813749074936,1.003557562828064,-0.5851028561592102,-9.110649108886719,1.5390561819076538,1.9531327486038208,3.998530626296997,0.3000357151031494,0.11696822196245193,0.2464861124753952,1.4570355415344238
149,203548,203547,0.029735127463936806,0.031032107770442963,1.025016188621521,-0.4434709846973419,-4.6874566078186035,2.046149253845215,1.9535633325576782,3.9982407093048096,0.3000703454017639,0.1966809779405594,0.21229757368564606,1.4706029891967773
150,203558,203557,-0.04020966589450836,0.11467818170785904,1.013075590133667,-1.8158890008926392,-1.1661524772644043,2.1871447563171387,1.955721378326416,3.998307228088379,0.299699068069458,0.059810373932123184,0.17352356016635895,1.4793177843093872
151,203568,203567,-0.0066460054367780685,0.10487278550863266,0.9639296531677246,-3.868772029876709,1.780516505241394,2.372119665145874,1.956290602684021,3.999434471130371,0.299787312746048,0.1053033396601677,0.11294583231210709,1.5205315351486206
152,203578,203577,-0.04532112553715706,-0.0897437185049057,1.0603868961334229,-4.575184345245361,4.61516809463501,2.0336108207702637,1.9571614265441895,3.9983291625976562,0.2998383343219757,0.09589048475027084,0.17812637984752655,1.5306382179260254
153,203588,203587,-0.024302277714014053,-0.14420822262763977,1.0088132619857788,-3.9020023345947266,3.756786584854126,2.2632386684417725,1.9573346376419067,3.9990234375,0.299978643655777,0.11793959140777588,0.07678916305303574,1.573585033416748
154,203598,203597,-0.07007092237472534,-0.0720093697309494,1.044863224029541,-3.164421558380127,3.216341018676758,1.5395289659500122,1.9594717025756836,3.9983069896698,0.2988758981227875,-0.07699932157993317,0.06704621016979218,1.5730005502700806
155,203608,203607,0.03237390145659447,-0.08050653338432312,0.966423749923706,-3.9754292964935303,2.4725100994110107,1.1750085353851318,1.9595696926116943,3.9978890419006348,0.29902419447898865,-0.0049253953620791435,0.05756547674536705,1.5932064056396484
156,203618,203617,0.01898008957505226,-0.029237013310194016,0.9977790117263794,-2.6929664611816406,-2.1678459644317627,-0.7405968904495239,1.9605764150619507,3.9990694522857666,0.2991431653499603,0.025548655539751053,-0.0294633898884058,1.6151423454284668
157,203628,203627,-0.004773130640387535,0.018136536702513695,1.0240771770477295,-1.53811514377594,-5.239850044250488,-0.25529637932777405,1.9617173671722412,3.9994990825653076,0.29879432916641235,0.05534970015287399,-0.0937679335474968,1.6205660104751587
158,203638,203637,0.03173600882291794,-0.08702757209539413,0.9718161821365356,-0.5071540474891663,-8.60948657989502,0.21500857174396515,1.9625881910324097,3.9992446899414062,0.29881981015205383,0.13336358964443207,-0.053657494485378265,1.622230887413025
159,203648,203647,-0.013532361015677452,0.022269807755947113,1.0346380472183228,0.38177555799484253,-7.910722732543945,0.1056036725640297,1.9648447036743164,3.998440742492676,0.2987956404685974,0.16057859361171722,-0.004569905810058117,1.6176904439926147
160,203658,203657,0.01972249150276184,-0.04924853891134262,0.9934719800949097,-0.868278443813324,-3.698732376098633,0.6492577195167542,1.9645541906356812,3.998015880584717,0.3005186915397644,0.23448510468006134,0.04267067462205887,1.6240355968475342
161,203668,203667,-0.01796620525419712,0.042092401534318924,0.999056875705719,-2.0453126430511475,-1.18497633934021,0.030323289334774017,1.9660180807113647,3.9981775283813477,0.30085495114326477,0.31826844811439514,-0.011984359472990036,1.6393821239471436
162,203678,203677,0.04101448878645897,-0.051546815782785416,1.0153205394744873,-7.158164978027344,4.216205596923828,0.6932333707809448,1.964980125427246,3.9980523586273193,0.3009439706802368,0.4080623686313629,-0.038634393364191055,1.6473660469055176
163,203688,203687,-0.04155943915247917,0.001468303962610662,1.0506329536437988,-9.770942687988281,7.600560188293457,1.2792373895645142,1.9677095413208008,3.998669385910034,0.30155348777770996,0.2533864378929138,-0.13267335295677185,1.6749932765960693
164,203698,203697,0.02355089783668518,-0.03153590112924576,0.99578857421875,-10.627084732055664,9.253266334533691,1.4760373830795288,1.9672045707702637,3.9995317459106445,0.3015884459018707,0.20828580856323242,-0.25898632407188416,1.708863615989685
165,203708,203707,-0.012523985467851162,-0.059240542352199554,1.0186290740966797,-8.7930326461792,6.072793483734131,2.1971375942230225,1.9674891233444214,4.000481605529785,0.30182379484176636,0.15826649963855743,-0.45534563064575195,1.7380642890930176
166,203718,203717,-0.020802699029445648,-0.005103074945509434,1.0521519184112549,-5.232228755950928,9.018095016479492,2.8302876949310303,1.969302773475647,3.9995133876800537,0.3019883930683136,-0.026391681283712387,-0.4497959613800049,1.7401303052902222
167,203728,203727,-0.0205382127314806,-0.033505454659461975,1.0402132272720337,-0.7043750882148743,6.370124816894531,3.1758129596710205,1.970794439315796,4.000192165374756,0.30633240938186646,-0.12917795777320862,-0.5351565480232239,1.786244511604309
168,203738,203737,0.06080183386802673,-0.07295341044664383,1.0365434885025024,2.108964204788208,4.648261070251465,2.80193829536438,1.9718202352523804,4.000244617462158,0.3068869709968567,-0.190801203250885,-0.4676903486251831,1.8246580362319946
169,203748,203747,0.05137792229652405,-0.10032759606838226,0.9938209652900696,6.105638027191162,-3.256258726119995,2.11588716506958,1.9721726179122925,3.999440908432007,0.30757227540016174,-0.10152889788150787,-0.42626863718032837,1.844950556755066
170,203758,203757,-0.023037992417812347,0.001587750157341361,0.9994143843650818,5.91093635559082,-5.877826690673828,1.6640574932098389,1.9716567993164062,3.9995880126953125,0.30347609519958496,0.07531222701072693,-0.34531450271606445,1.8576582670211792
171,203768,203767,0.0041645891033113,-0.017634807154536247,0.9855841398239136,3.9859423637390137,-4.750769138336182,0.8431666493415833,1.9737379550933838,3.9989452362060547,0.30366864800453186,-0.040837112814188004,-0.19872896373271942,1.8782483339309692
172,203778,203777,0.044098224490880966,0.04768102616071701,0.9606937170028687,-0.29387885332107544,-0.6999930143356323,-0.023927394300699234,1.9734492301940918,3.9985578060150146,0.30416908860206604,0.09970151633024216,-0.20540142059326172,1.8714913129806519
173,203788,203787,-0.07682736963033676,0.05576625466346741,0.9932842254638672,-3.8091015815734863,-10.180322647094727,-1.21091890335083,1.9754948616027832,3.999154806137085,0.304231196641922,-0.08090128004550934,-0.3025153577327728,1.891599178314209
174,203798,203797,-0.10322590172290802,-0.012544302269816399,0.9351838231086731,-9.328104019165039,-3.618699312210083,-2.5637545585632324,1.9757442474365234,3.998487949371338,0.30458810925483704,0.07933497428894043,-0.3058910369873047,1.87217378616333
175,203808,203807,-0.12135659903287888,0.12480330467224121,0.9791058897972107,-11.91873836517334,1.6830977201461792,-2.9061219692230225,1.9759459495544434,3.9984583854675293,0.3048691749572754,0.16762126982212067,-0.320952445268631,1.8606512546539307
176,203818,203817,-0.041921913623809814,0.07236377149820328,0.9581851959228516,-10.586420059204102,5.292778968811035,-2.9766340255737305,1.9770656824111938,3.998296022415161,0.304996520280838,0.09543175995349884,-0.46909084916114807,1.8445383310317993
177,203828,203827,-0.03780895471572876,0.05722919851541519,1.0025279521942139,-6.038326263427734,9.542372703552246,-3.478342056274414,1.9775093793869019,3.99798583984375,0.3048752248287201,0.11091574281454086,-0.5220114588737488,1.8146332502365112
178,203838,203837,0.0036559877917170525,0.05504956096410751,1.00799560546875,0.7630890011787415,8.93964672088623,-3.2552902698516846,1.9781715869903564,3.9987967014312744,0.3050466775894165,0.0551542229950428,-0.6608402132987976,1.799111008644104
179,203848,203847,-0.012522058561444283,0.010815036483108997,1.022229552268982,7.728252410888672,7.867733955383301,-1.4921512603759766,1.9794710874557495,3.9973368644714355,0.3051334023475647,-0.079825259745121,-0.6114945411682129,1.7441290616989136
180,203858,203857,0.000893320539034903,-0.044982943683862686,0.9690839648246765,10.507269859313965,5.28687047958374,-0.845859706401825,1.9804441928863525,3.997152090072632,0.3075876533985138,-0.1973770409822464,-0.526639997959137,1.7296929359436035
181,203868,203867,0.03449654579162598,-0.11730773746967316,0.9708314538002014,9.403629302978516,1.3045475482940674,0.5694215297698975,1.9805452823638916,3.995974540710449,0.30791836977005005,-0.18714947998523712,-0.38293981552124023,1.698262333869934
182,203878,203877,0.03448054566979408,-0.14093366265296936,1.000130534172058,7.9413275718688965,-3.4613471031188965,0.8054167628288269,1.9812768697738647,3.9964168071746826,0.3082314133644104,-0.20809043943881989,-0.32883420586586,1.7084219455718994
183,203888,203887,0.0007435350562445819,-0.026369040831923485,0.9621363878250122,3.5582339763641357,-1.4442039728164673,0.8071368336677551,1.9822882413864136,3.9972660541534424,0.30696263909339905,-0.22396863996982574,-0.2968005836009979,1.739489197731018
184,203898,203897,-0.038512323051691055,0.06134002283215523,1.0468957424163818,0.6255642771720886,-5.583540916442871,1.6875367164611816,1.983539342880249,3.9975900650024414,0.30707889795303345,-0.23514416813850403,-0.24537193775177002,1.7512011528015137
185,203908,203907,-0.025176789611577988,-0.15167434513568878,0.9768354892730713,-0.10959091037511826,-9.091227531433105,1.2890995740890503,1.9843796491622925,3.9981021881103516,0.3072141110897064,-0.19908033311367035,-0.24555718898773193,1.786514163017273
186,203918,203917,-0.05073937401175499,-0.06840326637029648,1.0348330736160278,-0.9953743815422058,-5.26349401473999,0.2766636908054352,1.9849663972854614,3.9977712631225586,0.3073669672012329,-0.06768885999917984,-0.27232441306114197,1.8069710731506348
187,203928,203927,-0.0309138260781765,-0.022117050364613533,1.0141029357910156,-0.8558498024940491,-3.1154158115386963,0.4695318043231964,1.9853836297988892,3.997157096862793,0.3088301420211792,-0.009206225164234638,-0.21936751902103424,1.7953267097473145
188,203938,203937,0.008255667984485626,0.06585141271352768,0.9819271564483643,-1.4346338510513306,-3.247724771499634,1.1380633115768433,1.9854152202606201,3.9971516132354736,0.30909064412117004,0.06292501837015152,-0.25519225001335144,1.799277901649475
189,203948,203947,-0.06349069625139236,0.058981362730264664,1.0415676832199097,-1.6368613243103027,-0.7251590490341187,1.3345444202423096,1.9865471124649048,3.997051954269409,0.3093046545982361,0.040134064853191376,-0.2950623333454132,1.7971394062042236
190,203958,203957,-0.06371520459651947,-0.008939579129219055,0.9705934524536133,-1.1118625402450562,0.9175825119018555,1.9249508380889893,1.988051176071167,3.996746778488159,0.31179022789001465,-0.010525721125304699,-0.338407039642334,1.8136944770812988
191,203968,203967,-0.09175319224596024,0.08926142752170563,0.9559779167175293,-3.430199146270752,5.438225269317627,2.5975940227508545,1.9885947704315186,3.9967994689941406,0.31227025389671326,0.0667724683880806,-0.3755848705768585,1.8284282684326172
192,203978,203977,-0.028335103765130043,0.04734986275434494,0.9579301476478577,-6.01309061050415,6.20850944519043,3.5377144813537598,1.989135503768921,3.9972574710845947,0.3126804232597351,0.012605677358806133,-0.4869765043258667,1.8944356441497803
193,203988,203987,-0.0159100741147995,-0.0713808536529541,1.0098037719726562,-6.227481842041016,4.05780553817749,4.250009536743164,1.9901951551437378,3.99717378616333,0.31232360005378723,-0.02000720426440239,-0.4588296711444855,1.8990620374679565
194,203998,203997,0.0007874519214965403,-0.16088280081748962,1.0147874355316162,-3.876415491104126,1.6096302270889282,4.745347499847412,1.9911820888519287,3.9975032806396484,0.31257787346839905,-0.09263534843921661,-0.5693928599357605,1.9399484395980835
195,204008,204007,-0.015521443448960781,-0.05302422121167183,1.0200817584991455,-0.3038056194782257,2.786252975463867,5.004961013793945,1.9920787811279297,3.9984219074249268,0.31286540627479553,-0.12796065211296082,-0.6399485468864441,2.0071988105773926
196,204018,204017,-0.001254997099749744,0.0097753144800663,1.0088369846343994,1.941335678100586,0.8712055683135986,5.521425724029541,1.9931511878967285,3.998642683029175,0.3127173185348511,-0.234206885099411,-0.6468395590782166,2.0607471466064453
197,204028,204027,0.00792622659355402,-0.05089249834418297,0.9823191165924072,4.203094959259033,-2.084359884262085,5.583808422088623,1.993437647819519,3.9984874725341797,0.3130515515804291,-0.22453413903713226,-0.6126996278762817,2.111694574356079
198,204038,204037,0.004580667708069086,-0.06763564795255661,0.9675315022468567,5.079173564910889,-2.4093241691589355,5.555735111236572,1.9931122064590454,3.9982192516326904,0.3134324252605438,-0.08806736022233963,-0.4984578788280487,2.2164700031280518
199,204048,204047,-0.039966605603694916,0.032183460891246796,1.0321258306503296,4.268160820007324,-2.4890613555908203,5.252333164215088,1.9948875904083252,3.9982845783233643,0.31361034512519836,-0.21184499561786652,-0.46255403757095337,2.228929042816162
200,204058,204057,0.012089104391634464,-0.006254879292100668,0.955338180065155,3.334815740585327,-4.211602210998535,4.248875141143799,1.9954001903533936,3.9979348182678223,0.31286612153053284,-0.16160781681537628,-0.3875611424446106,2.2788660526275635
201,204068,204067,-0.025846943259239197,-0.01156140211969614,0.9941939115524292,-0.760081946849823,0.5445836782455444,3.4999167919158936,1.9950617551803589,3.9969513416290283,0.31313735246658325,-0.029691798612475395,-0.3395926356315613,2.300788164138794
202,204078,204077,0.03483284264802933,-0.11228227615356445,0.9862532615661621,-4.648127555847168,2.893956184387207,3.346949577331543,1.9950971603393555,3.9973466396331787,0.31336352229118347,-0.01442038919776678,-0.3476502597332001,2.3362202644348145
203,204088,204087,0.03149982541799545,-0.08725087344646454,0.9713038206100464,-6.699407577514648,1.403449296951294,3.6358604431152344,1.996246576309204,3.9979195594787598,0.3119511008262634,-0.11111225187778473,-0.41893401741981506,2.379041910171509
204,204098,204097,-0.030147947371006012,0.04000318795442581,1.0238693952560425,-6.414517402648926,-0.5229049921035767,3.3565895557403564,1.99699068069458,3.998624563217163,0.31202176213264465,-0.11400050669908524,-0.5279572606086731,2.4154884815216064
205,204108,204107,0.010136153548955917,-0.0036072025541216135,0.9849058985710144,-5.141180515289307,-2.0642218589782715,3.217442274093628,1.9983261823654175,3.9997053146362305,0.31202879548072815,-0.1690056324005127,-0.6371650099754333,2.473994016647339
206,204118,204117,0.043454911559820175,-0.057087089866399765,0.9828625917434692,-3.1470160484313965,-2.697509527206421,2.430795431137085,1.9984745979309082,3.9998886585235596,0.3108028173446655,-0.11400912702083588,-0.7144193649291992,2.5058071613311768
207,204128,204127,0.029009316116571426,-0.01424991525709629,0.9960650205612183,1.4474607706069946,-3.762244462966919,0.8928018808364868,2.0012242794036865,3.999323844909668,0.3106304407119751,-0.2739989757537842,-0.6768107414245605,2.5477166175842285
208,204138,204137,0.031478866934776306,-0.0031930089462548494,0.987090528011322,7.592243671417236,-6.630707263946533,0.6179317235946655,2.0010645389556885,3.9988412857055664,0.31076204776763916,-0.07617634534835815,-0.6442086696624756,2.5539791584014893
209,204148,204147,0.010399443097412586,0.015094765461981297,0.969737708568573,10.600679397583008,-10.068225860595703,0.4761189818382263,2.002772092819214,3.9982900619506836,0.31063133478164673,-0.08972521871328354,-0.5090464949607849,2.5566887855529785
210,204158,204157,-0.06506921350955963,-0.0025769127532839775,1.0277225971221924,10.177042961120605,-12.18996810913086,-0.7343726754188538,2.0022823810577393,3.9990944862365723,0.3117864727973938,0.11280878633260727,-0.4881422817707062,2.5589499473571777
211,204168,204167,-0.1391921043395996,-0.0103527270257473,1.0212774276733398,8.043717384338379,-9.87618350982666,-2.1519582271575928,2.002037286758423,3.9985225200653076,0.311841756105423,0.34693971276283264,-0.30521804094314575,2.5286784172058105
212,204178,204177,-0.1488105058670044,0.05340314283967018,0.9772489070892334,4.444183826446533,-6.386319637298584,-2.625793218612671,2.003927707672119,3.9998810291290283,0.3118228018283844,0.29855844378471375,-0.32940781116485596,2.550198554992676
213,204188,204187,-0.04477458447217941,0.053799670189619064,1.0071423053741455,2.0299642086029053,-0.8901874423027039,-3.63301682472229,2.004399538040161,4.000406742095947,0.3118559718132019,0.3435157239437103,-0.318379282951355,2.5232021808624268
214,204198,204197,0.005507634487003088,-0.04195031151175499,0.9853698015213013,0.85096275806427,3.3183867931365967,-5.167988300323486,2.005910634994507,4.000024318695068,0.311800092458725,0.29862189292907715,-0.2684227526187897,2.477410078048706
215,204208,204207,0.03905663639307022,0.08808465301990509,1.0074504613876343,1.3115607500076294,9.82611083984375,-6.126070022583008,2.006730318069458,3.9995713233947754,0.3117671310901642,0.26335886120796204,-0.23376473784446716,2.415447235107422
216,204218,204217,-0.006293920334428549,0.045253653079271317,1.017573595046997,3.3211681842803955,4.800990581512451,-6.906431674957275,2.008166790008545,4.000272750854492,0.3124885857105255,0.16629120707511902,-0.26238057017326355,2.342817783355713
217,204228,204227,-0.021480457857251167,0.021221976727247238,1.0175845623016357,6.31169319152832,1.6046549081802368,-6.6447834968566895,2.008347749710083,3.99943208694458,0.31261155009269714,0.19396841526031494,-0.18124936521053314,2.271394968032837
218,204238,204237,-0.028751518577337265,-0.005201031919568777,0.9774620532989502,7.776259422302246,-5.572332859039307,-7.095738410949707,2.01058030128479,3.9997646808624268,0.31257230043411255,0.04827278479933739,-0.13847970962524414,2.210594654083252
219,204248,204247,-0.0273441094905138,0.09987657517194748,1.0157243013381958,8.396162033081055,-9.217935562133789,-7.776304244995117,2.010219097137451,3.9992337226867676,0.31281474232673645,0.24388206005096436,0.010337377898395061,2.130002975463867
220,204258,204257,-0.008467798121273518,0.020805301144719124,1.0189342498779297,8.498028755187988,-8.94314193725586,-9.114182472229004,2.0104477405548096,3.9990742206573486,0.3122919797897339,0.4031303822994232,0.08545798063278198,2.0369927883148193
221,204268,204267,-0.003254419192671776,-0.03751077502965927,1.0092294216156006,7.265664100646973,-6.478344440460205,-9.118685722351074,2.011789083480835,3.999936103820801,0.31231486797332764,0.3992493450641632,0.08056559413671494,1.9413179159164429
222,204278,204277,0.0391705296933651,-0.06353682279586792,0.9694505333900452,4.353207588195801,-6.89853048324585,-9.817093849182129,2.0129897594451904,3.9996793270111084,0.3123738765716553,0.4506000876426697,0.21148240566253662,1.864235520362854
223,204288,204287,0.013455568812787533,-0.06640584766864777,0.9595169425010681,-1.057247281074524,-4.5819902420043945,-10.468143463134766,2.014103889465332,3.9998390674591064,0.3128926157951355,0.4117373824119568,0.28587234020233154,1.7683299779891968
224,204298,204297,-0.019601762294769287,0.008679676800966263,1.0154294967651367,-4.768258094787598,-2.437886953353882,-10.634784698486328,2.015303134918213,4.0005621910095215,0.31293147802352905,0.4362954795360565,0.2815094590187073,1.688008427619934
225,204308,204307,0.0050568184815347195,-0.05110231414437294,0.9804307222366333,-7.638526916503906,3.0967965126037598,-11.940316200256348,2.014958143234253,4.0010600090026855,0.3130353093147278,0.5724132061004639,0.20481844246387482,1.5888819694519043
226,204318,204317,-0.011284822598099709,-0.04171118885278702,0.9870465993881226,-9.653888702392578,4.960659980773926,-11.883482933044434,2.015995740890503,4.001570224761963,0.3100128769874573,0.4829302728176117,0.08570083975791931,1.4763004779815674
227,204328,204327,0.027533801272511482,-0.13910722732543945,0.958885908126831,-9.88060474395752,4.48798942565918,-11.714570999145508,2.016481637954712,4.0021514892578125,0.3098929822444916,0.5282599329948425,-0.05720775946974754,1.3682790994644165
228,204338,204337,0.008459718897938728,-0.02613791450858116,0.9794840216636658,-8.310275077819824,0.8738908767700195,-11.671486854553223,2.0165631771087646,4.001641750335693,0.30976080894470215,0.5668215155601501,-0.11732249706983566,1.2373123168945312
229,204348,204347,-0.008529314771294594,0.01753055490553379,0.9894492030143738,-4.7302680015563965,-1.5203368663787842,-11.801095962524414,2.017848014831543,4.001649856567383,0.31230127811431885,0.48568421602249146,-0.14623332023620605,1.1188291311264038
230,204358,204357,0.019880522042512894,-0.010506577789783478,0.9789412617683411,-0.45612582564353943,-5.502396106719971,-11.453383445739746,2.0181925296783447,4.001353740692139,0.3122279644012451,0.5331989526748657,-0.19778935611248016,0.9929360151290894
231,204368,204367,-0.03707723692059517,-0.062164388597011566,1.0224140882492065,1.752640724182129,-10.625813484191895,-10.663698196411133,2.0185303688049316,4.001384258270264,0.31218042969703674,0.6522879004478455,-0.18469464778900146,0.8679792284965515
232,204378,204377,-0.023372529074549675,0.04144993796944618,0.996972918510437,0.4611334502696991,-11.817148208618164,-9.22554874420166,2.0189011096954346,4.001016616821289,0.3120748698711395,0.683963418006897,-0.14284253120422363,0.7584099769592285
233,204388,204387,0.020986482501029968,-0.09132509678602219,1.0131871700286865,0.37418636679649353,-12.791421890258789,-9.773345947265625,2.0203042030334473,4.0007643699646,0.3109291195869446,0.7465226650238037,-0.1169554591178894,0.6568002700805664
234,204398,204397,-0.0357590951025486,0.023154975846409798,0.9915914535522461,-0.6868916153907776,-6.744509220123291,-10.163311958312988,2.0207715034484863,4.000559329986572,0.3108161687850952,0.8756638169288635,-0.03379236161708832,0.5619637966156006
235,204408,204407,-0.015968313440680504,0.04463101550936699,1.0523792505264282,-2.3125219345092773,2.006190776824951,-10.88398265838623,2.0208168029785156,4.0008649826049805,0.3106844127178192,0.9847697019577026,-0.12193962931632996,0.4546009302139282
236,204418,204417,0.0029040256049484015,-0.0331922210752964,0.9949412941932678,-6.441100120544434,8.003605842590332,-10.772629737854004,2.0215203762054443,4.0008463859558105,0.3096714913845062,0.9458591938018799,-0.15430481731891632,0.34270426630973816
237,204428,204427,-0.012243267148733139,-0.062136683613061905,0.9873983860015869,-7.957296371459961,19.732074737548828,-10.894240379333496,2.0232322216033936,4.00120735168457,0.30947789549827576,0.770854651927948,-0.24544334411621094,0.2378598302602768
