,timestamp_start,timestamp_end,acc.x,acc.y,acc.z,gyro.x,gyro.y,gyro.z,stateEstimate.x,stateEstimate.y,stateEstimate.z,stabilizer.pitch,stabilizer.roll,stabilizer.yaw
0,40740,40737,-0.019594401121139526,0.02201559580862522,1.06116783618927,-3.698030471801758,7.597714900970459,-1.3010042905807495,1.7526962757110596,3.897284746170044,0.1564672738313675,0.6047630906105042,0.017972389236092567,3.5388333797454834
1,40750,40747,0.035760167986154556,-0.04277532920241356,1.0319305658340454,-6.339966297149658,10.40260124206543,-1.9647682905197144,1.7519011497497559,3.897214412689209,0.1589181274175644,0.5325976610183716,-0.10227940231561661,3.538886070251465
2,40760,40757,0.049266450107097626,-0.06963937729597092,1.0025770664215088,-8.160371780395508,6.888478755950928,-2.4910895824432373,1.752187967300415,3.89656925201416,0.16118092834949493,0.43521860241889954,-0.10381600260734558,3.516267776489258
3,40770,40767,-0.006210428662598133,-0.00488990219309926,1.0272095203399658,-11.266453742980957,4.9577741622924805,-3.0067739486694336,1.7510452270507812,3.8951773643493652,0.16352227330207825,0.44319573044776917,-0.3585933744907379,3.509589672088623
4,40780,40777,0.01020749844610691,0.02389882504940033,1.0772709846496582,-12.293859481811523,3.0481996536254883,-3.498166799545288,1.7504591941833496,3.8962461948394775,0.1659117341041565,0.3282918632030487,-0.6282173991203308,3.492948532104492
5,40790,40787,0.01137187983840704,0.0024449131451547146,1.0592926740646362,-11.301582336425781,3.065418004989624,-4.140787601470947,1.749726414680481,3.8937880992889404,0.16850429773330688,0.3196890950202942,-0.6070838570594788,3.445979118347168
6,40800,40797,0.008530288934707642,0.031099023297429085,1.0141682624816895,-8.276213645935059,2.926847219467163,-4.400998115539551,1.7503174543380737,3.8940694332122803,0.17099636793136597,0.2410721778869629,-0.8732049465179443,3.4155325889587402
7,40810,40807,0.01825691945850849,0.028380803763866425,0.9949959516525269,-4.874856472015381,1.820615291595459,-4.575540065765381,1.751558780670166,3.894754648208618,0.17199474573135376,0.1752455085515976,-1.1359056234359741,3.3823623657226562
8,40820,40817,0.029391730204224586,-0.020821334794163704,0.9887481927871704,-0.19563069939613342,0.41088226437568665,-4.894736289978027,1.7514088153839111,3.895519733428955,0.17405365407466888,0.13049043715000153,-1.3848415613174438,3.34558367729187
9,40830,40827,-0.02247130498290062,0.03189563378691673,1.0577579736709595,5.640635013580322,-0.06133575364947319,-5.14854621887207,1.7489337921142578,3.8908531665802,0.18041694164276123,0.7417030334472656,-0.26575490832328796,3.1980152130126953
10,40840,40837,0.030292024835944176,-0.17639033496379852,1.0226353406906128,10.427445411682129,1.355604648590088,-4.132079601287842,1.750179409980774,3.8909811973571777,0.1803857982158661,0.6521635055541992,-0.3487466275691986,3.162644624710083
11,40850,40847,-0.00699977483600378,-0.03111671842634678,1.0295166969299316,3.780249834060669,8.629951477050781,-4.461522102355957,1.7510218620300293,3.891309976577759,0.18328112363815308,0.538133978843689,-0.27138426899909973,3.1319777965545654
12,40860,40857,0.015775587409734726,-0.03103044256567955,0.9891920685768127,-6.861763000488281,15.319649696350098,-4.570079326629639,1.7529863119125366,3.892192840576172,0.18653130531311035,0.3203623592853546,-0.34737977385520935,3.1083056926727295
13,40870,40867,0.009675213135778904,-0.003782731480896473,0.9832040667533875,-14.832170486450195,17.786224365234375,-5.0159735679626465,1.753724455833435,3.892979383468628,0.1871020495891571,0.0935845822095871,-0.556841254234314,3.075444459915161
14,40880,40877,-0.024761298671364784,0.09479942917823792,0.9854401350021362,-21.209440231323242,16.565120697021484,-4.286552906036377,1.7540203332901,3.89434814453125,0.18969941139221191,0.04584931582212448,-0.8113090395927429,3.017343282699585
15,40890,40887,0.002623477252200246,0.036178331822156906,0.9650595188140869,-20.63389778137207,10.508806228637695,-4.099016189575195,1.7547377347946167,3.895244598388672,0.1922031044960022,-0.2807117700576782,-1.2091208696365356,2.986076593399048
16,40900,40897,-0.005155444145202637,0.008090026676654816,0.9978548288345337,-13.74236011505127,5.32940673828125,-4.365962505340576,1.7573548555374146,3.8944132328033447,0.19545350968837738,-0.70415198802948,-1.29641592502594,2.977260112762451
17,40910,40907,0.0079371752217412,-0.059995587915182114,1.0167127847671509,-4.886940002441406,-4.526480197906494,-4.358543872833252,1.7566519975662231,3.893551826477051,0.19834116101264954,-0.5712912082672119,-1.4368077516555786,2.9107024669647217
18,40920,40917,-0.02082257904112339,-0.051918115466833115,1.0232148170471191,5.197991847991943,-8.06216049194336,-4.200862407684326,1.761704683303833,3.8942933082580566,0.2003990113735199,-1.1679593324661255,-1.6368244886398315,2.9479079246520996
19,40930,40927,0.026203038170933723,-0.0603027306497097,0.9513957500457764,12.790156364440918,-11.491151809692383,-5.082276821136475,1.766719102859497,3.9051413536071777,0.1980096846818924,-1.7429203987121582,-3.125378131866455,2.8668344020843506
20,40940,40937,0.03027520701289177,0.07627558708190918,0.9744648337364197,23.95562171936035,-26.209383010864258,-4.894925117492676,1.7665711641311646,3.9044957160949707,0.20562253892421722,-1.4558240175247192,-2.7924349308013916,2.816326379776001
21,40950,40947,0.01252799667418003,-0.05022208020091057,0.9582518339157104,37.73826599121094,-26.894681930541992,-4.79423189163208,1.7656078338623047,3.905240297317505,0.2117159068584442,-0.8517154455184937,-2.2876603603363037,2.7232463359832764
22,40960,40957,0.034376420080661774,0.03618219867348671,1.0087697505950928,46.629085540771484,-33.06180191040039,-3.5782980918884277,1.7674758434295654,3.9057633876800537,0.21474167704582214,-0.6510215997695923,-1.8192169666290283,2.7202537059783936
23,40970,40967,-0.011929009109735489,-0.029222611337900162,0.9861022233963013,47.51759338378906,-33.65995788574219,-3.5947346687316895,1.766430139541626,3.904970645904541,0.2160504162311554,-0.041663188487291336,-1.0985361337661743,2.6548218727111816
24,40980,40977,-0.09129699319601059,-0.03771573305130005,0.9627181887626648,40.540992736816406,-28.30104637145996,-3.422612190246582,1.764173984527588,3.9070541858673096,0.21890263259410858,0.3761323094367981,-0.5531194806098938,2.6115264892578125
25,40990,40987,-0.10943387448787689,0.05644133687019348,0.9365524649620056,27.765289306640625,-18.216588973999023,-3.0783958435058594,1.764245867729187,3.9071455001831055,0.22137446701526642,0.6016883254051208,-0.23307280242443085,2.5835909843444824
26,41000,40997,-0.035511765629053116,-0.010015727952122688,0.9089316129684448,15.142927169799805,-8.727309226989746,-2.9883689880371094,1.7638599872589111,3.906900405883789,0.22323255240917206,0.8714196681976318,0.15904058516025543,2.543912887573242
27,41010,41007,0.0031982571817934513,-0.004633008502423763,0.9684473872184753,4.8590216636657715,0.15375946462154388,-3.5919528007507324,1.763236403465271,3.907025098800659,0.22550636529922485,1.0385386943817139,0.33464184403419495,2.497006416320801
28,41020,41017,-0.05586382746696472,-0.012412055395543575,0.9982734322547913,-2.6564090251922607,7.54352331161499,-3.5876898765563965,1.7632144689559937,3.9070239067077637,0.22780677676200867,1.019817590713501,0.4807456135749817,2.4707303047180176
29,41030,41027,-0.006546327378600836,-0.01691311039030552,0.9721660614013672,-7.029209613800049,10.750516891479492,-3.5870232582092285,1.7632976770401,3.906405210494995,0.2301016002893448,0.9153905510902405,0.49590975046157837,2.438570022583008
30,41040,41037,-0.15335379540920258,0.12837594747543335,1.0258235931396484,-8.086495399475098,11.550971031188965,-3.852900266647339,1.7637959718704224,3.9067492485046387,0.23196208477020264,0.7687339186668396,0.44295910000801086,2.406390905380249
31,41050,41047,-0.10890284180641174,0.14271007478237152,0.9775806665420532,-6.243344783782959,9.879615783691406,-3.588747024536133,1.764384388923645,3.9085185527801514,0.23423127830028534,0.6206222176551819,0.24200598895549774,2.3734495639801025
32,41060,41057,-0.06076373904943466,0.1403934210538864,0.9605861902236938,-1.336665391921997,4.799473285675049,-3.4388599395751953,1.76180100440979,3.9056174755096436,0.23669850826263428,0.9253518581390381,0.5796276926994324,2.309065341949463
33,41070,41067,-0.021753042936325073,0.08570472151041031,0.9457803964614868,4.4182000160217285,1.1116912364959717,-3.169724702835083,1.7642390727996826,3.9075639247894287,0.2379802167415619,0.8456962704658508,0.5987293720245361,2.2745871543884277
34,41080,41077,-0.002459003822878003,0.03444251790642738,0.9493311047554016,6.855368137359619,-2.634079933166504,-2.9766337871551514,1.7688851356506348,3.9094529151916504,0.24048644304275513,0.5476133227348328,0.490895539522171,2.2491750717163086
35,41090,41087,-0.043596912175416946,0.0918179303407669,0.9955902099609375,6.993824005126953,-5.07254695892334,-2.9756529331207275,1.7700390815734863,3.9068658351898193,0.24248158931732178,0.47774192690849304,0.8528829216957092,2.199741840362549
36,41100,41097,-0.035154204815626144,0.0196851659566164,0.9602729678153992,5.158389568328857,-5.530713081359863,-3.521540403366089,1.7708191871643066,3.910083770751953,0.2428574562072754,0.5956615805625916,0.686260998249054,2.184492826461792
37,41110,41107,0.001682243775576353,-0.037342365831136703,0.9304702281951904,1.0952125787734985,-5.77858829498291,-3.6858246326446533,1.7749571800231934,3.916029930114746,0.24475903809070587,0.07448059320449829,0.29012250900268555,2.151782512664795
38,41120,41117,0.012150323949754238,-0.038451991975307465,0.9098739624023438,-0.5256692171096802,-9.73145866394043,-3.865161418914795,1.7760248184204102,3.916889190673828,0.24687331914901733,0.21478326618671417,0.39133158326148987,2.115668535232544
39,41130,41127,-0.05299313738942146,0.06310053169727325,0.968029797077179,0.2615371346473694,-12.531452178955078,-3.8307318687438965,1.776880145072937,3.918210506439209,0.2490244060754776,0.46151089668273926,0.45300331711769104,2.0831377506256104
40,41140,41137,-0.035638559609651566,0.11851111799478531,0.9745690226554871,2.777722120285034,-13.949532508850098,-4.067483425140381,1.7785950899124146,3.91823673248291,0.2533588111400604,0.5854429602622986,0.5284241437911987,2.050987482070923
41,41150,41147,0.001457609818316996,0.1527392864227295,0.9800230860710144,3.3358819484710693,-13.977758407592773,-3.8794052600860596,1.7755076885223389,3.9188764095306396,0.255388468503952,0.8808522820472717,0.6282408833503723,2.0176010131835938
42,41160,41157,0.05994163826107979,0.15529458224773407,0.9497453570365906,4.951784610748291,-11.293726921081543,-3.3858110904693604,1.7756482362747192,3.918653726577759,0.25726404786109924,1.0844779014587402,0.7396379709243774,1.9767900705337524
43,41170,41167,0.11039751023054123,0.1420518159866333,0.925866425037384,4.925346851348877,-7.9933762550354,-3.3230302333831787,1.7760951519012451,3.9192495346069336,0.26312440633773804,1.232866883277893,0.7833252549171448,1.9446126222610474
44,41180,41177,0.09272292256355286,0.065922811627388,0.9280690550804138,3.004711151123047,-3.577836036682129,-3.930453062057495,1.7765467166900635,3.9199440479278564,0.26504218578338623,1.388259768486023,0.8182740211486816,1.9179848432540894
45,41190,41187,0.011964644305408001,0.011358002200722694,0.9308422803878784,1.032152771949768,1.105050802230835,-3.5837934017181396,1.7765161991119385,3.9183671474456787,0.2669219374656677,1.460770845413208,1.0407779216766357,1.8656036853790283
46,41200,41197,0.02333938330411911,-0.01684717647731304,0.9099329710006714,-1.5134190320968628,3.9793386459350586,-3.67533540725708,1.7779511213302612,3.9194440841674805,0.27020809054374695,1.4539546966552734,0.9873769879341125,1.8371498584747314
47,41210,41207,0.012946582399308681,-0.07182447612285614,0.8879817724227905,-5.4587507247924805,6.826074123382568,-3.7211010456085205,1.7786897420883179,3.9189882278442383,0.27204763889312744,1.3884587287902832,0.9617801308631897,1.7962608337402344
48,41220,41217,0.012646257877349854,-0.05837704613804817,0.89512699842453,-6.567187786102295,7.529105186462402,-3.336116075515747,1.7797369956970215,3.9199025630950928,0.27383193373680115,1.2867259979248047,0.8824968934059143,1.7625412940979004
49,41230,41227,0.007379418704658747,-0.03494567796587944,0.9083132147789001,-7.133044719696045,7.5309672355651855,-2.80206036567688,1.780187726020813,3.9191367626190186,0.2722415328025818,1.2491698265075684,0.9349944591522217,1.7207785844802856
50,41240,41237,0.005061170551925898,-0.02936655469238758,0.9083895683288574,-6.957925319671631,6.4867844581604,-2.2497713565826416,1.7775136232376099,3.9172611236572266,0.27352744340896606,1.4317363500595093,1.0412955284118652,1.7047938108444214
51,41250,41247,0.009516668505966663,-0.037197500467300415,0.9047461152076721,-7.182333469390869,6.266902923583984,-1.7300941944122314,1.7781678438186646,3.917461633682251,0.2750125229358673,1.3027043342590332,0.900650143623352,1.685639500617981
52,41260,41257,0.002617301419377327,-0.033240094780921936,0.9165918231010437,-8.833455085754395,6.838158130645752,-1.6775388717651367,1.7763696908950806,3.917717456817627,0.27615121006965637,1.481457233428955,0.7583187818527222,1.711844563484192
53,41270,41267,-0.025659339502453804,0.02000383473932743,0.9332554340362549,-8.95692253112793,8.004927635192871,-1.7428607940673828,1.775650143623352,3.9194018840789795,0.27660268545150757,1.3926670551300049,0.5201088190078735,1.7164543867111206
54,41280,41277,-0.04681441932916641,0.1731123924255371,0.9166693687438965,-7.883233547210693,11.515284538269043,-1.411247730255127,1.7773215770721436,3.9185142517089844,0.27785879373550415,1.1210277080535889,0.5392559766769409,1.6570476293563843
55,41290,41287,-0.03642728924751282,0.13900363445281982,0.906356155872345,-4.744139671325684,14.126673698425293,-0.5539160370826721,1.7758047580718994,3.9188549518585205,0.2789243161678314,0.9670813083648682,0.40709006786346436,1.6491310596466064
56,41300,41297,0.00048019897076301277,-0.1354209929704666,0.9541803598403931,-2.707850456237793,15.22024154663086,-0.2992691099643707,1.7757551670074463,3.917724370956421,0.2805347740650177,0.7965028285980225,0.4846935570240021,1.6205883026123047
57,41310,41307,0.03673975542187691,-0.04969112202525139,0.8898726105690002,-0.16459839046001434,12.332109451293945,-0.46099913120269775,1.773761510848999,3.9176418781280518,0.28143298625946045,0.837795615196228,0.4382172226905823,1.6453911066055298
58,41320,41317,-0.0031186616979539394,-0.027855997905135155,0.9281389117240906,0.5474395751953125,10.192441940307617,-0.48682722449302673,1.7712914943695068,3.9189813137054443,0.2821982800960541,0.8908655643463135,0.3438550531864166,1.6766948699951172
59,41330,41327,0.0016922070644795895,-0.02145298942923546,0.9379720687866211,0.9517859220504761,13.623421669006348,-0.3451595902442932,1.7717387676239014,3.918424606323242,0.28095293045043945,0.7150468826293945,0.42259466648101807,1.654969334602356
60,41340,41337,0.008303980343043804,-0.038442663848400116,0.9358309507369995,-1.415806770324707,21.304460525512695,0.7336493134498596,1.7699757814407349,3.9179093837738037,0.2814973294734955,0.6368877291679382,0.41734862327575684,1.660714030265808
61,41350,41347,0.044887103140354156,-0.004686950705945492,0.9507324695587158,-1.2018276453018188,24.12688446044922,-1.067209005355835,1.771639347076416,3.9182283878326416,0.2821287214756012,0.27354300022125244,0.3838109076023102,1.6525616645812988
62,41360,41357,-0.053598638623952866,-0.002996206982061267,0.9591959714889526,-3.3445372581481934,29.583980560302734,-0.3813937306404114,1.7708719968795776,3.915611505508423,0.28257590532302856,0.08078097552061081,0.5677425861358643,1.6316146850585938
63,41370,41367,-0.037529412657022476,0.019486738368868828,0.9706562161445618,-4.20857572555542,30.16351318359375,-0.8350093364715576,1.7712509632110596,3.916226625442505,0.2804265022277832,-0.3340229094028473,0.4740869700908661,1.6232681274414062
64,41380,41377,-0.030857671052217484,0.018780015408992767,0.9238208532333374,-5.50078821182251,27.22226905822754,-0.5957425832748413,1.7700166702270508,3.9158918857574463,0.2807132601737976,-0.5831837058067322,0.3617004454135895,1.6256194114685059
65,41390,41387,-0.0329049713909626,0.002866684924811125,0.9792096018791199,-6.120790481567383,23.115102767944336,-1.0013138055801392,1.7677228450775146,3.9154021739959717,0.2809835374355316,-0.7889816164970398,0.3136443495750427,1.6248186826705933
66,41400,41397,0.03233330696821213,-0.058407727628946304,0.9486277103424072,-3.0036816596984863,18.59309959411621,-1.251888394355774,1.7678334712982178,3.9142537117004395,0.279762327671051,-1.0825412273406982,0.34271225333213806,1.6090359687805176
67,41410,41407,-0.028310386463999748,0.011369875632226467,1.0488319396972656,-1.1311931610107422,10.535097122192383,-0.6986342668533325,1.7665554285049438,3.914670705795288,0.27989497780799866,-1.2095668315887451,0.2566964626312256,1.6018733978271484
68,41420,41417,-0.01733928918838501,-0.10636331886053085,1.001955270767212,-0.12561048567295074,9.086125373840332,-0.6091594696044922,1.7664240598678589,3.9132895469665527,0.2799670994281769,-1.3918060064315796,0.3589020371437073,1.5951353311538696
69,41430,41427,-0.012955990619957447,-0.06218602508306503,0.978335440158844,-0.7184223532676697,9.056371688842773,-0.29405316710472107,1.7648226022720337,3.913303852081299,0.28145676851272583,-1.3729158639907837,0.3098277151584625,1.5935120582580566
70,41440,41437,0.04220708832144737,-0.028245078399777412,1.0003457069396973,-1.8194652795791626,8.336747169494629,0.1357678920030594,1.764958143234253,3.913515567779541,0.28162768483161926,-1.5036805868148804,0.25336581468582153,1.5835380554199219
71,41450,41447,0.020935608074069023,-0.059908658266067505,1.0572106838226318,-4.095670700073242,8.393010139465332,0.3513282239437103,1.764003038406372,3.9139091968536377,0.2818314731121063,-1.5381650924682617,0.1798253059387207,1.5826358795166016
72,41460,41457,0.041599880903959274,-0.027984557673335075,1.0032473802566528,-4.931814670562744,11.459256172180176,0.20771926641464233,1.7624191045761108,3.912433624267578,0.2820749580860138,-1.583070993423462,0.22963905334472656,1.603785753250122
73,41470,41467,0.006752222776412964,0.03285203501582146,0.982772171497345,-4.157271385192871,9.091021537780762,0.7988353967666626,1.7631909847259521,3.9135656356811523,0.2815430462360382,-1.8053292036056519,0.1112167164683342,1.5885871648788452
74,41480,41477,0.005746535025537014,-0.00290347239933908,1.029488444328308,-4.074051380157471,11.485564231872559,1.274248480796814,1.7630614042282104,3.912494421005249,0.28171950578689575,-1.9397318363189697,0.0820675641298294,1.598741888999939
75,41490,41487,0.024863719940185547,-0.0073304385878145695,1.037714958190918,-1.7988646030426025,5.4465556144714355,2.0188510417938232,1.764329433441162,3.912980079650879,0.2816559970378876,-2.1617488861083984,0.1342538744211197,1.6313352584838867
76,41500,41497,-0.024297693744301796,-0.0015308515867218375,1.0217679738998413,-2.2201054096221924,8.37590503692627,1.9778465032577515,1.7644593715667725,3.912322521209717,0.27984127402305603,-2.309542655944824,0.056032247841358185,1.633374810218811
77,41510,41507,0.008830776438117027,-0.009170666337013245,1.0032329559326172,-2.2779228687286377,4.196829795837402,2.891292095184326,1.7623399496078491,3.9125311374664307,0.28012868762016296,-2.208872079849243,-0.01781660132110119,1.6450732946395874
78,41520,41517,-0.04127086326479912,0.058732420206069946,1.0496013164520264,-1.400728464126587,1.4488672018051147,2.4289164543151855,1.7624025344848633,3.910740375518799,0.28027263283729553,-2.2887625694274902,0.14194151759147644,1.7247025966644287
79,41530,41527,-0.0037148594856262207,0.0012548693921416998,1.0810799598693848,-2.1467771530151367,-0.9728384017944336,2.1623682975769043,1.761289119720459,3.909148931503296,0.2818468511104584,-2.2213783264160156,0.13659149408340454,1.7545688152313232
80,41540,41537,0.00018492829985916615,-0.02683555707335472,1.0408499240875244,-3.1381442546844482,-2.640260696411133,2.4949944019317627,1.7628480195999146,3.9090304374694824,0.2824367582798004,-2.359682321548462,0.04510864242911339,1.7514796257019043
81,41550,41547,-0.030144181102514267,0.001484443317167461,1.0828557014465332,-6.266286849975586,-0.14023347198963165,2.8498587608337402,1.7630484104156494,3.909484386444092,0.2824648916721344,-2.288233518600464,0.003985630813986063,1.7794480323791504
82,41560,41557,0.028096016496419907,-0.08598063141107559,1.051840901374817,-6.906820774078369,-3.4711287021636963,2.8005454540252686,1.7635732889175415,3.907909631729126,0.2802518606185913,-2.3236849308013916,0.00815219059586525,1.8303966522216797
83,41570,41567,0.020149782299995422,-0.13590607047080994,1.0760771036148071,-7.08817720413208,-5.8670759201049805,3.0041427612304688,1.7632927894592285,3.9076743125915527,0.28059476613998413,-2.2367522716522217,-0.08618222177028656,1.8500680923461914
84,41580,41577,-0.002749642124399543,-0.1312335580587387,1.0080716609954834,-6.781832695007324,-3.905081033706665,3.4932405948638916,1.7629717588424683,3.906130075454712,0.2809629738330841,-2.1302967071533203,-0.10757677257061005,1.901755452156067
85,41590,41587,0.009587439708411694,0.02370523288846016,0.996882975101471,-7.157670974731445,-2.4730849266052246,3.399634599685669,1.7634484767913818,3.905179977416992,0.28133073449134827,-2.1215121746063232,-0.12906943261623383,1.9546130895614624
86,41600,41597,0.02303302101790905,0.06667725741863251,1.052743673324585,-5.798825740814209,-4.433149814605713,2.385638952255249,1.7628836631774902,3.9042563438415527,0.2821415662765503,-2.0374231338500977,-0.22368448972702026,1.9742752313613892
87,41610,41607,0.02242940478026867,0.024707132950425148,1.036542296409607,-5.404362678527832,-3.5945193767547607,1.8766145706176758,1.7633782625198364,3.903902292251587,0.2826369106769562,-1.9417932033538818,-0.2979925274848938,1.9904124736785889
88,41620,41617,-0.03924235329031944,0.11923542618751526,1.0187158584594727,-5.221569538116455,-2.8188304901123047,2.497760534286499,1.764492154121399,3.9051010608673096,0.2831016778945923,-2.004802703857422,-0.36942577362060547,2.0076446533203125
89,41630,41627,-0.017507610842585564,0.07062143087387085,1.0234161615371704,-3.3757922649383545,-5.060348987579346,2.656900644302368,1.7665050029754639,3.9048690795898438,0.28492817282676697,-2.1376290321350098,-0.4276513159275055,2.032113552093506
90,41640,41637,-0.02198064513504505,0.008227134123444557,1.0828335285186768,-1.764017939567566,-7.998867034912109,2.2462098598480225,1.7660833597183228,3.9057955741882324,0.28566259145736694,-2.003040075302124,-0.5247195959091187,2.028085708618164
91,41650,41647,-0.05074742063879967,0.006861361209303141,1.0559722185134888,-2.9944868087768555,-3.099130868911743,2.4958486557006836,1.7676753997802734,3.904257297515869,0.2862263321876526,-2.068403959274292,-0.4507759213447571,2.092925548553467
92,41660,41657,0.035239070653915405,-0.03115585446357727,0.9685045480728149,-1.8484129905700684,-6.427302360534668,2.3543179035186768,1.7660502195358276,3.9037914276123047,0.28545913100242615,-1.8499685525894165,-0.4668008089065552,2.1109659671783447
93,41670,41667,-0.013904320076107979,0.09573790431022644,1.0130094289779663,-2.222646474838257,-9.894295692443848,2.651726007461548,1.765965461730957,3.902472734451294,0.28616780042648315,-1.7373926639556885,-0.40127983689308167,2.1654062271118164
94,41680,41677,0.0006414333474822342,-0.008256415836513042,0.997644305229187,-2.8637759685516357,-13.745316505432129,1.673170804977417,1.766931176185608,3.9022469520568848,0.2868366837501526,-1.7332348823547363,-0.5014631152153015,2.1685409545898438
95,41690,41687,-0.08632463961839676,-0.03774310648441315,1.0323235988616943,-3.9356091022491455,-14.12102222442627,1.790794014930725,1.7682644128799438,3.9011969566345215,0.2874385416507721,-1.6788266897201538,-0.4592052400112152,2.2187132835388184
96,41700,41697,-0.06018172577023506,0.0037035266868770123,0.9708002805709839,-7.399700164794922,-11.324539184570312,2.2540032863616943,1.768514633178711,3.901071786880493,0.2856922149658203,-1.4752163887023926,-0.5326955318450928,2.2242729663848877
97,41710,41707,-0.09525566548109055,0.05136501416563988,1.038842797279358,-7.898416996002197,-11.616409301757812,1.587371826171875,1.7707327604293823,3.900496006011963,0.2861343324184418,-1.5203161239624023,-0.5637369155883789,2.269108772277832
98,41720,41717,-0.03798242658376694,-0.01312532089650631,1.0146249532699585,-7.595973491668701,-11.199151992797852,1.1688714027404785,1.7709225416183472,3.900829315185547,0.28682807087898254,-1.3316932916641235,-0.75917649269104,2.2413113117218018
99,41730,41727,-0.0432705283164978,0.007681017275899649,1.008915901184082,-5.547123908996582,-10.40931510925293,1.8272701501846313,1.7722675800323486,3.8991382122039795,0.2895228862762451,-1.2938767671585083,-0.777461051940918,2.276331901550293
100,41740,41737,-0.0077726636081933975,-0.002522568916901946,1.0191466808319092,-4.016576766967773,-10.339129447937012,2.1155755519866943,1.7737610340118408,3.9000589847564697,0.29028403759002686,-1.1790848970413208,-0.9106055498123169,2.2701244354248047
101,41750,41747,0.003951997496187687,-0.028211403638124466,0.9992957711219788,-1.0754600763320923,-11.931316375732422,2.1208150386810303,1.7741364240646362,3.8991878032684326,0.29112574458122253,-0.9936985373497009,-0.9297398328781128,2.2877557277679443
102,41760,41757,-0.052108053117990494,-0.03348695486783981,1.0396286249160767,1.6870596408843994,-12.672065734863281,2.159881591796875,1.776969313621521,3.8973939418792725,0.29115167260169983,-1.0915125608444214,-0.7522791028022766,2.3758819103240967
103,41770,41767,-0.05752655491232872,-0.05192134901881218,1.0155706405639648,1.9632461071014404,-7.568251609802246,0.828998863697052,1.7765976190567017,3.8972527980804443,0.2920854091644287,-0.8219687938690186,-0.7741786241531372,2.3654301166534424
104,41780,41777,-0.013632263988256454,-0.03969689458608627,0.9907289147377014,0.32067662477493286,-7.018915176391602,1.1863161325454712,1.778429388999939,3.8980789184570312,0.29364892840385437,-0.8202402591705322,-0.7988580465316772,2.3752188682556152
105,41790,41787,0.011724557727575302,-0.017267750576138496,0.9566099643707275,-1.7714341878890991,-5.385296821594238,1.0507663488388062,1.7790273427963257,3.8988301753997803,0.29359573125839233,-0.8280116319656372,-0.8471063375473022,2.385112762451172
106,41800,41797,-0.05788711830973625,0.09507337212562561,1.015185832977295,-2.4493744373321533,-6.674274444580078,1.4904961585998535,1.779191017150879,3.899336338043213,0.2946697771549225,-0.693228542804718,-0.9180152416229248,2.3791680335998535
107,41810,41807,-0.01677042618393898,-0.01365748979151249,0.9835798740386963,-2.426595687866211,-9.961259841918945,1.3446158170700073,1.7801663875579834,3.8988189697265625,0.2954908311367035,-0.6167450547218323,-0.9172827005386353,2.397897481918335
108,41820,41817,-0.09123079478740692,-0.018709437921643257,1.0464290380477905,-1.2482562065124512,-11.408411979675293,0.9849132895469666,1.7822948694229126,3.8983371257781982,0.29617777466773987,-0.6575576663017273,-0.9119161367416382,2.432952404022217
109,41830,41827,-0.11363466084003448,0.02926493063569069,1.0080077648162842,-1.7977737188339233,-8.41598892211914,1.3686299324035645,1.7820384502410889,3.897796154022217,0.2960590720176697,-0.45534947514533997,-0.9739853739738464,2.4258155822753906
110,41840,41837,-0.04911491647362709,0.14318396151065826,0.9877473711967468,-0.6644004583358765,-5.985161781311035,1.9843186140060425,1.782822847366333,3.89738130569458,0.2968571186065674,-0.36202022433280945,-0.9509105086326599,2.446577787399292
111,41850,41847,0.023640930652618408,0.13805776834487915,0.9700884222984314,0.4559364914894104,-5.113183498382568,1.352707862854004,1.784460425376892,3.8971335887908936,0.29759320616722107,-0.3623001277446747,-0.9824596643447876,2.4706056118011475
112,41860,41857,-4.767687278217636e-05,0.0610593818128109,1.0147398710250854,1.4334625005722046,-6.367215633392334,0.8641737699508667,1.7858989238739014,3.8972206115722656,0.296604186296463,-0.2905775010585785,-0.9889715313911438,2.481813669204712
113,41870,41867,-0.002061478327959776,-0.03523707017302513,0.9776980876922607,1.8901997804641724,-6.306593418121338,0.8788526058197021,1.7862201929092407,3.896613359451294,0.2973298132419586,-0.1318420171737671,-0.9809456467628479,2.480462074279785
114,41880,41877,-0.041118450462818146,0.024378789588809013,0.9717874526977539,1.962227702140808,-4.861659526824951,1.5706783533096313,1.7878003120422363,3.89632511138916,0.29793474078178406,-0.14369578659534454,-0.9642562866210938,2.5033695697784424
115,41890,41887,-0.001474885968491435,0.006691040005534887,0.9286566972732544,2.2301876544952393,-3.254380226135254,1.8968719244003296,1.7886215448379517,3.894916296005249,0.2980557978153229,-0.09587148576974869,-0.7985646724700928,2.5286617279052734
116,41900,41897,0.03778165206313133,-0.013895496726036072,0.9617359042167664,1.9006644487380981,-1.983758807182312,1.767503261566162,1.791267991065979,3.894244432449341,0.29864007234573364,-0.0727844163775444,-0.7859322428703308,2.5482726097106934
117,41910,41907,0.0590292327105999,-0.045891936868429184,0.9995472431182861,1.4591829776763916,-1.5732333660125732,1.2703760862350464,1.7928576469421387,3.894115924835205,0.2990863621234894,-0.13585124909877777,-0.7804785370826721,2.5774879455566406
118,41920,41917,0.07057557255029678,-0.04722179099917412,0.9629206657409668,-0.6241428256034851,-1.7098127603530884,0.4626278281211853,1.7926321029663086,3.8938021659851074,0.29974672198295593,0.027041330933570862,-0.7868161201477051,2.5705885887145996
119,41930,41927,0.049529068171978,-0.032005056738853455,0.9703477621078491,-1.3981380462646484,-3.474271774291992,1.2305083274841309,1.7954074144363403,3.8940844535827637,0.2993444502353668,-0.10293388366699219,-0.8893969655036926,2.59948992729187
120,41940,41937,-0.007607943378388882,-0.010681236162781715,1.031052827835083,-1.8516355752944946,-2.988023042678833,1.2834961414337158,1.7959693670272827,3.894742012023926,0.29982200264930725,0.016638757660984993,-0.9217115640640259,2.6006126403808594
121,41950,41947,0.044783271849155426,-0.10287727415561676,1.0219709873199463,1.1049952507019043,-3.0934994220733643,0.835953950881958,1.796615719795227,3.894806146621704,0.30029016733169556,0.13026000559329987,-0.9380358457565308,2.604358196258545
122,41960,41957,0.0006004361202940345,0.04000375047326088,0.9929977059364319,3.9136412143707275,-6.338924884796143,1.2091732025146484,1.798065185546875,3.894505500793457,0.30144375562667847,0.08837772905826569,-0.8385971784591675,2.626131296157837
123,41970,41967,0.009286822751164436,-0.10000765323638916,0.9739331007003784,5.848952770233154,-3.471604824066162,0.6181390881538391,1.7988133430480957,3.8945224285125732,0.3019035756587982,0.1497584730386734,-0.7746664881706238,2.6378283500671387
124,41980,41977,0.00010162348917219788,-0.06647269427776337,0.9273821115493774,5.912910461425781,0.3379625976085663,1.2476909160614014,1.7996571063995361,3.8943448066711426,0.30245259404182434,0.16501501202583313,-0.6831015944480896,2.648784875869751
125,41990,41987,0.017108028754591942,-0.0868244394659996,0.932837963104248,4.997128963470459,-1.3569047451019287,1.424156665802002,1.8011128902435303,3.894061326980591,0.3032130002975464,0.1515025943517685,-0.6046739220619202,2.6639044284820557
126,42000,41997,0.03716633841395378,-0.09190194308757782,0.9482811093330383,3.523261070251465,-4.064971923828125,1.6630810499191284,1.8020391464233398,3.8944430351257324,0.3036715090274811,0.23194900155067444,-0.6220073699951172,2.6752936840057373
127,42010,42007,-0.03296508267521858,-0.1371888518333435,1.0410056114196777,3.370347738265991,-5.862567901611328,1.6402239799499512,1.8018499612808228,3.8943734169006348,0.3041253089904785,0.401406466960907,-0.5807977318763733,2.675471782684326
128,42020,42017,0.008677102625370026,-0.1210828572511673,0.9860683679580688,1.9564255475997925,-2.141657590866089,1.1241739988327026,1.8050369024276733,3.8946361541748047,0.30434727668762207,0.26143452525138855,-0.6189666390419006,2.7135632038116455
129,42030,42027,0.00950173381716013,0.01995893195271492,1.0047513246536255,0.7112928032875061,-1.256629467010498,0.773856520652771,1.8049044609069824,3.894822597503662,0.3066715896129608,0.40248826146125793,-0.6000802516937256,2.708509922027588
130,42040,42037,0.006281418725848198,-0.027174673974514008,0.9937616586685181,1.3905047178268433,0.05911426246166229,1.2715340852737427,1.8049613237380981,3.894458532333374,0.3071635365486145,0.4509379267692566,-0.5827099680900574,2.713728427886963
131,42050,42047,-0.005290557164698839,0.09713086485862732,1.0030241012573242,2.950758218765259,-3.031123399734497,0.8108485341072083,1.808318018913269,3.8952014446258545,0.30749261379241943,0.26201915740966797,-0.6240622401237488,2.7446658611297607
132,42060,42057,-0.029976019635796547,-0.005286811850965023,0.9986501932144165,2.8405001163482666,-0.8355655074119568,0.6472603678703308,1.8093090057373047,3.8949856758117676,0.30497080087661743,0.33208930492401123,-0.5694446563720703,2.743866443634033
133,42070,42067,-0.007655048742890358,-0.04205694422125816,0.9929633140563965,3.4113314151763916,-1.0737277269363403,0.8735671043395996,1.8097882270812988,3.8951873779296875,0.30533137917518616,0.4546622931957245,-0.5124673843383789,2.739025115966797
134,42080,42077,-0.027125708758831024,-0.0063163284212350845,0.9906432032585144,5.18260383605957,-4.3282365798950195,1.29862642288208,1.8110311031341553,3.8948302268981934,0.3055350184440613,0.3588557243347168,-0.43690574169158936,2.7541351318359375
135,42090,42087,-0.06031358987092972,-0.009015089832246304,1.0000959634780884,5.334962368011475,-3.125183582305908,0.9509218335151672,1.8122872114181519,3.8957107067108154,0.3071466088294983,0.3743448257446289,-0.4281480312347412,2.7725119590759277
136,42100,42097,-0.0959099531173706,0.03401279076933861,0.9721909165382385,4.228605270385742,-0.7166417837142944,0.9296992421150208,1.8122106790542603,3.896132469177246,0.30756676197052,0.5132542252540588,-0.4176543951034546,2.7784998416900635
137,42110,42107,-0.07407668977975845,0.060738928616046906,0.9439948797225952,1.4961974620819092,0.6032416820526123,1.4208250045776367,1.814575433731079,3.8957958221435547,0.3078107237815857,0.3911670744419098,-0.3557418882846832,2.7888388633728027
138,42120,42117,-0.06406638026237488,0.054548922926187515,1.0245375633239746,1.8380154371261597,0.05123566463589668,1.4209078550338745,1.8146179914474487,3.8964149951934814,0.30821114778518677,0.4862521290779114,-0.3918914496898651,2.8019914627075195
139,42130,42127,-0.020014062523841858,0.00756936427205801,1.0450483560562134,2.9981226921081543,-0.8155238032341003,0.8022477626800537,1.81451416015625,3.8971567153930664,0.30941686034202576,0.5759231448173523,-0.41590815782546997,2.814049005508423
140,42140,42137,-0.03685312718153,0.027748528867959976,1.0357298851013184,3.5998034477233887,3.1736621856689453,0.6958187222480774,1.8150112628936768,3.896531343460083,0.3097890019416809,0.5712919235229492,-0.3448525071144104,2.8171892166137695
141,42150,42147,-0.05823500454425812,0.1251860111951828,0.9474126100540161,2.1155004501342773,7.59822416305542,0.5664412379264832,1.8171859979629517,3.895956039428711,0.31014952063560486,0.437203973531723,-0.28366029262542725,2.8234128952026367
142,42160,42157,-0.021704500541090965,0.10766271501779556,0.9669443368911743,2.2768619060516357,8.644695281982422,0.6148676872253418,1.818211555480957,3.896851062774658,0.3120408058166504,0.34386953711509705,-0.3014332354068756,2.840101480484009
143,42170,42167,-0.00748978927731514,0.03427115082740784,1.0202785730361938,6.559231758117676,1.4077811241149902,0.3846120238304138,1.818698763847351,3.8965506553649902,0.31254270672798157,0.33594250679016113,-0.22319374978542328,2.836846113204956
144,42180,42177,-0.022320080548524857,0.07314325124025345,0.9743610620498657,6.064403057098389,1.2257986068725586,0.5779457092285156,1.8192944526672363,3.8961069583892822,0.31299468874931335,0.3056768476963043,-0.1095043495297432,2.834608316421509
145,42190,42187,-0.06434161961078644,0.12210927158594131,1.0391337871551514,5.35525369644165,1.0503246784210205,0.9796210527420044,1.8202049732208252,3.8978219032287598,0.31263861060142517,0.29186204075813293,-0.22545333206653595,2.8704116344451904
146,42200,42197,0.033512797206640244,-0.05219512805342674,0.9413543343544006,4.8768720626831055,0.4569597840309143,0.7874072790145874,1.8210649490356445,3.8975844383239746,0.313075453042984,0.2994958758354187,-0.11074323207139969,2.8712246417999268
147,42210,42207,-0.025659985840320587,-0.002962282160297036,1.011499047279358,3.6380770206451416,3.8454318046569824,0.6179628968238831,1.821425437927246,3.8985888957977295,0.3134898841381073,0.311236709356308,-0.0017557438695803285,2.879216432571411
148,42220,42217,-0.00737426895648241,-0.10679125785827637,0.9930025339126587,6.583051681518555,-1.7562484741210938,1.2601360082626343,1.8244142532348633,3.8984649181365967,0.31455278396606445,0.2516062557697296,0.029090721160173416,2.8904764652252197
149,42230,42227,0.008082032203674316,-0.04491085931658745,0.9794036746025085,4.732880592346191,-1.1662184000015259,1.3343971967697144,1.824154257774353,3.8988163471221924,0.3150419592857361,0.36826422810554504,0.0659797191619873,2.906118631362915
150,42240,42237,-0.003945555072277784,0.006315045524388552,0.9985290169715881,3.9664247035980225,2.264040470123291,1.9456812143325806,1.824803113937378,3.897416830062866,0.3155210316181183,0.4590320289134979,0.16048593819141388,2.902430772781372
151,42250,42247,0.10037392377853394,-0.021161867305636406,0.9672197103500366,1.5952857732772827,1.508034348487854,0.9908127784729004,1.8286925554275513,3.899982213973999,0.3158504068851471,0.19904442131519318,-0.0021130559034645557,2.929652214050293
152,42260,42257,0.03644285723567009,-0.05757584050297737,0.9515565037727356,-0.04069048911333084,1.942626714706421,0.9325780272483826,1.8308554887771606,3.8995063304901123,0.3164997398853302,0.14617504179477692,0.032069236040115356,2.93257474899292
153,42270,42267,0.027826324105262756,-0.05172063782811165,0.9411654472351074,0.6912616491317749,0.978783130645752,0.8951456546783447,1.8312973976135254,3.899287462234497,0.3169568181037903,0.21510878205299377,0.07285286486148834,2.934770345687866
154,42280,42277,-0.043289318680763245,-0.012110126204788685,0.9684709906578064,2.452643632888794,-3.7533774375915527,2.5206685066223145,1.8322484493255615,3.8994674682617188,0.31730619072914124,0.2546446621417999,0.1271650493144989,2.93686580657959
155,42290,42287,-0.03852110728621483,-0.021485505625605583,1.0150156021118164,2.8214778900146484,-3.8387451171875,2.3179728984832764,1.8331960439682007,3.899416923522949,0.3170933723449707,0.3144667148590088,0.19091267883777618,2.957102060317993
156,42300,42297,0.008008130826056004,-0.055961791425943375,0.9574217200279236,3.217017650604248,-5.149313449859619,2.6999871730804443,1.833660364151001,3.8992199897766113,0.317361444234848,0.39446258544921875,0.252164363861084,2.979043960571289
157,42310,42307,-0.012129434384405613,-0.016308331862092018,0.9991803765296936,4.023194313049316,-7.009219169616699,2.215514898300171,1.8349117040634155,3.8989784717559814,0.31756913661956787,0.4105367958545685,0.3251478970050812,3.007538080215454
158,42320,42317,-0.08230749517679214,0.05573687702417374,0.995332658290863,0.6586856245994568,-4.9070234298706055,3.576517105102539,1.8356094360351562,3.899860143661499,0.3175647258758545,0.5188360214233398,0.30387774109840393,3.0482282638549805
159,42330,42327,-0.024758324027061462,-0.005225107539445162,0.981376051902771,-4.677479267120361,-3.7832329273223877,4.063270568847656,1.8365309238433838,3.9007697105407715,0.31775033473968506,0.5259680151939392,0.22526469826698303,3.0920519828796387
160,42340,42337,0.014631185680627823,-0.026314983144402504,1.000835657119751,-8.121786117553711,-1.0780768394470215,4.530309677124023,1.8363943099975586,3.901266098022461,0.31796973943710327,0.6572156548500061,0.06982914358377457,3.1406166553497314
161,42350,42347,0.019901417195796967,-0.025548581033945084,0.9896551370620728,-10.766020774841309,1.4111113548278809,4.572299957275391,1.8371808528900146,3.9001901149749756,0.3182011544704437,0.6484836935997009,0.08788401633501053,3.1613235473632812
162,42360,42357,0.0024532012175768614,-0.04122648388147354,0.9508386254310608,-12.523423194885254,4.840517997741699,4.546851634979248,1.8391594886779785,3.9011549949645996,0.3161279261112213,0.46825751662254333,-0.09488862752914429,3.2063114643096924
163,42370,42367,0.007883450947701931,-0.03836662694811821,0.9754873514175415,-10.489002227783203,3.085772752761841,3.9063775539398193,1.8397870063781738,3.902376174926758,0.3161745071411133,0.4479069709777832,-0.27956387400627136,3.2559962272644043
164,42380,42377,0.02055610530078411,-0.05268396437168121,1.016345500946045,-8.097743034362793,5.985528945922852,2.523484230041504,1.8396800756454468,3.90297794342041,0.3161922097206116,0.4212864637374878,-0.40670204162597656,3.2858567237854004
165,42390,42387,0.06390666961669922,-0.07085384428501129,1.0007362365722656,-3.670544147491455,4.743963718414307,2.332503318786621,1.841048240661621,3.903163194656372,0.31509387493133545,0.3006695508956909,-0.48113030195236206,3.309394359588623
166,42400,42397,-0.006525073666125536,0.08290169388055801,1.034812092781067,0.737062394618988,5.16712760925293,0.6997758746147156,1.8413519859313965,3.9026002883911133,0.3151129186153412,0.3053346276283264,-0.4090728163719177,3.3174049854278564
167,42410,42407,-0.042166512459516525,0.013689943589270115,1.0223641395568848,6.509030818939209,5.853937149047852,0.353568971157074,1.84160315990448,3.9023921489715576,0.31511273980140686,0.293586403131485,-0.3168826699256897,3.32511830329895
168,42420,42417,-0.052742037922143936,0.02911549061536789,1.088748812675476,13.490041732788086,6.4542927742004395,0.2483944445848465,1.8426952362060547,3.9011354446411133,0.3150990605354309,0.2787306010723114,-0.13121406733989716,3.3081960678100586
169,42430,42427,-0.06556806713342667,0.0668163076043129,1.0147831439971924,15.639986991882324,11.101180076599121,-0.17545001208782196,1.8430041074752808,3.901576280593872,0.3151339888572693,0.2167569398880005,-0.0029962791595607996,3.3123373985290527
170,42440,42437,-0.10502374172210693,0.14753669500350952,0.9858397245407104,12.204895973205566,12.702387809753418,0.6838399767875671,1.8439216613769531,3.901277780532837,0.3152071237564087,0.09300406277179718,0.19107572734355927,3.312755823135376
171,42450,42447,-0.010395730845630169,-0.03272438794374466,0.9788618683815002,7.468542575836182,14.477486610412598,0.3652333617210388,1.8443677425384521,3.902988910675049,0.3152981400489807,-0.06477317959070206,0.14798584580421448,3.3210253715515137
172,42460,42457,0.04746391251683235,-0.11864267289638519,1.0176061391830444,-0.4821603298187256,15.836821556091309,0.16963867843151093,1.8454947471618652,3.9023382663726807,0.3169567584991455,-0.2825455367565155,0.22804313898086548,3.321572780609131
173,42470,42467,0.03700897470116615,-0.055810295045375824,1.0041519403457642,-6.749163627624512,16.02946662902832,-0.45712557435035706,1.845702886581421,3.90214204788208,0.31716156005859375,-0.4077039957046509,0.18928630650043488,3.311324119567871
174,42480,42477,-0.01554357260465622,0.021468011662364006,1.0094006061553955,-9.264799118041992,13.543049812316895,-0.5846725106239319,1.846665620803833,3.9025707244873047,0.3172987103462219,-0.5975368618965149,0.07775454223155975,3.3067054748535156
175,42490,42487,-0.04142620041966438,0.035263605415821075,1.0100066661834717,-8.596627235412598,8.722363471984863,-1.7016823291778564,1.8475977182388306,3.9029958248138428,0.317645788192749,-0.7027531266212463,-0.05109023302793503,3.288559675216675
176,42500,42497,-0.03332000598311424,-0.006443205755203962,0.9902653098106384,-5.413196563720703,2.4102981090545654,-1.3839952945709229,1.8471711874008179,3.9030206203460693,0.3179696500301361,-0.6732046604156494,-0.07253918051719666,3.27386212348938
177,42510,42507,0.004828811157494783,-0.09217114001512527,0.9843642115592957,-2.264097213745117,-1.0399181842803955,-2.2819125652313232,1.8461230993270874,3.9031248092651367,0.31833481788635254,-0.5606881976127625,-0.11648229509592056,3.260861396789551
178,42520,42517,-0.003948467317968607,0.012917193584144115,1.0122332572937012,-1.5790679454803467,-1.7144197225570679,-2.4940974712371826,1.847465991973877,3.903402090072632,0.31931525468826294,-0.6214531064033508,-0.11751174181699753,3.2315425872802734
179,42530,42527,-0.008932429365813732,0.01414243970066309,1.030449390411377,1.255050778388977,-7.792297840118408,-3.737104892730713,1.847267508506775,3.9036173820495605,0.31965938210487366,-0.48888757824897766,-0.1027037650346756,3.2027385234832764
180,42540,42537,-0.04173969477415085,0.02580360509455204,1.0375943183898926,3.512742280960083,-5.953540802001953,-4.069930553436279,1.8490065336227417,3.9045214653015137,0.31994789838790894,-0.45343899726867676,-0.1120409220457077,3.158226728439331
181,42550,42547,-0.00842282548546791,-0.09544077515602112,1.0151125192642212,7.286782741546631,-4.63604736328125,-4.422753810882568,1.847908854484558,3.90413761138916,0.3204328715801239,-0.23199886083602905,-0.00046921861940063536,3.1238839626312256
182,42560,42557,0.006519782822579145,-0.050932589918375015,0.9707368016242981,6.732480525970459,1.074107050895691,-4.5879693031311035,1.851389765739441,3.9046897888183594,0.31761065125465393,-0.37606215476989746,-0.007988110184669495,3.0576047897338867
183,42570,42567,-0.0027959158178418875,-0.004972327966243029,0.995460569858551,5.152897357940674,3.491105318069458,-5.4330644607543945,1.851360559463501,3.9040162563323975,0.31786802411079407,-0.3602607250213623,0.1169087290763855,3.0123708248138428
184,42580,42577,-0.03005009889602661,0.007259022444486618,0.9928905367851257,1.3318740129470825,10.992405891418457,-5.519913196563721,1.8529669046401978,3.9051830768585205,0.31799131631851196,-0.527557909488678,0.06506794691085815,2.946532964706421
185,42590,42587,0.058416854590177536,-0.04608505591750145,0.9861474633216858,-1.6853270530700684,9.880017280578613,-5.0791473388671875,1.852929711341858,3.9046576023101807,0.3154090344905853,-0.5621755719184875,0.10095129162073135,2.884516954421997
186,42600,42597,0.07875822484493256,-0.06637920439243317,0.9768202304840088,-5.061367988586426,10.823272705078125,-6.604808807373047,1.8538427352905273,3.9066224098205566,0.31540703773498535,-0.6729414463043213,-0.00038284886977635324,2.8239004611968994
187,42610,42607,-0.04292084276676178,0.09586132317781448,0.9802494049072266,-7.192834377288818,6.137478351593018,-6.613059043884277,1.8541436195373535,3.9073288440704346,0.315378874540329,-0.742017388343811,-0.14746135473251343,2.76228404045105
188,42620,42617,0.02325468510389328,-0.03314472734928131,0.9641039371490479,-6.417486190795898,1.6462477445602417,-5.918173313140869,1.8557393550872803,3.907965898513794,0.3168843686580658,-0.816108226776123,-0.22744736075401306,2.6682937145233154
189,42630,42627,-0.0024481110740453005,-0.00973462499678135,0.956743597984314,-1.7244935035705566,-5.742531776428223,-4.550728797912598,1.8568428754806519,3.906712293624878,0.3170206546783447,-0.7043664455413818,-0.18157072365283966,2.627128839492798
190,42640,42637,0.01150328665971756,-0.03244375064969063,0.9551569223403931,3.65663480758667,-11.300057411193848,-4.3175129890441895,1.8580135107040405,3.905344009399414,0.3170623481273651,-0.567058801651001,-0.13136528432369232,2.5509817600250244
191,42650,42647,0.006231281906366348,0.061756230890750885,1.0162720680236816,7.662301540374756,-13.174845695495605,-4.544482707977295,1.857491374015808,3.9052340984344482,0.31901445984840393,-0.37257492542266846,-0.008615621365606785,2.507924795150757
192,42660,42657,0.04466945305466652,0.053000178188085556,0.9994868636131287,8.041701316833496,-7.786342620849609,-5.015424728393555,1.8582258224487305,3.904963254928589,0.3190632164478302,-0.28677767515182495,0.07928894460201263,2.4612863063812256
193,42670,42667,0.045087721198797226,-0.014780796132981777,0.9764105081558228,5.3398637771606445,-3.486423969268799,-5.549922943115234,1.8586174249649048,3.905982732772827,0.31911057233810425,-0.20846405625343323,0.07374817132949829,2.4039413928985596
194,42680,42677,-0.046022314578294754,-0.013911447487771511,1.0410007238388062,3.735844612121582,-0.8468107581138611,-5.406426429748535,1.8598664999008179,3.907060384750366,0.31910941004753113,-0.2882489860057831,0.03041883558034897,2.34173846244812
195,42690,42687,-0.09249192476272583,0.022193368524312973,1.0269314050674438,1.087492823600769,6.169632434844971,-6.140782356262207,1.8606719970703125,3.90708327293396,0.3180601894855499,-0.357144296169281,0.10668923705816269,2.288684368133545
196,42700,42697,-0.06382279843091965,0.14772380888462067,0.990100622177124,-0.8438153266906738,11.664300918579102,-7.097512245178223,1.8620496988296509,3.909257173538208,0.31801730394363403,-0.5096191167831421,-0.006266153417527676,2.2137980461120605
197,42710,42707,-0.01765166036784649,0.12462765723466873,0.9759135246276855,-1.0375398397445679,10.81953239440918,-7.309761047363281,1.862831473350525,3.9098618030548096,0.3180793523788452,-0.6225869655609131,0.0267341285943985,2.168680429458618
198,42720,42717,-0.02878011018037796,0.021024594083428383,1.0105855464935303,-0.4007922112941742,4.8094706535339355,-8.029998779296875,1.8635414838790894,3.9103951454162598,0.31707659363746643,-0.7064450979232788,0.05815765634179115,2.1132500171661377
199,42730,42727,0.019945602864027023,-0.10051806271076202,1.0257890224456787,1.316931962966919,0.29333680868148804,-8.716742515563965,1.862606167793274,3.911170244216919,0.3170624077320099,-0.7068763375282288,0.09689147025346756,2.0333750247955322
200,42740,42737,0.015451238490641117,-0.12235856801271439,1.0460700988769531,2.870748281478882,-1.0245743989944458,-10.143798828125,1.8629415035247803,3.910855770111084,0.31710338592529297,-0.6480827331542969,0.16348320245742798,1.936679720878601
201,42750,42747,0.003655307227745652,-0.018274866044521332,1.0014334917068481,2.4826135635375977,-1.3418810367584229,-11.295912742614746,1.863276720046997,3.911738634109497,0.3170825242996216,-0.6174464821815491,0.15879420936107635,1.8288297653198242
202,42760,42757,0.03051828406751156,-0.06064922362565994,0.9796172976493835,2.1378841400146484,-4.649338722229004,-11.358694076538086,1.86268150806427,3.911919355392456,0.31718727946281433,-0.4947115480899811,0.16068875789642334,1.7076647281646729
203,42770,42767,-0.01839633285999298,0.008022146299481392,1.0216975212097168,1.3414825201034546,-4.998664855957031,-11.518534660339355,1.8646111488342285,3.9113268852233887,0.3171691298484802,-0.5831975936889648,0.2229803055524826,1.6000194549560547
204,42780,42777,-0.005660663358867168,-0.013473252765834332,1.0180718898773193,0.24018064141273499,-4.029356002807617,-11.158746719360352,1.8646516799926758,3.9116475582122803,0.3171687424182892,-0.5772997736930847,0.2661643326282501,1.4769307374954224
205,42790,42787,-0.005927002523094416,-0.014509689062833786,1.0110044479370117,-0.10932406783103943,-3.1031551361083984,-11.228485107421875,1.8661372661590576,3.9132637977600098,0.31678223609924316,-0.5876709818840027,0.14411818981170654,1.351212978363037
206,42800,42797,0.02015051245689392,-0.01521221548318863,0.9993241429328918,0.29784032702445984,-1.2597920894622803,-10.651692390441895,1.8657705783843994,3.9136390686035156,0.3169195353984833,-0.45626428723335266,0.18193018436431885,1.2484142780303955
207,42810,42807,0.0035222736187279224,0.06375614553689957,1.0301730632781982,0.2074737250804901,-3.8100481033325195,-10.251510620117188,1.8672847747802734,3.9142520427703857,0.3169100880622864,-0.48998647928237915,0.14382141828536987,1.1367251873016357
208,42820,42817,0.009255267679691315,0.011370563879609108,0.9962590932846069,1.4467902183532715,-4.571531772613525,-10.144997596740723,1.8678033351898193,3.915029287338257,0.3169676959514618,-0.488715261220932,0.11755146831274033,1.0178123712539673
209,42830,42827,-0.002625173656269908,-0.013299906626343727,1.029579520225525,2.7556138038635254,-5.827021598815918,-9.893065452575684,1.8690913915634155,3.9153943061828613,0.3169887363910675,-0.4705542325973511,0.11657163500785828,0.9139527082443237
210,42840,42837,0.011530943214893341,-0.04288795217871666,0.9884862303733826,5.293483734130859,-6.642794609069824,-9.426136016845703,1.8693293333053589,3.9160501956939697,0.3171396255493164,-0.35493338108062744,0.2192457616329193,0.8534107804298401
211,42850,42847,-0.002450740896165371,-0.04509371146559715,1.0487138032913208,5.773231506347656,-5.740977764129639,-9.28747844696045,1.870720624923706,3.917649030685425,0.3164418935775757,-0.31121277809143066,0.1960548758506775,0.7533130645751953
212,42860,42857,-0.017933065071702003,0.02123042568564415,1.0480186939239502,4.284833908081055,-5.168632507324219,-8.83085823059082,1.8714159727096558,3.917829990386963,0.3165550231933594,-0.20028632879257202,0.25069621205329895,0.649520993232727
213,42870,42867,-0.04476037994027138,0.010502906516194344,1.0404574871063232,4.2035393714904785,-3.0985426902770996,-7.372443675994873,1.8722021579742432,3.9179139137268066,0.31668320298194885,-0.16755977272987366,0.357583224773407,0.5705990195274353
214,42880,42877,-0.013385399244725704,-0.01757299154996872,1.0204391479492188,1.6118019819259644,-3.0035812854766846,-7.370826244354248,1.874001145362854,3.9185609817504883,0.3167823851108551,-0.19826997816562653,0.3732602894306183,0.49902427196502686
215,42890,42887,-0.06967003643512726,-0.07582987844944,1.0986076593399048,-1.0468522310256958,-2.106844186782837,-7.593883037567139,1.8740432262420654,3.918698310852051,0.3188357353210449,-0.09443634748458862,0.33334556221961975,0.44536375999450684
216,42900,42897,-0.0821552723646164,-0.241187185049057,1.10641348361969,-1.1517324447631836,-2.185199737548828,-8.164999961853027,1.874385952949524,3.92020320892334,0.3191593885421753,-0.14496763050556183,0.34884053468704224,0.3762293756008148
217,42910,42907,-0.07214867323637009,-0.222768172621727,1.0715715885162354,-0.5784622430801392,4.68990421295166,-8.803746223449707,1.8751380443572998,3.9204165935516357,0.3195774257183075,-0.16713152825832367,0.2928733825683594,0.2709350883960724
218,42920,42917,0.0011216019047424197,-0.014225956983864307,1.022886872291565,-0.9561797976493835,6.8655877113342285,-10.277984619140625,1.8765466213226318,3.9207441806793213,0.321107417345047,-0.24096757173538208,0.3195611238479614,0.16822904348373413
219,42930,42927,0.019342003390192986,0.052784260362386703,0.9743792414665222,0.24761229753494263,4.631852626800537,-11.618185043334961,1.877813696861267,3.9203362464904785,0.3217378854751587,-0.3166221082210541,0.3479321599006653,0.06586381047964096
220,42940,42937,-0.018883012235164642,0.07399452477693558,0.9819611310958862,4.245253562927246,-0.20685772597789764,-11.859068870544434,1.8787034749984741,3.921205520629883,0.322357714176178,-0.3382006883621216,0.2669607698917389,-0.06710084527730942
221,42950,42947,-0.011400994844734669,0.0053678229451179504,0.9950240850448608,8.491230010986328,-3.910705804824829,-12.928112983703613,1.8789736032485962,3.9209866523742676,0.324118047952652,-0.22086995840072632,0.4084185063838959,-0.18991152942180634
222,42960,42957,-0.004328819923102856,-0.011728310957551003,0.9935256838798523,13.114668846130371,-8.242379188537598,-13.304919242858887,1.8806779384613037,3.920982837677002,0.32474249601364136,-0.2765238285064697,0.545539379119873,-0.32778143882751465
223,42970,42967,-0.05560383200645447,-0.08326434344053268,1.058562994003296,14.803275108337402,-7.5784125328063965,-12.069799423217773,1.881112813949585,3.9211103916168213,0.32549506425857544,-0.14472247660160065,0.7390544414520264,-0.45374587178230286
224,42980,42977,-0.09456735849380493,-0.11272560060024261,1.0920324325561523,12.291977882385254,-3.624980926513672,-11.329322814941406,1.8810005187988281,3.922043561935425,0.32615289092063904,-0.04199879989027977,0.8427736759185791,-0.5619335174560547
225,42990,42987,-0.08558329939842224,0.010120486840605736,1.0816715955734253,7.355180740356445,2.334113836288452,-10.436524391174316,1.883387804031372,3.9215617179870605,0.3268120586872101,-0.24522653222084045,0.895056426525116,-0.6927987933158875
226,43000,42997,-0.0005044545396231115,0.0032337906304746866,0.9760468006134033,0.41053059697151184,5.895645618438721,-10.222566604614258,1.8839479684829712,3.9221091270446777,0.3277152180671692,-0.2197812795639038,0.9214855432510376,-0.789329469203949
227,43010,43007,-0.011557034216821194,-0.0333789698779583,0.9424427151679993,-4.264427185058594,6.6275787353515625,-10.818144798278809,1.8846092224121094,3.92216420173645,0.32865604758262634,-0.2330721914768219,0.9128021001815796,-0.8951948881149292
228,43020,43017,-0.00278868549503386,-0.026379741728305817,0.9527572989463806,-4.804958343505859,8.451642990112305,-11.390196800231934,1.8850940465927124,3.9224112033843994,0.32825934886932373,-0.2732645571231842,0.8486356735229492,-1.036176085472107
229,43030,43027,-0.04525122418999672,-0.04982395097613335,0.9745464324951172,-4.406789302825928,5.053326606750488,-11.528952598571777,1.8867422342300415,3.922978401184082,0.3290054202079773,-0.3697863221168518,0.7063227295875549,-1.1490223407745361
230,43040,43037,-0.020848743617534637,-0.011345623061060905,0.9493089914321899,3.0259945392608643,0.7779037356376648,-11.383220672607422,1.8881568908691406,3.9223134517669678,0.3295782506465912,-0.4863794445991516,0.7102295756340027,-1.2530322074890137
231,43050,43047,-0.03155014291405678,-0.04580345004796982,0.9389880895614624,11.211305618286133,-4.070237159729004,-11.415871620178223,1.8870455026626587,3.923361301422119,0.3277810513973236,-0.4398950934410095,0.854074239730835,-1.3460798263549805
232,43060,43057,-0.0030140066519379616,-0.14616747200489044,0.8772504329681396,15.184198379516602,-7.423719882965088,-11.251448631286621,1.886181354522705,3.921698570251465,0.3283226191997528,-0.3010736405849457,0.9639261960983276,-1.3602813482284546
233,43070,43067,0.009543493390083313,-0.17917314171791077,0.834209680557251,14.142050743103027,-8.630212783813477,-11.294368743896484,1.8868240118026733,3.9220945835113525,0.3286694586277008,-0.3155728280544281,1.0656734704971313,-1.4869251251220703
234,43080,43077,0.031201209872961044,-0.10712359100580215,0.866787314414978,8.547198295593262,-7.131693363189697,-10.13692569732666,1.8879477977752686,3.924006462097168,0.3251335024833679,-0.36167410016059875,1.1645439863204956,-1.5663539171218872
235,43090,43087,0.06544432044029236,-0.011508128605782986,0.9070349931716919,0.44240954518318176,-5.979334831237793,-9.920025825500488,1.8881868124008179,3.9235785007476807,0.3250310719013214,-0.17393968999385834,1.2604047060012817,-1.6879900693893433
236,43100,43097,0.11372967064380646,0.024620262905955315,0.9100545048713684,-5.984988212585449,-5.507718563079834,-9.331681251525879,1.887749433517456,3.923748016357422,0.32482561469078064,0.05442887544631958,1.305243968963623,-1.7708193063735962
237,43110,43107,0.06612689793109894,-0.013087294064462185,0.9052526950836182,-12.066115379333496,0.0967949852347374,-8.905640602111816,1.890486717224121,3.923621892929077,0.3243139386177063,-0.06161493435502052,1.138424277305603,-2.0010247230529785
238,43120,43117,0.017558986321091652,-0.03405182063579559,0.9126420617103577,-15.79435920715332,5.206443786621094,-9.30089282989502,1.8906251192092896,3.9246253967285156,0.32234910130500793,0.0023340058978646994,0.9128890037536621,-2.0752406120300293
239,43130,43127,0.005003492813557386,0.09717375785112381,0.9570377469062805,-12.35859489440918,6.193665027618408,-9.144927978515625,1.8917598724365234,3.9240775108337402,0.32166731357574463,-0.07632166892290115,0.8499443531036377,-2.167762279510498
