,timestamp_start,timestamp_end,acc.x,acc.y,acc.z,gyro.x,gyro.y,gyro.z,stateEstimate.x,stateEstimate.y,stateEstimate.z,stabilizer.pitch,stabilizer.roll,stabilizer.yaw
0,34032,34030,-0.16138792037963867,0.07767447829246521,1.1575777530670166,-2.0421810150146484,-13.627533912658691,-5.804625988006592,1.9099780321121216,3.9488754272460938,0.15438441932201385,0.2384607493877411,0.6075987219810486,3.7171120643615723
1,34042,34040,-0.002764697652310133,-0.055104997009038925,1.0831100940704346,0.23432894051074982,-8.559301376342773,-6.160345554351807,1.909564733505249,3.9493348598480225,0.15581980347633362,0.33384019136428833,0.6109005212783813,3.6535675525665283
2,34052,34050,0.04485294967889786,-0.13552844524383545,0.9450374245643616,3.4191489219665527,-8.274550437927246,-6.205879211425781,1.9141498804092407,3.953381299972534,0.15822897851467133,0.04806196689605713,0.655643105506897,3.5453968048095703
3,34062,34060,0.012314587831497192,-0.12311156839132309,0.9654516577720642,3.4154560565948486,-2.5588364601135254,-6.117199420928955,1.9153043031692505,3.953174114227295,0.16065168380737305,0.1763099730014801,0.8649473190307617,3.4936153888702393
4,34072,34070,0.06992440670728683,-0.1980053037405014,0.9962657690048218,0.31215813755989075,-4.361594200134277,-6.375575065612793,1.914770245552063,3.9524688720703125,0.16094250977039337,0.17274992167949677,0.8755635023117065,3.4290902614593506
5,34082,34080,0.06320299208164215,-0.02277345024049282,1.0058766603469849,-3.3864386081695557,-11.61514949798584,-6.622555255889893,1.9155606031417847,3.954228162765503,0.16322341561317444,0.2779572606086731,0.8287805318832397,3.370759963989258
6,34092,34090,-0.02259400486946106,0.13870678842067719,1.1129615306854248,-6.0621514320373535,-16.073745727539062,-7.04047966003418,1.9144434928894043,3.953695058822632,0.16562537848949432,0.6306030750274658,0.8730625510215759,3.3316774368286133
7,34102,34100,-0.032486043870449066,0.09080547839403152,1.1634083986282349,-9.461897850036621,-16.766834259033203,-6.755767345428467,1.9140815734863281,3.9537601470947266,0.16627486050128937,0.8355964422225952,0.6995925307273865,3.2686071395874023
8,34112,34110,-0.0203078705817461,0.06082101911306381,1.1273664236068726,-8.753955841064453,-15.219375610351562,-6.309001922607422,1.9155524969100952,3.9562511444091797,0.16872134804725647,0.9047918915748596,0.5215860605239868,3.1893486976623535
9,34122,34120,-0.02871396392583847,0.017423171550035477,1.0338153839111328,-7.898303985595703,-10.42778205871582,-5.724008083343506,1.9133880138397217,3.9542152881622314,0.17113865911960602,1.209963083267212,0.44653716683387756,3.1469171047210693
10,34132,34130,-0.0001275242248084396,-0.06424111872911453,0.9546008706092834,-5.396441459655762,-3.3258211612701416,-5.987046718597412,1.9157569408416748,3.958911418914795,0.1738520860671997,1.1517587900161743,0.1782410591840744,3.08780837059021
11,34142,34140,-0.04307830333709717,-0.10554616153240204,0.9982717633247375,-2.8869917392730713,1.910299301147461,-5.27908182144165,1.9162195920944214,3.9583168029785156,0.17569538950920105,1.025280237197876,0.12695074081420898,3.0134384632110596
12,34152,34150,0.07750558853149414,-0.2186385840177536,0.8797352910041809,0.1433599889278412,6.635067462921143,-5.656293869018555,1.9170085191726685,3.9593284130096436,0.17844004929065704,1.0284751653671265,0.34278976917266846,2.9359939098358154
13,34162,34160,-0.008009352721273899,-0.0671582892537117,0.9846096634864807,2.3984196186065674,2.06510329246521,-4.155543327331543,1.918655514717102,3.960986375808716,0.18087297677993774,1.0462254285812378,0.4140346944332123,2.8866236209869385
14,34172,34170,0.04571416601538658,-0.08889392018318176,0.9638305902481079,3.3622190952301025,3.8331167697906494,-5.4895148277282715,1.9176340103149414,3.95965313911438,0.182866171002388,1.0670183897018433,0.499377578496933,2.8393759727478027
15,34182,34180,0.10101141780614853,-0.21207833290100098,0.9134640693664551,0.02225736901164055,3.429994821548462,-4.928778171539307,1.9186726808547974,3.9628407955169678,0.1852167546749115,1.0885071754455566,0.49278751015663147,2.7967700958251953
16,34192,34190,0.06788302212953568,0.010397749952971935,1.0154582262039185,-3.6870408058166504,-1.474318265914917,-4.516566276550293,1.9186129570007324,3.9630963802337646,0.18770311772823334,0.8656051158905029,0.35677674412727356,2.7512755393981934
17,34202,34200,-0.011756780557334423,0.3923010230064392,1.0533040761947632,-6.964925289154053,-6.17566442489624,-4.415252685546875,1.9199178218841553,3.9663796424865723,0.19042348861694336,0.9626691937446594,0.25316283106803894,2.718249797821045
18,34212,34210,-0.03226655721664429,0.8806605339050293,1.0561305284500122,-9.034859657287598,-5.749854564666748,-4.14401388168335,1.9174106121063232,3.9681122303009033,0.19278250634670258,1.4622160196304321,0.10430506616830826,2.721466541290283
19,34222,34220,-0.035435907542705536,0.23382505774497986,1.0577629804611206,-6.440744400024414,-4.591414451599121,-2.67130970954895,1.9289923906326294,3.968573808670044,0.19986501336097717,-0.3082145154476166,-0.009014894254505634,2.572045087814331
20,34232,34230,-0.052325405180454254,0.06621189415454865,1.0385476350784302,-3.404472589492798,0.7133097648620605,-0.9140922427177429,1.9301570653915405,3.9690895080566406,0.20362530648708344,-0.16824643313884735,0.04141884669661522,2.5416760444641113
21,34242,34240,-0.05875043198466301,0.15312904119491577,0.9762817025184631,-1.2613741159439087,-3.055020332336426,0.41612064838409424,1.9300061464309692,3.9691433906555176,0.2055221050977707,0.04234097898006439,0.0534532256424427,2.540989398956299
22,34252,34250,-0.11176198720932007,0.2312818467617035,1.0945854187011719,1.7630236148834229,-17.548433303833008,0.9813472032546997,1.9311637878417969,3.969719886779785,0.20859430730342865,0.19565337896347046,-0.03754795715212822,2.557325601577759
23,34262,34260,-0.10764282196760178,-0.03712950274348259,0.9774307608604431,5.679056167602539,-24.315963745117188,0.22369076311588287,1.9298315048217773,3.9675941467285156,0.21285411715507507,0.7655493021011353,0.35984012484550476,2.552335023880005
24,34272,34270,0.0636548399925232,0.065731942653656,0.8061589002609253,6.776639461517334,-32.86017608642578,0.4108216166496277,1.929329752922058,3.968759775161743,0.2105485498905182,1.2451876401901245,0.4089365601539612,2.5592544078826904
25,34282,34280,-0.010649146512150764,0.20683710277080536,0.8938198685646057,5.420466899871826,-28.43199348449707,1.3355417251586914,1.9294583797454834,3.9719178676605225,0.2127063274383545,1.8647509813308716,0.5399217009544373,2.568390369415283
26,34292,34290,0.04030037298798561,-0.00934765674173832,0.8585349917411804,-0.5768712759017944,-20.913963317871094,2.464930772781372,1.9295673370361328,3.9724929332733154,0.2152104675769806,2.0827338695526123,0.5314493179321289,2.5903074741363525
27,34302,34300,0.09558776021003723,-0.1887495070695877,0.8232154250144958,-3.5503575801849365,-7.5633134841918945,2.190570116043091,1.9300612211227417,3.972585439682007,0.2159164398908615,2.264500379562378,0.4383072853088379,2.623507261276245
28,34312,34310,0.10524141043424606,0.00805128924548626,0.8417248129844666,-13.3494873046875,8.443029403686523,2.0927517414093018,1.9274486303329468,3.9729807376861572,0.2172781229019165,2.6431591510772705,0.30510902404785156,2.6727242469787598
29,34322,34320,-0.15859949588775635,0.8407298922538757,1.0445477962493896,-19.088573455810547,22.24074935913086,1.9662721157073975,1.928304672241211,3.9729344844818115,0.219314306974411,2.436924457550049,0.1254992038011551,2.695875883102417
30,34332,34330,-0.14514832198619843,0.6404778361320496,1.117220163345337,-19.14150047302246,31.157068252563477,2.6742563247680664,1.926288366317749,3.9710171222686768,0.22095079720020294,2.3064513206481934,0.2443111538887024,2.6499221324920654
31,34342,34340,0.044502321630716324,0.4238832890987396,0.9231671094894409,-16.74907875061035,33.60444641113281,4.206559658050537,1.9266496896743774,3.9715700149536133,0.21842379868030548,1.8268530368804932,-0.02699621208012104,2.697150945663452
32,34352,34350,0.04868779703974724,0.4166848957538605,1.0217918157577515,-14.543055534362793,24.404922485351562,5.009300231933594,1.9266124963760376,3.973372220993042,0.2202683687210083,1.5435494184494019,-0.29094478487968445,2.7759532928466797
33,34362,34360,0.0631454586982727,0.4356286823749542,0.9909636974334717,-12.420345306396484,24.34994888305664,3.2278196811676025,1.9265141487121582,3.973601818084717,0.22196753323078156,1.1850669384002686,-0.38927245140075684,2.802431583404541
34,34372,34370,0.04168719798326492,1.0262744426727295,0.9894357323646545,-8.383903503417969,14.368305206298828,2.414736270904541,1.925638198852539,3.9720778465270996,0.22160495817661285,0.9797967672348022,-0.4315008223056793,2.811687469482422
35,34382,34380,-0.03984193131327629,1.220921277999878,1.1098741292953491,-3.8324291706085205,4.849756240844727,2.4453330039978027,1.925167441368103,3.971101999282837,0.22300027310848236,0.8658846020698547,-0.39744827151298523,2.812361478805542
36,34392,34390,0.019101357087492943,0.8049982190132141,0.9972037672996521,0.1688019335269928,0.2964012324810028,2.990845203399658,1.9230668544769287,3.970384120941162,0.22456294298171997,0.8612570762634277,-0.44994214177131653,2.848691701889038
37,34402,34400,0.012442694045603275,0.3576587438583374,1.0752002000808716,1.5889548063278198,-3.303874969482422,3.2402608394622803,1.9232401847839355,3.970012903213501,0.22603225708007812,0.8068708777427673,-0.3808589279651642,2.865783452987671
38,34412,34410,0.01040952280163765,0.27650368213653564,1.0106277465820312,-0.3205108642578125,-3.4133946895599365,2.837841510772705,1.9220234155654907,3.970449924468994,0.2277381420135498,0.8983539342880249,-0.46393144130706787,2.910740375518799
39,34422,34420,-0.029144341126084328,0.1698138415813446,1.0690094232559204,-3.8058223724365234,2.2738215923309326,2.366513967514038,1.921675682067871,3.970546007156372,0.22945578396320343,0.8334358334541321,-0.5911281704902649,2.956650972366333
40,34432,34430,-0.0012532714754343033,0.07181279361248016,1.0743167400360107,-5.543168544769287,1.9599367380142212,3.284393548965454,1.9214993715286255,3.970381736755371,0.23109884560108185,0.7855654954910278,-0.584364652633667,2.9790916442871094
41,34442,34440,0.14357158541679382,-0.11675507575273514,0.8692734837532043,-7.91840124130249,9.801053047180176,2.9763965606689453,1.9215296506881714,3.9697463512420654,0.2328578233718872,0.5957949161529541,-0.7059392333030701,3.0228428840637207
42,34452,34450,0.1112128496170044,-0.02849271334707737,0.9212655425071716,-5.68173885345459,10.78587818145752,2.919170379638672,1.920811414718628,3.9715704917907715,0.23465310037136078,0.593828558921814,-0.8131332993507385,3.045732021331787
43,34462,34460,0.19050361216068268,-0.08732842653989792,0.9273838400840759,-4.668107986450195,7.293781280517578,2.9542999267578125,1.9196150302886963,3.9688243865966797,0.236353799700737,0.4289744198322296,-0.733132004737854,3.0710463523864746
44,34472,34470,0.11101575195789337,-0.020750535652041435,0.9085084199905396,-1.085455060005188,7.196117877960205,2.5743627548217773,1.9207066297531128,3.971750497817993,0.2376198023557663,0.36982762813568115,-0.7602124810218811,3.100318431854248
45,34482,34480,0.1182582825422287,-0.09921438992023468,0.8782793283462524,0.7000293135643005,7.94328498840332,2.6390390396118164,1.9198596477508545,3.9701192378997803,0.2391134798526764,0.2748963534832001,-0.6671169996261597,3.1204845905303955
46,34492,34490,-0.07846256345510483,-0.07384245842695236,0.9025148153305054,0.14233726263046265,3.060729742050171,2.5162007808685303,1.9196573495864868,3.9713056087493896,0.2405581772327423,0.1813848614692688,-0.7330194115638733,3.1564321517944336
47,34502,34500,0.021392427384853363,-0.0982370525598526,0.8534317016601562,1.0176182985305786,-2.060845375061035,1.797616958618164,1.9182789325714111,3.972672939300537,0.24231278896331787,0.5835201740264893,-0.6032541990280151,3.1486237049102783
48,34512,34510,0.0023555918596684933,-0.06252087652683258,0.9655354022979736,-2.087069272994995,2.562260627746582,1.5858129262924194,1.9165908098220825,3.9727907180786133,0.24355658888816833,0.6803715825080872,-0.6796237230300903,3.1679091453552246
49,34522,34520,0.10869201272726059,-0.254497766494751,0.7846667170524597,-4.134689807891846,4.202059745788574,2.2025020122528076,1.9173226356506348,3.9741101264953613,0.244892418384552,0.58011394739151,-0.7092745900154114,3.1921887397766113
50,34532,34530,-0.13207675516605377,-0.008418840356171131,0.9803711771965027,-7.275972843170166,7.520498275756836,1.289238452911377,1.9150761365890503,3.972975015640259,0.2437974214553833,0.7758293151855469,-0.7199231386184692,3.1868643760681152
51,34542,34540,-0.23565484583377838,0.34601375460624695,1.0332281589508057,-7.483299255371094,14.962179183959961,1.3552329540252686,1.9156008958816528,3.9726972579956055,0.2448837012052536,0.4851206839084625,-0.7746250629425049,3.2114169597625732
52,34552,34550,-0.1895221769809723,0.32922154664993286,0.9521288871765137,-6.383178234100342,18.390296936035156,-0.11233071982860565,1.9138705730438232,3.972338914871216,0.2456333041191101,0.4173617362976074,-0.9030093550682068,3.2074902057647705
53,34562,34560,-0.22065407037734985,0.1810591220855713,1.1604418754577637,-5.644941806793213,19.08759880065918,0.36684074997901917,1.9141672849655151,3.97145938873291,0.2467355728149414,-0.01727975718677044,-0.9147588610649109,3.2281181812286377
54,34572,34570,0.10387095808982849,0.6633029580116272,0.9734644889831543,-5.8024091720581055,16.902605056762695,-0.6143236756324768,1.912736177444458,3.971808910369873,0.24596773087978363,-0.1085560992360115,-1.0926344394683838,3.2163584232330322
55,34582,34580,-0.03700089082121849,0.8114448189735413,1.1298573017120361,-2.639178514480591,11.17952823638916,-0.30805012583732605,1.911344289779663,3.9716498851776123,0.24676640331745148,-0.2501639723777771,-1.2184091806411743,3.2093958854675293
56,34592,34590,-0.031411029398441315,0.3231755793094635,1.1361027956008911,0.7349898219108582,7.364886283874512,0.16805632412433624,1.9104712009429932,3.9721550941467285,0.24753762781620026,-0.3346463739871979,-1.199863314628601,3.203947067260742
57,34602,34600,-0.035491663962602615,0.0481577143073082,1.0755846500396729,3.451364278793335,3.81646466255188,0.046605050563812256,1.9103244543075562,3.9713172912597656,0.2496219426393509,-0.435557097196579,-1.1388086080551147,3.211505651473999
58,34612,34610,-0.060752980411052704,0.06157728657126427,1.1044151782989502,6.947799205780029,-2.564201831817627,-0.6464905738830566,1.908988118171692,3.971425771713257,0.2506432831287384,-0.3271995782852173,-1.090523362159729,3.196889638900757
59,34622,34620,-0.09216096252202988,0.15601280331611633,1.0100206136703491,6.201346397399902,-0.7574602961540222,-0.8551729917526245,1.9098459482192993,3.972407579421997,0.25182488560676575,-0.4585476517677307,-1.0160939693450928,3.208538293838501
60,34632,34630,-0.19754774868488312,0.2736775577068329,1.1034529209136963,6.63050651550293,-7.742011070251465,-1.1643646955490112,1.9090417623519897,3.970947504043579,0.2529861629009247,-0.487596720457077,-0.9481884837150574,3.2033371925354004
61,34642,34640,-0.21258077025413513,0.1536162942647934,1.112076997756958,3.4070541858673096,-0.8640004396438599,-2.861790180206299,1.9078881740570068,3.9724371433258057,0.25433090329170227,-0.4385503828525543,-0.9718321561813354,3.1801180839538574
62,34652,34650,-0.20394191145896912,0.47297966480255127,1.1044604778289795,1.4095251560211182,4.975578784942627,-2.599088668823242,1.9097269773483276,3.97601580619812,0.2556740939617157,-0.5663638710975647,-0.9699881672859192,3.170687198638916
63,34662,34660,-0.07931913435459137,0.19564786553382874,1.0297729969024658,1.0511356592178345,4.44620943069458,-1.7921173572540283,1.9084621667861938,3.975788116455078,0.25964343547821045,-0.5463303327560425,-0.9714899659156799,3.1350879669189453
64,34672,34670,-0.10055532306432724,0.12204117327928543,1.0584310293197632,-0.9906697869300842,6.507150173187256,-2.325986862182617,1.9077258110046387,3.9757163524627686,0.26127681136131287,-0.49229270219802856,-0.920690655708313,3.102804660797119
65,34682,34680,-0.04383701831102371,0.06949067115783691,1.0843127965927124,-0.7023811340332031,4.089417457580566,-2.3573882579803467,1.9071130752563477,3.9756860733032227,0.2630073130130768,-0.6399056911468506,-0.954644501209259,3.0901780128479004
66,34692,34690,0.05968225747346878,0.030747251585125923,1.010388731956482,2.569570302963257,9.346656799316406,-3.660875082015991,1.9065742492675781,3.973395824432373,0.2647731900215149,-0.780673623085022,-0.7931303381919861,3.0877745151519775
67,34702,34700,-0.04340830072760582,0.16324973106384277,1.0364545583724976,3.4848132133483887,-0.7340313196182251,-3.6608169078826904,1.904518961906433,3.9737637042999268,0.2664073705673218,-0.60271155834198,-0.9311536550521851,3.0065982341766357
68,34712,34710,-0.29165077209472656,0.6314564943313599,1.1036288738250732,5.853116035461426,0.11234039813280106,-4.3842597007751465,1.9032366275787354,3.9733095169067383,0.26818811893463135,-0.6005998253822327,-0.8606590032577515,2.9671359062194824
69,34722,34720,-0.2456730306148529,0.33670926094055176,0.9902807474136353,7.222099304199219,-2.9549002647399902,-3.6738953590393066,1.9026463031768799,3.972754955291748,0.2699800431728363,-0.5528058409690857,-0.7708643674850464,2.9235267639160156
70,34732,34730,-0.1703810691833496,0.21412833034992218,1.0935912132263184,8.960090637207031,2.510512113571167,-4.020884990692139,1.9018348455429077,3.972460985183716,0.2699085772037506,-0.6190082430839539,-0.7182912826538086,2.89017915725708
71,34742,34740,-0.03796922788023949,0.11447068303823471,0.9632670879364014,7.846807479858398,8.873763084411621,-4.564286231994629,1.9019438028335571,3.972039222717285,0.27172473073005676,-0.8001006841659546,-0.6018350124359131,2.864436149597168
72,34752,34750,0.06042269989848137,-0.0001311037049163133,0.9039474725723267,5.471710681915283,10.456795692443848,-4.174073219299316,1.9015445709228516,3.972536563873291,0.2735759913921356,-1.0273196697235107,-0.5887120962142944,2.822124481201172
73,34762,34760,0.10531895607709885,0.43571043014526367,1.0023754835128784,2.1233530044555664,12.881775856018066,-4.207484245300293,1.901790976524353,3.9734675884246826,0.2731797397136688,-1.222888469696045,-0.6697710752487183,2.7691810131073
74,34772,34770,-0.25951603055000305,0.6428144574165344,0.9738273620605469,0.49417027831077576,2.17034912109375,-3.6105539798736572,1.9018235206604004,3.974886655807495,0.2747631371021271,-1.2439428567886353,-0.6230171918869019,2.7331645488739014
75,34782,34780,-0.07839207351207733,0.38256898522377014,0.9747619032859802,0.9093307256698608,-2.4091832637786865,-4.125865459442139,1.9010876417160034,3.9745259284973145,0.2763430178165436,-1.2141990661621094,-0.5751500129699707,2.699435234069824
76,34792,34790,0.19440653920173645,-0.16717882454395294,0.8111546039581299,3.7330615520477295,-6.040628910064697,-4.0015130043029785,1.899896502494812,3.9755868911743164,0.2779384255409241,-1.0433878898620605,-0.5116595029830933,2.656635284423828
77,34802,34800,0.14315637946128845,-0.2710002660751343,0.8102822303771973,6.265917778015137,-10.317947387695312,-3.987621784210205,1.8995356559753418,3.975808620452881,0.27925199270248413,-0.8879821300506592,-0.41608768701553345,2.6235978603363037
78,34812,34810,0.014451585710048676,-0.2043670117855072,0.9280431270599365,7.059604167938232,-14.513213157653809,-3.588291883468628,1.8979802131652832,3.976047992706299,0.2805200517177582,-0.7083011269569397,-0.30822426080703735,2.585326910018921
79,34822,34820,-0.1283787488937378,0.0033321406226605177,1.0540920495986938,7.506492614746094,-11.878046035766602,-3.477058172225952,1.8979822397232056,3.9776830673217773,0.2816554307937622,-0.6303524971008301,-0.27344921231269836,2.542206048965454
80,34832,34830,-0.2199050337076187,0.21744276583194733,1.1034128665924072,3.526165246963501,-1.903755784034729,-4.032562732696533,1.8979260921478271,3.9763834476470947,0.28115314245224,-0.7470824122428894,-0.19737054407596588,2.5168333053588867
81,34842,34840,-0.15325811505317688,0.26521578431129456,0.9419984221458435,0.8976532816886902,3.737457513809204,-4.600015640258789,1.8983807563781738,3.976740598678589,0.2821640968322754,-0.8251317739486694,-0.2607137858867645,2.4639151096343994
82,34852,34850,-0.055937688797712326,0.28993678092956543,0.9826928973197937,-4.296475887298584,8.365360260009766,-4.477498531341553,1.8982638120651245,3.9768457412719727,0.28317636251449585,-0.8616809248924255,-0.26657000184059143,2.4117393493652344
83,34862,34861,-0.09968087822198868,0.34748679399490356,1.061266541481018,0.6382232308387756,-3.960767984390259,-2.1828272342681885,1.8990463018417358,3.976926326751709,0.28014540672302246,-0.9125224947929382,-0.25998634099960327,2.4144105911254883
84,34872,34870,-0.039369355887174606,0.032131489366292953,0.9518154263496399,-2.8866398334503174,-2.0520427227020264,-3.5743324756622314,1.8992124795913696,3.9773435592651367,0.2809741497039795,-0.8623111248016357,-0.28271961212158203,2.380192518234253
85,34882,34880,0.0063412003219127655,0.04468504711985588,0.8808529376983643,0.41780170798301697,-5.306922912597656,-2.242677688598633,1.8989499807357788,3.9768781661987305,0.2817847430706024,-0.8412104845046997,-0.2789153754711151,2.356213331222534
86,34892,34890,0.11133430898189545,-0.037568721920251846,0.8617923855781555,3.4303085803985596,-7.191489219665527,-1.1852233409881592,1.900355577468872,3.977705478668213,0.2824519872665405,-0.9332901239395142,-0.247979074716568,2.3396337032318115
87,34902,34900,0.1052846685051918,-0.2225913405418396,0.7671718001365662,5.284933090209961,-12.30978012084961,-1.2061153650283813,1.89992094039917,3.978736162185669,0.2798101305961609,-0.7174587249755859,-0.25451353192329407,2.321390390396118
88,34912,34910,-0.02668754570186138,-0.1562615931034088,0.9014531970024109,8.200983047485352,-20.171499252319336,-0.3915649950504303,1.8978359699249268,3.979173183441162,0.2801055610179901,-0.44434043765068054,-0.14499856531620026,2.316410541534424
89,34922,34920,0.16738177835941315,-0.2675073742866516,0.7944168448448181,6.374263763427734,-15.438212394714355,-1.2123355865478516,1.8983994722366333,3.9788734912872314,0.28023087978363037,-0.3135412931442261,-0.036373794078826904,2.3150689601898193
90,34932,34930,0.07884567975997925,0.19953182339668274,0.8313103914260864,5.5814104080200195,-11.594924926757812,0.03403031826019287,1.8972623348236084,3.9789204597473145,0.2779981791973114,-0.07591481506824493,0.046541012823581696,2.3080787658691406
91,34942,34940,0.051222946494817734,-0.013316902332007885,0.8914925456047058,1.0850602388381958,-4.873113632202148,-0.05487743020057678,1.8979347944259644,3.980313539505005,0.2777373492717743,-0.07108011096715927,-0.06532493233680725,2.2819089889526367
92,34952,34950,-0.050580766052007675,0.12347767502069473,1.057612419128418,-0.14268487691879272,6.136286735534668,0.7794792652130127,1.899485468864441,3.9808380603790283,0.2772715985774994,-0.16008761525154114,-0.03992832824587822,2.2786223888397217
93,34962,34960,-0.13637523353099823,0.4606996476650238,1.0553748607635498,-3.7567696571350098,20.511577606201172,0.178878054022789,1.8995792865753174,3.982257843017578,0.273712694644928,-0.23446376621723175,-0.1257476657629013,2.278198003768921
94,34972,34970,-0.0736202597618103,0.578705906867981,1.0803593397140503,-0.29079118371009827,11.48461627960205,1.4023122787475586,1.9003199338912964,3.9847493171691895,0.27303293347358704,-0.34527909755706787,-0.14601759612560272,2.282594919204712
95,34982,34980,-0.027290718629956245,0.22555486857891083,1.0211244821548462,2.46478271484375,15.287287712097168,2.146103858947754,1.8981482982635498,3.9844329357147217,0.2725224196910858,-0.33946436643600464,-0.13152439892292023,2.296328067779541
96,34992,34990,-0.012567233294248581,-0.07671193033456802,0.9986516833305359,4.462847709655762,15.766595840454102,1.6658447980880737,1.8982969522476196,3.985671043395996,0.2699420154094696,-0.5263871550559998,-0.07059763371944427,2.3137307167053223
97,35002,35000,-0.00628388486802578,-0.18324492871761322,0.9759376049041748,6.605165481567383,8.865705490112305,1.8799432516098022,1.8986400365829468,3.9856226444244385,0.2692137360572815,-0.7326722145080566,0.022101685404777527,2.333599090576172
98,35012,35010,0.05943705141544342,-0.09767547994852066,0.9938096404075623,5.22114372253418,8.872557640075684,1.0015774965286255,1.898543119430542,3.985471248626709,0.26846611499786377,-0.8653724193572998,-0.031611859798431396,2.337050676345825
99,35022,35020,0.036170780658721924,-0.017613491043448448,1.0335829257965088,2.900449514389038,5.593924522399902,2.111243724822998,1.8988841772079468,3.9864799976348877,0.2677164375782013,-0.9501461982727051,0.07333871722221375,2.358942985534668
100,35032,35030,0.006966227665543556,0.08238513767719269,1.0623201131820679,1.803723931312561,-1.2559309005737305,2.444143056869507,1.897430419921875,3.9857234954833984,0.2677622437477112,-0.8941689133644104,0.14101509749889374,2.385383129119873
101,35042,35040,0.0745646059513092,0.2330373376607895,1.0747445821762085,-1.8885561227798462,-5.448348045349121,2.1513233184814453,1.8989986181259155,3.9893407821655273,0.2670823037624359,-0.9319267272949219,0.08732352405786514,2.4004623889923096
102,35052,35050,-0.018935270607471466,0.10956215858459473,1.1344796419143677,-3.422919988632202,-5.3073625564575195,3.2806637287139893,1.8977516889572144,3.989765167236328,0.26657527685165405,-0.8184457421302795,-0.005894432310014963,2.4163575172424316
103,35062,35060,-0.04600688815116882,-0.08734894543886185,1.1340906620025635,-2.1393771171569824,1.4219053983688354,3.2732248306274414,1.8985153436660767,3.989412307739258,0.2663934528827667,-0.9045249819755554,-0.02849867008626461,2.43955135345459
104,35072,35070,-0.04506684094667435,-0.11063645780086517,1.0874477624893188,0.9737755060195923,7.020471572875977,3.1710939407348633,1.8985391855239868,3.9904205799102783,0.26604804396629333,-0.904555082321167,-0.10028564929962158,2.4645512104034424
105,35082,35080,0.016685353592038155,-0.026849323883652687,1.1308575868606567,1.279821515083313,11.148658752441406,2.5739855766296387,1.8982856273651123,3.9899559020996094,0.2658514678478241,-0.9947139024734497,-0.05754142627120018,2.4995460510253906
106,35092,35090,0.0131206214427948,-0.03220083937048912,1.0859475135803223,3.866833209991455,10.326929092407227,2.444026470184326,1.899277687072754,3.9923362731933594,0.2661544680595398,-1.1253221035003662,-0.06919492781162262,2.5225558280944824
107,35102,35100,0.029309812933206558,0.08471328020095825,1.088242530822754,6.189952373504639,2.46032452583313,4.482689380645752,1.8998527526855469,3.99172306060791,0.2661302983760834,-1.2730402946472168,0.03741743788123131,2.5590171813964844
108,35112,35110,-0.0601385161280632,0.3713834583759308,1.1814137697219849,6.879201889038086,-0.12904036045074463,2.7743282318115234,1.9002935886383057,3.9944496154785156,0.2663488984107971,-1.264867901802063,0.013250799849629402,2.588599443435669
109,35122,35120,0.00305828801356256,0.08933455497026443,1.1114624738693237,6.222714900970459,-3.9212729930877686,2.7458178997039795,1.8999699354171753,3.99434232711792,0.26670482754707336,-1.1849936246871948,0.0845722034573555,2.6272695064544678
110,35132,35130,0.10052977502346039,-0.12881265580654144,0.9876051545143127,5.921164512634277,0.09131301939487457,1.3219799995422363,1.9006353616714478,3.9930903911590576,0.2660616636276245,-1.3358724117279053,0.2249341756105423,2.6553640365600586
111,35142,35140,0.07222021371126175,-0.121870256960392,0.972027063369751,3.884868860244751,-3.279322862625122,1.5010573863983154,1.9004395008087158,3.9934542179107666,0.266554594039917,-1.214388132095337,0.3404393196105957,2.686652898788452
112,35152,35150,0.002167502185329795,-0.020009074360132217,1.0543042421340942,-0.35494476556777954,0.5196728110313416,1.119159460067749,1.9001595973968506,3.993100881576538,0.2669270932674408,-1.1957610845565796,0.40497714281082153,2.707387924194336
113,35162,35160,0.01019776426255703,0.05324099585413933,1.1311601400375366,-3.239668607711792,-1.348992943763733,1.445692539215088,1.9007142782211304,3.9935715198516846,0.2710411250591278,-1.1886409521102905,0.33835580945014954,2.709115743637085
114,35172,35170,-0.03749589994549751,0.12009840458631516,1.1527087688446045,-4.70343017578125,1.3499352931976318,2.0538249015808105,1.9014136791229248,3.9949488639831543,0.2717362344264984,-1.206656813621521,0.31036654114723206,2.7220444679260254
115,35182,35180,-0.07577645778656006,0.38074010610580444,1.1396173238754272,-4.626308441162109,-7.660171031951904,2.0381133556365967,1.901473045349121,3.9939637184143066,0.2726099491119385,-1.262814998626709,0.413102924823761,2.762050151824951
116,35192,35190,-0.10108393430709839,0.2448810338973999,1.133527159690857,-4.207065582275391,-6.857583522796631,0.5630403161048889,1.902018666267395,3.9956581592559814,0.27614933252334595,-1.1881181001663208,0.19414807856082916,2.752636432647705
117,35202,35200,-0.0030965430196374655,0.1732461303472519,1.0597379207611084,-2.6563539505004883,-0.12071090936660767,0.5196343064308167,1.9017308950424194,3.9963595867156982,0.2774898409843445,-1.1521967649459839,0.15288901329040527,2.75957989692688
118,35212,35210,-0.07359835505485535,0.12626637518405914,1.0986024141311646,1.0114119052886963,-0.957810640335083,0.8814616203308105,1.9018330574035645,3.9955148696899414,0.2790386378765106,-1.047719955444336,0.37308233976364136,2.8139326572418213
119,35222,35220,0.011074882000684738,-0.18974310159683228,0.9526576995849609,2.3752121925354004,-1.3877938985824585,1.6333345174789429,1.9035828113555908,3.995389938354492,0.2804237902164459,-1.1715861558914185,0.3726061284542084,2.8118109703063965
120,35232,35230,0.11515264213085175,-0.20901711285114288,0.8842681646347046,4.181220054626465,-2.166002035140991,-0.3920072019100189,1.9048806428909302,3.994800329208374,0.28098610043525696,-1.1947802305221558,0.48183417320251465,2.8339381217956543
121,35242,35240,0.030802663415670395,-0.0909532830119133,0.9267177581787109,-1.0806688070297241,-2.0634114742279053,-1.2776305675506592,1.905112862586975,3.996903896331787,0.2823663353919983,-1.1370717287063599,0.4843428134918213,2.8321328163146973
122,35252,35250,0.06679125130176544,-0.07848051935434341,1.0094127655029297,-2.700134515762329,-7.134077548980713,-0.615382969379425,1.9055908918380737,3.997143268585205,0.2837342619895935,-1.1307743787765503,0.4493894875049591,2.8128485679626465
123,35262,35260,0.17651145160198212,-0.22042903304100037,0.8321378827095032,-6.048264980316162,-5.340798854827881,-1.3879601955413818,1.9054962396621704,3.997788190841675,0.2861734926700592,-0.944048285484314,0.35880014300346375,2.807600975036621
124,35272,35270,0.02839263156056404,-0.38896045088768005,0.7603383660316467,-7.997313499450684,-8.259073257446289,-1.2337030172348022,1.9056384563446045,3.997954845428467,0.2876233756542206,-0.8269192576408386,0.2883740961551666,2.799877643585205
125,35282,35280,-0.13464683294296265,-0.061396658420562744,0.9113473296165466,-9.039398193359375,-6.715832710266113,-3.002268075942993,1.9064600467681885,3.9985883235931396,0.28871971368789673,-1.0967400074005127,0.2681448757648468,2.7651453018188477
126,35292,35290,-0.1410776972770691,0.5825052261352539,0.9755582809448242,-3.8603875637054443,-4.904589653015137,-2.1149096488952637,1.9107348918914795,3.9987967014312744,0.2886612117290497,-1.0536067485809326,0.10930053144693375,2.7259175777435303
127,35302,35300,-0.0029721043538302183,0.8151557445526123,0.9069538116455078,-0.9398026466369629,-6.056084156036377,-1.1168205738067627,1.9104139804840088,3.9993410110473633,0.28968146443367004,-0.8637833595275879,0.027285819873213768,2.7103524208068848
128,35312,35310,0.05441347882151604,0.519251823425293,0.9160033464431763,1.0925451517105103,-11.592413902282715,-1.0063587427139282,1.9117130041122437,4.00112771987915,0.2903505265712738,-0.8684430122375488,-0.006259960122406483,2.6877214908599854
129,35322,35320,0.019353363662958145,0.11435277760028839,0.9719585180282593,1.4077181816101074,-8.502849578857422,-1.8624472618103027,1.9133787155151367,4.002391815185547,0.2910305857658386,-0.7055312395095825,0.06308038532733917,2.68635630607605
130,35332,35330,-0.053431008011102676,-0.037621885538101196,1.0145388841629028,2.6423234939575195,-9.676125526428223,-1.9721125364303589,1.912793755531311,4.003328800201416,0.2905638515949249,-0.6422560811042786,0.06922919303178787,2.6660397052764893
131,35342,35340,-0.057539571076631546,0.06221295893192291,1.0116041898727417,0.8676403760910034,-11.537419319152832,-2.343449592590332,1.914425253868103,4.005465984344482,0.2911035418510437,-0.4076305627822876,-0.0049714213237166405,2.6501598358154297
132,35352,35350,-0.18798455595970154,0.789931058883667,1.0037288665771484,0.067223459482193,-6.215970993041992,-3.1987035274505615,1.9130915403366089,4.006480693817139,0.2917630672454834,-0.3674490749835968,0.07570310682058334,2.6255321502685547
133,35362,35360,-0.19932235777378082,1.1306390762329102,1.0528945922851562,-0.3844331204891205,-7.757059097290039,-4.320617198944092,1.9144532680511475,4.008346080780029,0.2973126769065857,-0.4211656451225281,0.14116041362285614,2.5923449993133545
134,35372,35370,-0.12239225208759308,0.5291625261306763,1.0317331552505493,-3.0904932022094727,-2.2894694805145264,-3.8444416522979736,1.9172170162200928,4.008534908294678,0.29809126257896423,-0.4748368561267853,0.031118089333176613,2.5378921031951904
135,35382,35380,0.03756801411509514,0.06004992127418518,0.9396234750747681,-6.085350513458252,-0.9105170965194702,-3.671649932861328,1.9180431365966797,4.009164810180664,0.2990003824234009,-0.41282281279563904,-0.04779551550745964,2.4987266063690186
136,35392,35390,-0.10689004510641098,0.47267335653305054,1.031494140625,-6.207976341247559,3.522430181503296,-2.9173896312713623,1.9186955690383911,4.010572910308838,0.30138537287712097,-0.47326692938804626,-0.2253721058368683,2.461103916168213
137,35402,35400,-0.032420508563518524,0.5513696074485779,0.9908955693244934,-3.851729154586792,-2.0080442428588867,-2.1905744075775146,1.9196871519088745,4.012950420379639,0.302284836769104,-0.3579491674900055,-0.29706791043281555,2.437511444091797
138,35412,35410,-0.05945528671145439,0.46120548248291016,1.1300214529037476,1.2704577445983887,-4.757192611694336,-1.9767624139785767,1.919974446296692,4.0157928466796875,0.3034397065639496,-0.3455028235912323,-0.31007763743400574,2.4347422122955322
139,35422,35420,-0.017286259680986404,0.37014490365982056,1.0869594812393188,2.2967352867126465,-0.7309894561767578,-2.7633206844329834,1.9210617542266846,4.016320705413818,0.30810654163360596,-0.3599054217338562,-0.2754775881767273,2.4210596084594727
140,35432,35430,-0.1547175943851471,0.7765231728553772,1.135902762413025,5.432276248931885,-6.00129508972168,-2.518002986907959,1.9231023788452148,4.019078731536865,0.3095400035381317,-0.46425336599349976,-0.27029165625572205,2.3906075954437256
141,35442,35440,-0.1657823622226715,0.9798827767372131,1.2531119585037231,6.706546306610107,-4.447237491607666,-2.066554546356201,1.9263666868209839,4.020423412322998,0.311026006937027,-0.35931017994880676,-0.12854355573654175,2.383204460144043
142,35452,35450,-0.17065349221229553,0.653128445148468,1.0932878255844116,5.420473098754883,-0.26075848937034607,-4.334441661834717,1.9275832176208496,4.0219221115112305,0.31293147802352905,-0.306135356426239,-0.061645615845918655,2.360059976577759
143,35462,35460,-0.09393345564603806,0.3360653817653656,1.0066485404968262,5.926457405090332,-5.694003105163574,-2.3484461307525635,1.92697274684906,4.0236310958862305,0.3160873353481293,-0.038504574447870255,-0.06182866916060448,2.334411382675171
144,35472,35470,0.015543414279818535,0.16528518497943878,0.9906308650970459,2.1969668865203857,-7.062282562255859,-1.570104956626892,1.9286668300628662,4.024267196655273,0.31806230545043945,-0.033315569162368774,-0.0322873592376709,2.310905933380127
145,35482,35480,0.10434514284133911,0.0444209948182106,0.9062410593032837,0.4973558783531189,-3.7111656665802,-1.559395670890808,1.9285860061645508,4.02543306350708,0.32009074091911316,0.07714003324508667,0.0062685864977538586,2.3024098873138428
146,35492,35490,0.007831239141523838,0.060999441891908646,1.0093801021575928,-1.6807554960250854,2.7378809452056885,-2.273481607437134,1.9298577308654785,4.026560306549072,0.3206062614917755,0.1857510656118393,0.018126964569091797,2.2949862480163574
147,35502,35500,-0.09863437712192535,0.4889560639858246,0.958841860294342,-6.766961097717285,11.881837844848633,-3.2711668014526367,1.932495355606079,4.027751445770264,0.3222882151603699,-0.12251570075750351,0.06525389105081558,2.269582509994507
148,35512,35510,-0.41867437958717346,0.7562346458435059,1.1259716749191284,-2.4736900329589844,4.2153143882751465,-2.0732760429382324,1.933814525604248,4.028679370880127,0.32400164008140564,-0.10199540108442307,0.01080771442502737,2.24847674369812
149,35522,35520,-0.23177441954612732,0.32757869362831116,0.9758826494216919,-2.7453856468200684,12.347147941589355,-0.8555648922920227,1.9338552951812744,4.028707027435303,0.32208991050720215,-0.11946984380483627,-0.014729593880474567,2.237210750579834
150,35532,35530,-0.08288811892271042,0.11343533545732498,0.8772521018981934,0.121623195707798,8.005102157592773,-0.6080702543258667,1.9347344636917114,4.030076503753662,0.32372432947158813,-0.23517350852489471,-0.013143233023583889,2.2373507022857666
151,35542,35540,0.0553504079580307,0.10935308784246445,0.8431843519210815,5.4429473876953125,0.918664813041687,-0.991967499256134,1.936058759689331,4.03032112121582,0.3251841068267822,-0.26497769355773926,-0.040190163999795914,2.2359137535095215
152,35552,35550,0.11338897794485092,0.2260349541902542,0.8512940406799316,7.6070637702941895,-10.831053733825684,-0.3205485939979553,1.9360027313232422,4.030581951141357,0.3265813887119293,-0.3216073215007782,0.13982956111431122,2.2223451137542725
153,35562,35560,-0.09061117470264435,0.19376148283481598,0.9166174530982971,4.1458563804626465,-16.42827606201172,-1.0247820615768433,1.9360824823379517,4.0291523933410645,0.32800018787384033,-0.06636585295200348,0.20854197442531586,2.218625545501709
154,35572,35570,-0.16691641509532928,0.4597417116165161,0.940299928188324,-0.9083147644996643,-11.257135391235352,-1.561265230178833,1.937041997909546,4.029057025909424,0.32895708084106445,0.20678390562534332,0.15738031268119812,2.212846517562866
155,35582,35580,-0.482530802488327,0.5274008512496948,1.1341127157211304,2.896247386932373,-10.391949653625488,-1.604939579963684,1.936184048652649,4.030620098114014,0.32997798919677734,0.12316238880157471,0.19185088574886322,2.2009212970733643
156,35592,35590,-0.3065490126609802,0.5635330080986023,1.042030930519104,0.15071068704128265,-4.524695873260498,-0.7357911467552185,1.9404866695404053,4.031961917877197,0.3263895809650421,0.2776927053928375,0.1222345158457756,2.209580183029175
157,35602,35600,-0.09918992221355438,0.3932303786277771,0.9447986483573914,4.174283504486084,-6.084974765777588,-1.3802289962768555,1.9404367208480835,4.0336151123046875,0.32712695002555847,0.2801162898540497,0.15895508229732513,2.1956584453582764
158,35612,35610,0.04926621541380882,0.19560696184635162,0.9095324873924255,-0.08825366199016571,5.191102504730225,-2.834782600402832,1.9419108629226685,4.0342278480529785,0.3277590274810791,0.1996377408504486,0.19456304609775543,2.177356481552124
159,35622,35620,-0.08046890050172806,0.11568581312894821,0.9261921048164368,1.4777966737747192,9.31855583190918,-2.8498451709747314,1.9440476894378662,4.034649848937988,0.32218170166015625,0.19192874431610107,0.13637270033359528,2.1540982723236084
160,35632,35630,-0.21217699348926544,0.5086050033569336,0.9610869288444519,-2.8266704082489014,14.880132675170898,-3.023164749145508,1.9454108476638794,4.037044525146484,0.3223856985569,0.11222574859857559,0.13097834587097168,2.144615411758423
161,35642,35640,0.030647259205579758,0.61382657289505,0.9014695882797241,2.116389274597168,6.071710109710693,-3.13669490814209,1.947068691253662,4.038208484649658,0.3225177824497223,-0.026896469295024872,0.1417457014322281,2.126439332962036
162,35652,35650,0.2274523824453354,0.33663395047187805,0.8613089919090271,0.51332026720047,-2.635906934738159,-3.580334424972534,1.9478799104690552,4.038634777069092,0.321345716714859,-0.033416420221328735,0.17032258212566376,2.094273567199707
163,35662,35660,-0.043062012642621994,0.2583816647529602,1.010301113128662,3.9470129013061523,-13.454678535461426,-2.3327765464782715,1.9491240978240967,4.039979934692383,0.32127323746681213,0.19102804362773895,0.21413974463939667,2.0791549682617188
164,35672,35670,-0.0511598102748394,0.01649252325296402,1.0561579465866089,-0.9274393320083618,-2.958284616470337,-3.1731810569763184,1.9475411176681519,4.039361000061035,0.3212432861328125,0.15682093799114227,0.23483774065971375,2.0494303703308105
165,35682,35680,-0.048483915627002716,-0.08696135878562927,0.9055426716804504,-1.9570040702819824,-2.1586251258850098,-3.3162548542022705,1.9498432874679565,4.039268493652344,0.3209952116012573,0.22073927521705627,0.2213669866323471,2.0191385746002197
166,35692,35690,-0.1432538479566574,0.15500926971435547,1.058728814125061,-4.952145099639893,5.599323749542236,-2.2179605960845947,1.9501912593841553,4.039371967315674,0.31799933314323425,0.12590399384498596,0.17356911301612854,1.9936484098434448
167,35702,35700,-0.12012483179569244,1.3042412996292114,1.0428133010864258,-4.422817707061768,14.590349197387695,-2.773181438446045,1.9521013498306274,4.040252208709717,0.3175813555717468,-0.07584068924188614,0.11114174127578735,1.9696394205093384
168,35712,35710,-0.21767503023147583,1.1860582828521729,1.2094054222106934,-0.20175796747207642,5.262322902679443,-2.270965814590454,1.9545263051986694,4.040778160095215,0.31714650988578796,-0.17551560699939728,0.09765693545341492,1.9432947635650635
169,35722,35720,0.0871901661157608,0.07352953404188156,0.9050077199935913,-0.14095690846443176,2.843634843826294,-2.316589593887329,1.955170750617981,4.040876388549805,0.31342625617980957,-0.20235630869865417,0.10605813562870026,1.920029878616333
170,35732,35730,-0.018187744542956352,0.41197332739830017,1.1430118083953857,1.4615719318389893,-2.218435525894165,-2.0442233085632324,1.9556342363357544,4.040774822235107,0.3130515217781067,-0.22463767230510712,0.13516701757907867,1.8956924676895142
171,35742,35740,-0.06824548542499542,0.3337380886077881,1.1067209243774414,2.881267547607422,-6.467754364013672,-1.9336153268814087,1.9565767049789429,4.040494918823242,0.31270840764045715,-0.09763774275779724,0.10757942497730255,1.8819714784622192
172,35752,35750,-0.08298920840024948,0.24529486894607544,1.158562421798706,4.521664142608643,-9.207099914550781,-0.8451752662658691,1.956108570098877,4.0408477783203125,0.30969440937042236,0.07665702700614929,0.11351200193166733,1.8720587491989136
173,35762,35760,-0.024520058184862137,0.14405742287635803,1.0978144407272339,3.958456039428711,-5.723972797393799,-0.3696279227733612,1.95586097240448,4.041884422302246,0.3095461428165436,0.15052013099193573,0.20537273585796356,1.8751040697097778
174,35772,35770,-0.09987855702638626,0.19607484340667725,1.0994117259979248,0.9907714128494263,-1.6254236698150635,0.12547200918197632,1.956895112991333,4.041540145874023,0.3094479739665985,-0.06859604269266129,0.10574615001678467,1.8705610036849976
175,35782,35780,-0.05186851695179939,0.06190406531095505,1.052551031112671,1.0477957725524902,0.7311859726905823,0.37571099400520325,1.960607647895813,4.043068885803223,0.3092339336872101,0.1537536233663559,0.1540299355983734,1.8765437602996826
176,35792,35790,-0.08497647941112518,0.07469719648361206,0.9789173603057861,0.3441460430622101,1.8202883005142212,1.161888837814331,1.9594160318374634,4.042727470397949,0.30558720231056213,0.08720161765813828,0.19115853309631348,1.8743312358856201
177,35802,35800,-0.09817266464233398,0.084446020424366,1.0426291227340698,1.5508350133895874,-0.7217050194740295,0.7846517562866211,1.9604730606079102,4.043118953704834,0.30542364716529846,0.07673011720180511,0.19875435531139374,1.8968738317489624
178,35812,35810,0.03215250000357628,0.1211058497428894,1.0341954231262207,4.313947677612305,-8.797965049743652,0.6265751719474792,1.9616080522537231,4.0440521240234375,0.3053790032863617,0.07883164286613464,0.29209595918655396,1.9157317876815796
179,35822,35820,-0.061749592423439026,-0.03571566566824913,1.0144404172897339,6.393970489501953,-10.877579689025879,0.9895951747894287,1.9614615440368652,4.044132232666016,0.3021058738231659,0.16522403061389923,0.3116721510887146,1.9443615674972534
180,35832,35830,-0.0657416433095932,0.028011256828904152,0.9979087710380554,6.7392425537109375,-14.592164039611816,1.913267970085144,1.9622305631637573,4.0457916259765625,0.3018817901611328,0.4801371991634369,0.43231531977653503,1.9727040529251099
181,35842,35840,0.10587047040462494,-0.173831969499588,0.9465476870536804,8.162393569946289,-13.796099662780762,2.0070629119873047,1.9610180854797363,4.045514106750488,0.3017905354499817,0.6430298686027527,0.5578843355178833,1.9844821691513062
182,35852,35850,0.017715509980916977,-0.17733876407146454,0.8978465795516968,1.729195475578308,-3.905571699142456,2.7283713817596436,1.9615974426269531,4.0455756187438965,0.29778853058815,0.6305093765258789,0.6359156966209412,2.0050148963928223
183,35862,35860,-0.02634735405445099,-0.010223587974905968,1.0380971431732178,1.2299365997314453,-1.0452653169631958,3.4565720558166504,1.9635579586029053,4.046256065368652,0.29721179604530334,0.528893768787384,0.6570442318916321,2.0450031757354736
184,35872,35870,-0.018278678879141808,-0.1952390968799591,0.941866397857666,-7.72306489944458,13.292414665222168,2.435023546218872,1.9658266305923462,4.046764850616455,0.2964969277381897,0.5885794162750244,0.5906467437744141,2.08705997467041
185,35882,35880,0.006188953295350075,0.05520062893629074,1.091199517250061,-7.788971900939941,14.743278503417969,3.5247621536254883,1.965592622756958,4.047143936157227,0.2959238588809967,0.44837889075279236,0.4573844373226166,2.118866205215454
186,35892,35890,0.10702928155660629,-0.1595316231250763,1.016224980354309,-7.8700737953186035,15.061881065368652,2.47350811958313,1.9656866788864136,4.047754287719727,0.2914075553417206,0.291971355676651,0.47714492678642273,2.147420644760132
187,35902,35900,0.12122175097465515,-0.14126624166965485,0.9347466826438904,-6.131167411804199,9.242470741271973,2.164081573486328,1.966316819190979,4.046709060668945,0.290530800819397,-0.04669186472892761,0.3420571982860565,2.1618595123291016
188,35912,35910,0.0008070851908996701,-0.06420724838972092,1.0326476097106934,-0.7318331003189087,4.916115760803223,2.0759658813476562,1.969135046005249,4.047240734100342,0.2894316017627716,-0.031291913241147995,0.27218639850616455,2.194051742553711
189,35922,35920,-0.041855454444885254,0.091203972697258,1.1001468896865845,1.949252724647522,0.005923770368099213,2.194488763809204,1.9691798686981201,4.047304153442383,0.28711506724357605,0.049310896545648575,0.3571559488773346,2.217162609100342
190,35932,35930,-0.04394226521253586,0.06486048549413681,1.1834408044815063,5.861538887023926,-9.460914611816406,3.4681193828582764,1.9690004587173462,4.046266555786133,0.28636398911476135,-0.09140226244926453,0.4137897789478302,2.2318978309631348
191,35942,35940,-0.03638596460223198,0.19704709947109222,1.2305928468704224,5.61823034286499,-9.069540023803711,4.004571914672852,1.9707362651824951,4.045201778411865,0.28550052642822266,0.1803961843252182,0.4936918616294861,2.257425308227539
192,35952,35950,-0.0792749673128128,0.02276596985757351,1.0759928226470947,2.8219783306121826,-12.521678924560547,1.8443119525909424,1.9696770906448364,4.045372009277344,0.28128740191459656,0.36098986864089966,0.543221116065979,2.2885773181915283
193,35962,35960,-0.03299975022673607,-0.012153754942119122,1.0396218299865723,-3.477869987487793,-3.595780849456787,0.4647708535194397,1.9691110849380493,4.044229984283447,0.2807031273841858,0.48382294178009033,0.515071451663971,2.3099942207336426
194,35972,35970,0.0046188803389668465,-0.11442825198173523,1.0674296617507935,-7.410860538482666,2.712541341781616,0.4758419692516327,1.9686305522918701,4.043613910675049,0.2801319360733032,0.566870927810669,0.48636066913604736,2.3050200939178467
195,35982,35980,-0.0032814382575452328,-0.08157557994127274,1.0823431015014648,-10.898740768432617,8.038387298583984,-0.3677160441875458,1.9686224460601807,4.043968677520752,0.2767049968242645,0.3148084580898285,0.307660311460495,2.3123362064361572
196,35992,35990,-0.017394157126545906,-0.11780957132577896,1.074143409729004,-9.261641502380371,13.052412986755371,-0.9360642433166504,1.9707705974578857,4.044455051422119,0.2760498821735382,0.2547450065612793,0.27785173058509827,2.2959682941436768
197,36002,36000,0.027377696707844734,-0.06566781550645828,1.077653408050537,-8.285405158996582,14.161019325256348,-0.09852420538663864,1.9714550971984863,4.044259071350098,0.2754935026168823,0.057005349546670914,0.1842527836561203,2.284137010574341
198,36012,36010,0.06450726091861725,0.010601767338812351,1.117985486984253,-5.667924880981445,5.4218525886535645,0.5449918508529663,1.9732575416564941,4.044155597686768,0.27495381236076355,0.06447888910770416,0.1264965534210205,2.312166213989258
199,36022,36020,-0.04706387594342232,-0.16341599822044373,1.141258716583252,-2.077641487121582,0.06443815678358078,0.6766575574874878,1.9724876880645752,4.043875694274902,0.2719435393810272,0.10292703658342361,0.03488873690366745,2.314408540725708
200,36032,36030,-0.05614548549056053,-0.0008372445590794086,1.1755855083465576,1.2223854064941406,-2.389681816101074,1.015039324760437,1.9725351333618164,4.044143199920654,0.2716514766216278,0.05861816927790642,0.016275884583592415,2.321242332458496
201,36042,36040,0.08035409450531006,-0.1600198745727539,1.0752778053283691,3.0507149696350098,0.4550934433937073,2.022047281265259,1.9729880094528198,4.043313503265381,0.2713674008846283,0.16521821916103363,0.11280576884746552,2.313566207885742
202,36052,36050,0.06432853639125824,-0.1488793045282364,0.9605533480644226,0.7391015887260437,-0.8060256838798523,1.3056409358978271,1.9728840589523315,4.042435169219971,0.27184125781059265,0.24798373878002167,0.1940535604953766,2.330763816833496
203,36062,36060,-0.003499609651044011,-0.10734638571739197,0.9742074012756348,-1.239366054534912,1.2137112617492676,0.9669477939605713,1.9720561504364014,4.041726112365723,0.27179163694381714,0.1605599820613861,0.23874421417713165,2.3395986557006836
204,36072,36070,0.0006898233550600708,-0.029607249423861504,1.1095912456512451,-7.198637008666992,6.458700180053711,1.054674506187439,1.9732112884521484,4.041683197021484,0.27161914110183716,0.18759776651859283,0.21177659928798676,2.3637502193450928
205,36082,36080,-0.023088794201612473,0.07921227812767029,1.1655807495117188,-9.116732597351074,7.861322402954102,0.6059704422950745,1.9739259481430054,4.042697906494141,0.2731974422931671,0.21839351952075958,0.11517280340194702,2.403411865234375
206,36092,36090,0.0724751204252243,0.010978369042277336,1.081260323524475,-11.341937065124512,7.025582790374756,0.39703670144081116,1.972987413406372,4.041946887969971,0.2734869122505188,-0.08562993258237839,-0.017472241073846817,2.3905677795410156
207,36102,36100,-0.02018570527434349,-0.15262851119041443,1.108764886856079,-10.693620681762695,8.666266441345215,0.9800342917442322,1.975999116897583,4.041971683502197,0.27377402782440186,-0.054581474512815475,-0.23672088980674744,2.4060332775115967
208,36112,36110,0.04894274100661278,-0.3614804148674011,0.9414386749267578,-8.919780731201172,8.361705780029297,0.32664191722869873,1.9755160808563232,4.042306900024414,0.2743070125579834,-0.1374674290418625,-0.18309836089611053,2.4086968898773193
209,36122,36120,0.07079906016588211,-0.09767355769872665,0.9906505942344666,-5.359799385070801,5.289814472198486,-0.303611159324646,1.9757310152053833,4.041158199310303,0.2731878161430359,-0.238410085439682,-0.26320043206214905,2.430129051208496
210,36132,36130,-0.003556332550942898,0.06574507057666779,1.0962926149368286,-3.304983377456665,0.6893784403800964,0.32268601655960083,1.9764904975891113,4.041141033172607,0.2734733521938324,-0.20049598813056946,-0.2177632749080658,2.4265787601470947
211,36142,36140,-0.02510920912027359,0.03566410765051842,1.1367169618606567,-0.8745928406715393,-1.1352981328964233,0.574816882610321,1.9760441780090332,4.039757251739502,0.273933082818985,-0.20012614130973816,-0.2960488200187683,2.437518358230591
212,36152,36150,0.034943588078022,-0.04776223376393318,1.0866395235061646,-0.22299893200397491,-0.8488447070121765,0.1492909938097,1.9769413471221924,4.0398454666137695,0.274850994348526,-0.1911672055721283,-0.34147757291793823,2.4451310634613037
213,36162,36160,-0.016250789165496826,0.020979175344109535,1.1180771589279175,0.5068816542625427,-0.08970974385738373,-0.07378553599119186,1.9774806499481201,4.0395965576171875,0.2755057215690613,-0.19252046942710876,-0.29413262009620667,2.445627450942993
214,36172,36170,-0.03071673773229122,0.06527947634458542,1.0301563739776611,-0.08852791786193848,2.043073892593384,0.975750207901001,1.9778296947479248,4.039371013641357,0.2762226164340973,-0.21490801870822906,-0.25087085366249084,2.461578130722046
215,36182,36180,0.023380566388368607,-0.10258516669273376,1.0035053491592407,-2.917039632797241,2.3767223358154297,-0.24828647077083588,1.9791196584701538,4.0403923988342285,0.2741810083389282,-0.1850871592760086,-0.3135586380958557,2.5065112113952637
216,36192,36190,-0.07170167565345764,0.006983286235481501,1.1253056526184082,-5.133556842803955,8.761076927185059,-1.5214383602142334,1.978787899017334,4.041118621826172,0.2749897539615631,-0.30960312485694885,-0.4209662079811096,2.521597385406494
217,36202,36200,0.0035102590918540955,0.010975007899105549,1.0800312757492065,-5.082620143890381,8.628156661987305,-1.851346492767334,1.980035662651062,4.041266918182373,0.2756969630718231,-0.37708696722984314,-0.5314774513244629,2.506737232208252
218,36212,36210,0.042621832340955734,-0.1112501248717308,1.0284547805786133,-4.22620964050293,6.059135913848877,-1.754218339920044,1.9798712730407715,4.041539192199707,0.2765619158744812,-0.4434228837490082,-0.47242942452430725,2.491974115371704
219,36222,36220,0.04917589947581291,-0.11051065474748611,1.0057578086853027,-1.8899377584457397,2.864795684814453,-1.4467694759368896,1.980549931526184,4.0404157638549805,0.2801612615585327,-0.44891417026519775,-0.5493742227554321,2.467766761779785
220,36232,36230,0.0407460480928421,-0.01591666415333748,1.0077468156814575,-0.147599995136261,-0.6896789073944092,-1.643239140510559,1.9806886911392212,4.041138172149658,0.2812255322933197,-0.41116684675216675,-0.587339460849762,2.457904577255249
221,36242,36240,-0.09035974740982056,0.20755235850811005,1.1155147552490234,1.1246850490570068,-0.9875088930130005,-1.5349116325378418,1.9805024862289429,4.040834903717041,0.2823196053504944,-0.3337664306163788,-0.5970093607902527,2.4309780597686768
222,36252,36250,-0.035355858504772186,0.36063632369041443,1.1366229057312012,2.859269618988037,2.6678590774536133,-2.091858386993408,1.980406403541565,4.04047155380249,0.2858486473560333,-0.3024460971355438,-0.5755462050437927,2.40263295173645
223,36262,36260,0.0197743009775877,0.4771609902381897,1.0842889547348022,4.851860523223877,2.2039856910705566,-2.6685619354248047,1.9798675775527954,4.040539264678955,0.2873288094997406,-0.29580655694007874,-0.6003364324569702,2.3835721015930176
224,36272,36270,-0.04305196925997734,0.45393669605255127,1.1265708208084106,4.734694957733154,7.2443437576293945,-2.1393327713012695,1.979752540588379,4.0409417152404785,0.28885844349861145,-0.8588571548461914,-0.6758462190628052,2.407626152038574
225,36282,36280,-0.10047353059053421,0.3167479336261749,1.1563416719436646,4.743692398071289,8.065306663513184,-1.9600341320037842,1.9849152565002441,4.0427961349487305,0.2921602129936218,-0.8034093976020813,-0.5937341451644897,2.384615182876587
226,36292,36290,0.005341852083802223,0.011465605348348618,0.9686880707740784,3.144411325454712,14.295883178710938,-2.1988396644592285,1.984803557395935,4.042393684387207,0.2942332923412323,-0.9145842790603638,-0.5244823694229126,2.372164487838745
227,36302,36300,-0.09172660112380981,0.1272076517343521,1.1172151565551758,2.115957498550415,7.340490341186523,-1.8275431394577026,1.9855716228485107,4.0430145263671875,0.29615241289138794,-1.324611783027649,-0.48294198513031006,2.3920035362243652
228,36312,36310,0.10321897268295288,-0.0680156722664833,0.8917118906974792,0.11547194421291351,5.622317314147949,-2.6585137844085693,1.9886804819107056,4.042510509490967,0.2980767786502838,-1.3194290399551392,-0.457354336977005,2.344883918762207
229,36322,36320,-0.24709926545619965,0.8151117563247681,1.0018774271011353,-0.8326378464698792,-4.455285549163818,-2.363971471786499,1.9885894060134888,4.0421624183654785,0.30012786388397217,-1.1680662631988525,-0.6108075380325317,2.2854201793670654
230,36332,36330,-0.13888223469257355,0.9110821485519409,1.1200388669967651,-1.0541807413101196,-12.927038192749023,-2.6316139698028564,1.988197922706604,4.0434889793396,0.3022374212741852,-1.2128398418426514,-0.5297083854675293,2.2761967182159424
231,36342,36340,-0.07349321991205215,0.3663859963417053,1.0455933809280396,4.408795356750488,-15.542414665222168,-2.5797972679138184,1.990117073059082,4.04268217086792,0.3040825426578522,-1.0050715208053589,-0.47633615136146545,2.249969482421875
232,36352,36350,-0.04987563192844391,0.5559016466140747,0.9933931827545166,9.446666717529297,-14.338130950927734,-2.9088361263275146,1.9908713102340698,4.042689800262451,0.30793243646621704,-0.7167835831642151,-0.5015687942504883,2.2022809982299805
233,36362,36360,0.03255414962768555,0.35400107502937317,0.8810030221939087,12.75532054901123,-12.033720016479492,-1.8615046739578247,1.990402340888977,4.043177127838135,0.310180127620697,-0.7977591156959534,-0.2950010299682617,2.207284927368164
234,36372,36370,0.09953482449054718,0.06967319548130035,0.9071896076202393,13.835530281066895,-10.889646530151367,-0.7409645915031433,1.9932169914245605,4.042956352233887,0.3120609521865845,-0.5867693424224854,-0.2208445966243744,2.1782219409942627
235,36382,36380,0.10262905806303024,-0.010583496652543545,0.9014992117881775,12.546083450317383,-7.8401641845703125,-1.2828562259674072,1.9929791688919067,4.043184757232666,0.31403735280036926,-0.5408121943473816,-0.2110271006822586,2.160041093826294
236,36392,36390,0.018416306003928185,-0.04645529389381409,0.8170724511146545,6.188493251800537,1.8218690156936646,-2.3266122341156006,1.9946155548095703,4.044471263885498,0.3158329129219055,-0.5375467538833618,-0.031131206080317497,2.154733419418335
237,36402,36400,-0.032096102833747864,0.341780424118042,0.8961029648780823,-0.22204521298408508,10.189200401306152,-2.4430315494537354,1.9962161779403687,4.044631481170654,0.31746992468833923,-0.6137159466743469,0.0285780131816864,2.1527538299560547
238,36412,36410,-0.11218571662902832,0.27043768763542175,0.9158977270126343,-3.919569492340088,10.134160041809082,-2.9327547550201416,1.9973974227905273,4.044785022735596,0.3190225064754486,-0.6535027027130127,0.00035894016036763787,2.1206305027008057
239,36422,36420,-0.09523961693048477,0.2574138641357422,0.9284199476242065,-5.736242294311523,4.372962951660156,-1.9292271137237549,1.9978177547454834,4.04505729675293,0.3206135034561157,-0.6650484204292297,-0.0728740468621254,2.076493501663208
240,36432,36430,-0.04640178382396698,0.1305476725101471,0.9102703332901001,-5.7827630043029785,3.2271687984466553,-1.9378865957260132,1.9978586435317993,4.045376300811768,0.32214465737342834,-0.6130859851837158,-0.07576798647642136,2.092470645904541
