,timestamp_start,timestamp_end,acc.x,acc.y,acc.z,gyro.x,gyro.y,gyro.z,stateEstimate.x,stateEstimate.y,stateEstimate.z,stabilizer.pitch,stabilizer.roll,stabilizer.yaw
0,42858,42858,-0.002938386518508196,-0.08830809593200684,1.0561612844467163,-3.8425607681274414,0.22316063940525055,0.5729308724403381,1.8301161527633667,3.889408826828003,0.15909923613071442,-1.2576929330825806,-0.02577366679906845,2.9382269382476807
1,42868,42868,-0.006189058534801006,-0.10596991330385208,1.0699292421340942,-3.80092453956604,-1.9361846446990967,0.6851842403411865,1.8291401863098145,3.8890392780303955,0.16081653535366058,-1.3083631992340088,-0.14662371575832367,2.9112603664398193
2,42878,42878,-0.023431772366166115,-0.0701083242893219,1.0680947303771973,-4.106978416442871,-3.1669790744781494,0.8748035430908203,1.8280298709869385,3.8906123638153076,0.16257010400295258,-1.247045636177063,-0.11777058243751526,2.943716287612915
3,42888,42888,0.022889476269483566,-0.06654281914234161,1.0792897939682007,-3.2162156105041504,-2.1128599643707275,1.0437043905258179,1.827823519706726,3.8896126747131348,0.16428591310977936,-1.3403334617614746,-0.22917510569095612,2.924436569213867
4,42898,42898,0.05423662066459656,-0.05892588570713997,1.098510503768921,-2.2344906330108643,-1.085273027420044,0.909160315990448,1.8271355628967285,3.8897690773010254,0.16618597507476807,-1.337895154953003,-0.31364816427230835,2.9181761741638184
5,42908,42908,0.03723904490470886,-0.024919087067246437,1.0657669305801392,-1.0191938877105713,1.3018046617507935,0.34750208258628845,1.8271992206573486,3.889369249343872,0.16810253262519836,-1.4298311471939087,-0.3727767765522003,2.9082460403442383
6,42918,42918,-0.03147007152438164,-0.009530900977551937,1.0396023988723755,0.19352005422115326,-0.6165683269500732,0.7847626209259033,1.826037883758545,3.8875067234039307,0.16988404095172882,-1.5830086469650269,-0.4684102535247803,2.8651702404022217
7,42928,42928,-0.05774537846446037,-0.03218555822968483,1.04416024684906,1.8164687156677246,-3.5417587757110596,0.12660986185073853,1.8228079080581665,3.888540506362915,0.1742410510778427,-1.0412333011627197,-0.31617897748947144,2.9342122077941895
8,42938,42938,-0.03342001140117645,-0.01936374045908451,1.0336488485336304,4.807990074157715,-8.887674331665039,0.26214930415153503,1.822006344795227,3.8884377479553223,0.17661087214946747,-1.0582208633422852,-0.2148575633764267,2.9617249965667725
9,42948,42948,-0.0326443575322628,-0.06813640147447586,0.9829292893409729,3.812114715576172,-7.004737854003906,0.7803846001625061,1.822342872619629,3.889150381088257,0.1789049357175827,-1.0279420614242554,-0.10494223237037659,2.9848146438598633
10,42958,42958,0.026727788150310516,-0.07167975604534149,1.0532786846160889,2.8236634731292725,-4.979401111602783,0.5297585725784302,1.8223416805267334,3.8908989429473877,0.18229719996452332,-1.0320926904678345,-0.09570623189210892,2.9868006706237793
11,42968,42968,-0.017503192648291588,-0.028999025002121925,1.0549511909484863,0.8425418734550476,-3.183892250061035,0.18054793775081635,1.8225253820419312,3.8899004459381104,0.184671089053154,-1.1176810264587402,0.1002378761768341,3.0455355644226074
12,42978,42978,0.021389251574873924,-0.021938510239124298,0.9904407858848572,-2.5007622241973877,0.9263085722923279,-0.7731587886810303,1.8216640949249268,3.891388416290283,0.187257319688797,-1.1472866535186768,0.017944078892469406,3.0162031650543213
13,42988,42988,0.008288145065307617,0.005710531957447529,0.9693726897239685,-5.7311577796936035,-0.7899975180625916,-0.3358801007270813,1.8211791515350342,3.8928821086883545,0.19169186055660248,-1.1994965076446533,-0.10718835890293121,2.979076862335205
14,42998,42998,0.014083970338106155,0.010826686397194862,1.0311261415481567,-7.654154300689697,-3.31520938873291,-0.1762308031320572,1.8196110725402832,3.893261194229126,0.19433017075061798,-0.9932816028594971,-0.19222533702850342,2.975926399230957
15,43008,43008,0.007755517493933439,-0.021854592487215996,0.9995279312133789,-7.820634365081787,-5.951768398284912,-0.5466921925544739,1.8226622343063354,3.892895460128784,0.19703610241413116,-1.3334392309188843,-0.15028534829616547,2.9991819858551025
16,43018,43018,-0.013613352552056313,-0.0026420303620398045,1.002537727355957,-5.526268482208252,-7.465426445007324,-0.3612295985221863,1.8233073949813843,3.8911852836608887,0.19845858216285706,-1.2918392419815063,0.11505389213562012,3.0949883460998535
17,43028,43028,0.002805375959724188,0.00528296222910285,1.0208981037139893,-3.0221846103668213,-8.923650741577148,-1.1499948501586914,1.823227882385254,3.891033411026001,0.20098876953125,-1.1453694105148315,0.09553024917840958,3.099112033843994
18,43038,43038,0.025409821420907974,-0.04235069826245308,0.9744036793708801,-2.8055553436279297,-13.023537635803223,-1.935158371925354,1.8223843574523926,3.8914647102355957,0.2039591670036316,-0.9650475382804871,-0.12433328479528427,3.0295097827911377
19,43048,43048,-0.06937644630670547,-0.05113424360752106,1.061034917831421,-3.9226438999176025,-14.1569242477417,-1.8301053047180176,1.8237379789352417,3.891352891921997,0.20647357404232025,-1.0259538888931274,-0.18682898581027985,2.995607852935791
20,43058,43058,0.03167811781167984,-0.038975611329078674,0.9653624892234802,-5.969608306884766,-13.069766998291016,-1.5794709920883179,1.8230178356170654,3.8909459114074707,0.20855717360973358,-0.8562243580818176,-0.27131539583206177,2.97009015083313
21,43068,43068,0.01980619877576828,0.0205700621008873,0.9833624362945557,-7.326617240905762,-12.467824935913086,-1.8001253604888916,1.8225759267807007,3.891190528869629,0.21120095252990723,-0.6243792772293091,-0.45331236720085144,2.925335168838501
22,43078,43078,-0.02118818275630474,-0.0029795956797897816,0.9873729348182678,-6.900888919830322,-11.755969047546387,-1.5675934553146362,1.8225129842758179,3.891185998916626,0.2137247622013092,-0.4038374722003937,-0.5493706464767456,2.9062654972076416
23,43088,43088,0.01625710353255272,-0.01476572547107935,0.9684496521949768,-5.021378993988037,-11.126513481140137,-1.5168280601501465,1.8225345611572266,3.8913350105285645,0.21731804311275482,-0.28965723514556885,-0.6963416934013367,2.8720786571502686
24,43098,43098,0.016891466453671455,-0.04946385696530342,0.9441623687744141,-1.6215577125549316,-9.69588851928711,-2.0152993202209473,1.8220148086547852,3.890620231628418,0.21986466646194458,-0.12242796272039413,-0.6341423392295837,2.87813138961792
25,43108,43108,0.00949973426759243,-0.0020780612248927355,0.9530593156814575,1.5210018157958984,-6.3021650314331055,-2.0697879791259766,1.822994589805603,3.8912696838378906,0.22245724499225616,-0.21749067306518555,-0.670993983745575,2.8491551876068115
26,43118,43118,-0.07730650901794434,-0.03947551175951958,0.9474306106567383,3.2957096099853516,-3.2912538051605225,-1.9271010160446167,1.8243601322174072,3.890929937362671,0.22627992928028107,-0.3242470324039459,-0.6586528420448303,2.8283228874206543
27,43128,43128,-0.10659856349229813,0.06048017367720604,0.9434942007064819,4.37186336517334,-1.4504811763763428,-1.4755479097366333,1.8199838399887085,3.891451358795166,0.2290884256362915,0.2048441469669342,-0.6910819411277771,2.7902095317840576
28,43138,43138,0.009724317118525505,-0.02504965476691723,0.9214355945587158,3.5749895572662354,-2.5228264331817627,-1.50038480758667,1.8265190124511719,3.8916714191436768,0.23266920447349548,-0.8744107484817505,-0.7962883114814758,2.7745108604431152
29,43148,43148,0.024121474474668503,-0.1865365356206894,0.9247915148735046,3.8203868865966797,-2.869070529937744,-1.4632445573806763,1.8274308443069458,3.893024206161499,0.23534759879112244,-0.7910558581352234,-0.737347424030304,2.762350082397461
30,43158,43158,-0.009372657164931297,-0.05880594253540039,0.9425114393234253,4.234309196472168,-8.542679786682129,-1.546108603477478,1.8279035091400146,3.892828941345215,0.23868456482887268,-0.7242780327796936,-0.6748518347740173,2.7493135929107666
31,43168,43168,-0.06897661834955215,0.008076380006968975,0.9602569937705994,5.269778728485107,-17.82253646850586,-1.9867607355117798,1.8277150392532349,3.8943605422973633,0.24136777222156525,-0.44944578409194946,-0.6670672297477722,2.719904899597168
32,43178,43178,-0.0007831816328689456,-0.014880180358886719,0.9260607957839966,5.039829254150391,-25.356420516967773,-2.2957561016082764,1.8272781372070312,3.896059989929199,0.2439880669116974,-0.06097215414047241,-0.654887318611145,2.6880414485931396
33,43188,43188,-0.011806749738752842,0.005154543090611696,0.9525396227836609,6.0437703132629395,-29.046764373779297,-2.20139741897583,1.8294122219085693,3.8961398601531982,0.2462996542453766,0.03927212208509445,-0.48302528262138367,2.6935343742370605
34,43198,43198,-0.029879048466682434,0.012629983946681023,0.9543291926383972,6.08180570602417,-27.587688446044922,-2.331536293029785,1.828159213066101,3.8940141201019287,0.24865637719631195,0.4637960195541382,-0.3080037832260132,2.6773977279663086
35,43208,43208,-0.0032771199475973845,-0.07471463084220886,0.9475956559181213,5.867023944854736,-23.242990493774414,-2.232203722000122,1.8283085823059082,3.8948001861572266,0.25088605284690857,0.8216491937637329,-0.29605531692504883,2.647057294845581
36,43218,43218,-0.04768404737114906,0.02311229519546032,0.9508498907089233,4.459448337554932,-16.4296875,-1.8385798931121826,1.8294460773468018,3.896005630493164,0.2509478032588959,1.0015329122543335,-0.2843402922153473,2.625404119491577
37,43228,43228,-0.06440779566764832,0.03711147978901863,0.9509161710739136,1.8864043951034546,-8.3114652633667,-2.3868980407714844,1.8293676376342773,3.896056652069092,0.25288066267967224,1.2073694467544556,-0.22670963406562805,2.598776340484619
38,43238,43238,-0.02836650423705578,0.005219918675720692,0.9217807054519653,0.20497235655784607,-1.802229404449463,-2.0217056274414062,1.8304264545440674,3.895944833755493,0.25484001636505127,1.175827145576477,-0.21872864663600922,2.58113169670105
39,43248,43248,0.02952079474925995,-0.027926290407776833,0.9405335783958435,-2.2651000022888184,4.900778293609619,-2.494250774383545,1.8301793336868286,3.8961164951324463,0.25669699907302856,1.201980710029602,-0.23980870842933655,2.561048984527588
40,43258,43258,-0.007165956310927868,-0.00872554536908865,0.9181075096130371,-3.2047157287597656,8.068744659423828,-2.4692795276641846,1.830277442932129,3.8964712619781494,0.25714072585105896,1.136709451675415,-0.21775689721107483,2.533581018447876
41,43268,43268,0.01576591655611992,-0.14776410162448883,0.8957735300064087,-2.200821876525879,7.5154008865356445,-2.766016721725464,1.8295257091522217,3.896357774734497,0.2587500512599945,1.1384339332580566,-0.2627687454223633,2.5052928924560547
42,43278,43278,-0.03467433527112007,-0.02105533331632614,0.9049168229103088,-0.869697093963623,5.1024250984191895,-2.831092357635498,1.8302217721939087,3.8965718746185303,0.26025891304016113,1.093504786491394,-0.28188756108283997,2.476663589477539
43,43288,43288,-0.04530605301260948,0.04791494458913803,0.9333806037902832,1.5126926898956299,1.7052596807479858,-2.699491500854492,1.8300023078918457,3.8965282440185547,0.262292742729187,1.094431757926941,-0.2678503692150116,2.4453632831573486
44,43298,43298,-0.02357868105173111,0.06844702363014221,0.9196311831474304,2.6267993450164795,-1.3996104001998901,-2.6008784770965576,1.8295775651931763,3.896679401397705,0.26375338435173035,1.1295175552368164,-0.2373344600200653,2.412543535232544
45,43308,43308,0.08095620572566986,-0.143646702170372,0.9307739734649658,3.7170658111572266,-3.4873359203338623,-2.239555597305298,1.8285963535308838,3.896758556365967,0.26523250341415405,1.2185800075531006,-0.1759009212255478,2.3869504928588867
46,43318,43318,-0.025669367983937263,-0.021606551483273506,0.9406477212905884,4.1437201499938965,-3.790914297103882,-1.8832437992095947,1.8276666402816772,3.8959269523620605,0.26711684465408325,1.306861162185669,-0.03883456438779831,2.3533098697662354
47,43328,43328,-0.017742237076163292,0.04264337569475174,0.9324601292610168,3.814628839492798,-1.7633923292160034,-1.6899827718734741,1.8270946741104126,3.896083354949951,0.26710352301597595,1.3263899087905884,-0.029936697334051132,2.3520545959472656
48,43338,43338,0.0385545939207077,0.0031505548395216465,0.9172437787055969,1.9442843198776245,0.8983573913574219,-1.6429589986801147,1.8273087739944458,3.896531820297241,0.2684781849384308,1.338502287864685,0.08151456713676453,2.3188979625701904
49,43348,43348,0.07128840684890747,-0.03802481293678284,0.9347497224807739,-0.061968494206666946,4.532440185546875,-1.3391687870025635,1.8282196521759033,3.900184392929077,0.2692547142505646,1.2311477661132812,-0.1358034461736679,2.3379688262939453
50,43358,43358,0.007829721085727215,-0.004620731808245182,0.9541633129119873,-2.306178569793701,6.2569661140441895,-1.828508973121643,1.8278478384017944,3.9001967906951904,0.2703978717327118,1.1589339971542358,-0.13824139535427094,2.322470188140869
51,43368,43368,0.06860550493001938,-0.15076607465744019,0.9493977427482605,-5.080374717712402,8.448256492614746,-2.0288591384887695,1.8278971910476685,3.9014108180999756,0.2714177668094635,1.06035578250885,-0.18176481127738953,2.310673713684082
52,43378,43378,0.05623052269220352,-0.19080324470996857,0.9465540647506714,-3.6528093814849854,8.82941722869873,-1.9622695446014404,1.828018307685852,3.901641845703125,0.2723708748817444,0.9441335797309875,-0.09901708364486694,2.272259473800659
53,43388,43388,-0.026173366233706474,-0.013811362907290459,0.9789629578590393,-1.2911162376403809,6.997498035430908,-2.143239974975586,1.8278119564056396,3.901378870010376,0.274236798286438,0.8983774781227112,-0.00862183328717947,2.2341272830963135
54,43398,43398,-0.025071313604712486,-0.06021707132458687,0.9623039960861206,0.5970033407211304,4.099592685699463,-1.8028309345245361,1.8291021585464478,3.9050920009613037,0.2752038240432739,0.8010905385017395,-0.11689283698797226,2.2315492630004883
55,43408,43408,-0.015779975801706314,-0.05930835381150246,0.9278934001922607,1.9718810319900513,1.1288647651672363,-1.5361995697021484,1.828452706336975,3.9064576625823975,0.2761157155036926,0.764180600643158,-0.18141180276870728,2.2204959392547607
56,43418,43418,0.015700820833444595,-0.05832413583993912,0.9026545286178589,1.480465054512024,-1.704643726348877,-1.961039423942566,1.8283659219741821,3.907538414001465,0.27763646841049194,0.7603452801704407,-0.22613215446472168,2.2137339115142822
57,43428,43428,-0.010716626420617104,-0.040313929319381714,0.9634327292442322,2.410461902618408,-3.706179141998291,-1.6562941074371338,1.8276889324188232,3.9078919887542725,0.27843332290649414,0.7982039451599121,-0.2606353759765625,2.2021989822387695
58,43438,43438,-0.0017989007756114006,-0.015646742656826973,0.9560983777046204,2.9763524532318115,-3.1905627250671387,-1.6891416311264038,1.827392339706421,3.907137632369995,0.27919670939445496,0.8562045097351074,-0.13212542235851288,2.170294761657715
59,43448,43448,0.03386074677109718,-0.17651718854904175,0.9570464491844177,3.5795724391937256,-0.6516470909118652,-1.0225120782852173,1.826218843460083,3.906130790710449,0.27988868951797485,1.0378063917160034,0.14004969596862793,2.128549337387085
60,43458,43458,-0.016236430034041405,-0.0027712257578969,1.0038658380508423,3.9091973304748535,2.955947160720825,-0.4981679320335388,1.8257125616073608,3.905726671218872,0.28058063983917236,1.015785813331604,0.17654994130134583,2.116049289703369
61,43468,43468,-0.02624174952507019,0.008269477635622025,0.9923181533813477,1.8503469228744507,5.647613048553467,-0.4636821150779724,1.8249754905700684,3.909336566925049,0.2813836634159088,1.0850582122802734,-0.08672302216291428,2.1535634994506836
62,43478,43478,0.010267795994877815,-0.02126428671181202,0.96725994348526,-1.9379346370697021,9.789393424987793,-1.1451010704040527,1.8248234987258911,3.908921718597412,0.2821105718612671,0.9500945210456848,0.008256630972027779,2.1362855434417725
63,43488,43488,0.002393915317952633,-0.03010871820151806,0.9672531485557556,-4.299991130828857,12.360757827758789,-1.082653284072876,1.8223035335540771,3.9097461700439453,0.2841991186141968,1.0627106428146362,-0.02693525142967701,2.1366751194000244
64,43498,43498,-0.010737081989645958,0.001422210712917149,0.9935102462768555,-4.312896728515625,12.179483413696289,-0.9080045819282532,1.8222088813781738,3.9092040061950684,0.28495192527770996,0.8968915939331055,0.05505209043622017,2.1060450077056885
65,43508,43508,0.014940652064979076,0.0633155032992363,0.949097752571106,-3.5215909481048584,12.925825119018555,-0.228976309299469,1.8228051662445068,3.9123573303222656,0.2858090400695801,0.6458699703216553,-0.31454864144325256,2.134748697280884
66,43518,43518,0.031293876469135284,0.1843452900648117,0.9373390674591064,-1.145755410194397,10.434402465820312,-0.43981900811195374,1.8235682249069214,3.910294771194458,0.2851846218109131,0.4699695110321045,-0.04449509084224701,2.089341402053833
67,43528,43528,-0.022943615913391113,0.08122517168521881,1.0095924139022827,1.4013140201568604,8.518871307373047,-0.5073796510696411,1.8240349292755127,3.9103634357452393,0.2857242226600647,0.2624095380306244,-0.13606823980808258,2.089411973953247
68,43538,43538,-0.010922466404736042,-0.1429998129606247,0.9701513051986694,5.02437162399292,5.660124778747559,-0.5225712060928345,1.8244621753692627,3.911923408508301,0.28620702028274536,0.12532593309879303,-0.2403956651687622,2.093294382095337
69,43548,43548,-0.03172573447227478,-0.05514964833855629,0.975830614566803,8.088950157165527,2.8804118633270264,-0.09767207503318787,1.8244872093200684,3.9126522541046143,0.286420613527298,0.042461417615413666,-0.2729896605014801,2.094250202178955
70,43558,43558,0.06349781900644302,-0.06116852909326553,0.9626489281654358,7.341352939605713,3.7911977767944336,-0.454077810049057,1.8241543769836426,3.9121134281158447,0.2868662476539612,-0.012657109647989273,-0.19351226091384888,2.0897059440612793
71,43568,43568,0.08113034814596176,-0.028749290853738785,1.0088895559310913,6.777029991149902,-2.79115629196167,-0.46830812096595764,1.824480652809143,3.9088900089263916,0.28744202852249146,-0.022071553394198418,0.24573718011379242,2.0671868324279785
72,43578,43578,0.09015632420778275,-0.10697898268699646,1.004204511642456,6.92038106918335,-4.751491069793701,0.29496288299560547,1.8240203857421875,3.9087138175964355,0.2878928780555725,0.01782996952533722,0.267656534910202,2.0640597343444824
73,43588,43588,0.03538558632135391,-0.1721939593553543,1.0016334056854248,2.5449600219726562,-5.678980827331543,0.16648589074611664,1.8227300643920898,3.9066591262817383,0.2882390320301056,0.22941561043262482,0.6332371830940247,2.0621535778045654
74,43598,43598,0.017384635284543037,-0.10081708431243896,0.9851851463317871,-2.245356559753418,-4.646994590759277,0.10405471920967102,1.8224726915359497,3.909169912338257,0.28901469707489014,0.21014255285263062,0.3882555663585663,2.0658655166625977
75,43608,43608,0.046533286571502686,-0.0503028929233551,0.9632033109664917,-8.730892181396484,-1.298767328262329,0.05066999793052673,1.8216861486434937,3.9071507453918457,0.2893165349960327,0.31643974781036377,0.596350908279419,2.0664002895355225
76,43618,43618,0.11263269931077957,-0.06702162325382233,0.9895748496055603,-13.099554061889648,1.92409086227417,-0.2762448489665985,1.8228493928909302,3.9148569107055664,0.2894520163536072,0.06799233704805374,-0.2009960263967514,2.0638039112091064
77,43628,43628,0.05620536208152771,-0.06642879545688629,1.0519673824310303,-14.703263282775879,6.150817394256592,-1.1268601417541504,1.8160115480422974,3.9144575595855713,0.2900359332561493,0.6779391765594482,-0.24224382638931274,2.0999300479888916
78,43638,43638,0.02714504860341549,-0.059625547379255295,0.9789320230484009,-11.340778350830078,7.2518391609191895,-1.1595470905303955,1.8160862922668457,3.912238359451294,0.29083067178726196,0.5064025521278381,-0.14675329625606537,2.0797438621520996
79,43648,43648,8.153991075232625e-05,-0.029142163693904877,1.0028194189071655,-1.8510710000991821,8.964279174804688,-1.157792091369629,1.8164348602294922,3.912872314453125,0.2909029722213745,0.3140565752983093,-0.28359508514404297,2.061007022857666
80,43658,43658,0.007455932442098856,-0.03251040726900101,0.9667167663574219,6.486386775970459,11.190889358520508,-0.6440600752830505,1.815589189529419,3.912585735321045,0.29130008816719055,0.24922636151313782,-0.27272161841392517,2.0478081703186035
81,43668,43668,0.019776036962866783,0.007709128316491842,0.9864959716796875,11.644713401794434,12.1432466506958,-0.5227385759353638,1.8134028911590576,3.9130752086639404,0.2916213870048523,0.23056447505950928,-0.21840929985046387,2.0435898303985596
82,43678,43678,0.03732934221625328,0.053741663694381714,1.0335431098937988,13.04231071472168,11.626416206359863,-0.38347843289375305,1.8135122060775757,3.9140677452087402,0.29206225275993347,-0.027676062658429146,-0.16956277191638947,2.0342540740966797
83,43688,43688,0.014033286832273006,-0.015184798277914524,1.009869933128357,9.139814376831055,10.506054878234863,-0.6835606694221497,1.8130797147750854,3.9140830039978027,0.2910403907299042,-0.18619152903556824,-0.04580368474125862,2.0282652378082275
84,43698,43698,0.009512686170637608,-0.020234597846865654,1.0069340467453003,6.106516361236572,8.144463539123535,-0.5694668889045715,1.8113911151885986,3.9135000705718994,0.291343092918396,-0.2445913553237915,0.11341357976198196,2.0233383178710938
85,43708,43708,0.006863703019917011,-0.014562110416591167,0.9994116425514221,0.905712902545929,11.216177940368652,-0.44202664494514465,1.8109170198440552,3.913111686706543,0.2916378080844879,-0.3681648373603821,0.18153008818626404,2.016342878341675
86,43718,43718,-0.007729358971118927,0.0563768707215786,1.0085850954055786,-2.6307919025421143,15.112184524536133,-0.759315550327301,1.8112123012542725,3.9135055541992188,0.2930971384048462,-0.5437217950820923,0.10032868385314941,2.005232334136963
87,43728,43728,0.03514509275555611,-0.017115075141191483,1.0017136335372925,-5.437009334564209,20.15138816833496,-0.49942532181739807,1.8105300664901733,3.9131531715393066,0.2934415936470032,-0.7096785306930542,0.047073036432266235,1.9954025745391846
88,43738,43738,0.0019461667397990823,-0.043945569545030594,1.0052486658096313,-4.7605719566345215,20.027862548828125,-0.7768458724021912,1.8100425004959106,3.9129066467285156,0.29386499524116516,-0.8449700474739075,0.12312139570713043,1.9995173215866089
89,43748,43748,-0.053462106734514236,0.04328358918428421,0.9895272850990295,-2.470028877258301,19.291038513183594,-1.091953158378601,1.8105288743972778,3.9134044647216797,0.2923794090747833,-1.132287859916687,0.059991829097270966,1.9866876602172852
90,43758,43758,-0.02985774353146553,0.1148640587925911,0.9769092202186584,-0.3118780255317688,17.799964904785156,-0.6847872138023376,1.8090431690216064,3.9124510288238525,0.2927226126194,-1.2657744884490967,0.10738151520490646,1.9847971200942993
91,43768,43768,-0.007644645404070616,0.023900074884295464,1.008473515510559,2.140559434890747,14.360824584960938,-0.6867781281471252,1.8081728219985962,3.91304349899292,0.2929810583591461,-1.4193068742752075,0.11100798100233078,1.9798979759216309
92,43778,43778,0.022365545853972435,0.0739598423242569,0.9492080807685852,2.993570327758789,11.532719612121582,-1.0373865365982056,1.8078144788742065,3.9120709896087646,0.29104816913604736,-1.6040849685668945,0.1449410766363144,1.9730430841445923
93,43788,43788,-0.019249925389885902,0.06123938038945198,1.0267032384872437,2.765129804611206,6.953573703765869,-1.117921233177185,1.8085078001022339,3.9132657051086426,0.29110175371170044,-1.794911503791809,0.10777558386325836,1.946359634399414
94,43798,43798,-0.015586940571665764,-0.08605559170246124,0.999950110912323,1.4581066370010376,5.1875081062316895,-0.6056786179542542,1.8084821701049805,3.9122018814086914,0.2910982072353363,-1.9039111137390137,0.1417754590511322,1.936235785484314
95,43808,43808,-0.0005622808821499348,0.005141658242791891,0.9495019912719727,-0.07970066368579865,4.234790802001953,-0.1885014921426773,1.808099627494812,3.912863254547119,0.29120081663131714,-1.9110394716262817,0.15488146245479584,1.9322749376296997
96,43818,43818,-0.011046292260289192,0.008409828878939152,1.0233831405639648,-1.3847641944885254,2.5904457569122314,0.07777287065982819,1.8092877864837646,3.913468837738037,0.290744423866272,-1.9757661819458008,0.1400546431541443,1.9262357950210571
97,43828,43828,0.04879026487469673,-0.14308150112628937,1.0144091844558716,-2.619204521179199,0.8567385077476501,-0.1512119323015213,1.8080612421035767,3.9116125106811523,0.29077547788619995,-1.9378976821899414,0.17913858592510223,1.943872332572937
98,43838,43838,0.012890046462416649,-0.15121978521347046,1.0389480590820312,-2.3613991737365723,-0.5413126945495605,0.01573234423995018,1.807997226715088,3.9118590354919434,0.2908126711845398,-2.02003812789917,0.12658551335334778,1.9303637742996216
99,43848,43848,-0.009752403013408184,-0.05080746114253998,1.014041543006897,-2.439840793609619,-0.7378407120704651,0.3254023492336273,1.8080425262451172,3.9117605686187744,0.29191309213638306,-2.001831531524658,0.07966666668653488,1.9244983196258545
100,43858,43858,0.0016542879166081548,-0.026375535875558853,1.008998155593872,-1.564940333366394,-0.2522735595703125,0.2774364650249481,1.8085453510284424,3.911054849624634,0.29201751947402954,-2.0545334815979004,0.11483591049909592,1.9425688982009888
101,43868,43868,0.04594642296433449,0.035182464867830276,1.058863878250122,-1.5187654495239258,-0.4195702075958252,-0.1623905897140503,1.808621883392334,3.9110052585601807,0.29221874475479126,-2.035736560821533,0.07540874928236008,1.9403094053268433
102,43878,43878,0.016967525705695152,-0.03805271536111832,1.0233701467514038,-1.6705340147018433,-1.270014762878418,-0.321608304977417,1.808180332183838,3.9098141193389893,0.2908637821674347,-1.991244912147522,0.11521995067596436,1.9574315547943115
103,43888,43888,0.012505325488746166,-0.021887723356485367,0.9973167777061462,-1.1498018503189087,0.23258741199970245,-1.4741442203521729,1.8081004619598389,3.9111618995666504,0.29101720452308655,-1.94857919216156,0.07449998706579208,1.9460164308547974
104,43898,43898,-0.009975949302315712,-0.008448545821011066,1.028988003730774,-1.2990596294403076,-1.5552494525909424,-0.1639404594898224,1.8083323240280151,3.911128044128418,0.29113340377807617,-1.9789996147155762,0.03945436701178551,1.9296871423721313
105,43908,43908,0.008894702419638634,-0.10987760871648788,0.978705108165741,-0.7438073754310608,-2.155886650085449,-0.4947325587272644,1.8079155683517456,3.910156488418579,0.291334867477417,-1.9089993238449097,0.08928298205137253,1.9472795724868774
106,43918,43918,-0.03428751975297928,0.01942760869860649,1.0629414319992065,-0.49169471859931946,-2.0142977237701416,-0.40620580315589905,1.8083237409591675,3.910010814666748,0.29343727231025696,-1.910534381866455,0.13878865540027618,1.9605677127838135
107,43928,43928,-0.039385803043842316,0.023039337247610092,1.003897786140442,-0.7082390189170837,-1.7671219110488892,-0.36985620856285095,1.8095022439956665,3.9095711708068848,0.2936841547489166,-1.9907976388931274,0.10630269348621368,1.9416916370391846
108,43938,43938,-0.014228696003556252,-0.03411963954567909,1.0027878284454346,-2.2996511459350586,-2.0821142196655273,-0.35228976607322693,1.8094254732131958,3.909634590148926,0.2941421568393707,-1.9071131944656372,0.05949890986084938,1.9298322200775146
109,43948,43948,0.025819208472967148,-0.009660640731453896,1.014220118522644,-3.2231638431549072,-2.9871714115142822,-0.6218208074569702,1.8094452619552612,3.9096474647521973,0.2954667806625366,-1.81735360622406,-0.00515011977404356,1.9155552387237549
110,43958,43958,-0.03464994207024574,-0.011516044847667217,1.034251093864441,-3.8917312622070312,-4.699703693389893,-0.7669890522956848,1.8113257884979248,3.9099600315093994,0.2957817018032074,-1.9404555559158325,-0.08011477440595627,1.8888708353042603
111,43968,43968,0.00015103329496923834,-0.08863412588834763,0.9860065579414368,-3.42093563079834,-4.844346046447754,-0.2697601914405823,1.8121803998947144,3.9110255241394043,0.29621994495391846,-1.8725459575653076,-0.15078473091125488,1.8712579011917114
112,43978,43978,0.010329159907996655,0.00701156398281455,1.0397313833236694,-2.5364274978637695,-6.1828532218933105,-0.3789781928062439,1.8131120204925537,3.9106853008270264,0.29442334175109863,-1.8802218437194824,-0.20777875185012817,1.8585054874420166
113,43988,43988,-0.03340088203549385,0.010661414824426174,1.0441575050354004,0.35025379061698914,-6.156064510345459,-0.13871797919273376,1.8125560283660889,3.911113739013672,0.29481324553489685,-1.7586942911148071,-0.21965759992599487,1.856707215309143
114,43998,43998,0.026872197166085243,-0.1306578665971756,1.0402344465255737,2.591230630874634,-7.55782413482666,0.27260321378707886,1.8121936321258545,3.909022331237793,0.2953597903251648,-1.5719072818756104,-0.04343663901090622,1.9145610332489014
115,44008,44008,0.02307896316051483,-0.08724267780780792,1.029603362083435,4.151757717132568,-8.778748512268066,0.20596927404403687,1.813591480255127,3.909099817276001,0.2982516884803772,-1.515555500984192,-0.0011677575530484319,1.9208753108978271
116,44018,44018,-0.03427068889141083,0.0661206766963005,1.0195825099945068,3.2551660537719727,-7.60108757019043,-0.0819820687174797,1.816125750541687,3.909097909927368,0.29876771569252014,-1.6149903535842896,0.04681626707315445,1.917689323425293
117,44028,44028,-0.007554607931524515,-0.027878155931830406,0.9984810948371887,1.123551607131958,-5.914289951324463,-0.26434290409088135,1.8144075870513916,3.9082753658294678,0.29951241612434387,-1.4079376459121704,-0.015996607020497322,1.885132074356079
118,44038,44038,-0.023856518790125847,0.014357444830238819,1.0291812419891357,-0.9061492681503296,-5.754209041595459,-0.31769025325775146,1.8172951936721802,3.9100570678710938,0.2999941110610962,-1.5266697406768799,-0.032061539590358734,1.8739681243896484
119,44048,44048,-0.06842951476573944,0.01447039283812046,1.0292247533798218,-2.635154962539673,-8.623443603515625,-0.4944612979888916,1.8169668912887573,3.908486843109131,0.30315545201301575,-1.3647279739379883,0.08194755762815475,1.9056665897369385
120,44058,44058,-0.03267588093876839,-0.032709673047065735,0.9933106303215027,-3.8825926780700684,-6.55355978012085,-0.0911719873547554,1.8180620670318604,3.9095520973205566,0.30400046706199646,-1.309840440750122,0.0017466506687924266,1.8895843029022217
121,44068,44068,-0.01811986044049263,0.017951451241970062,1.0215312242507935,-4.980041980743408,-7.598079681396484,0.3079327940940857,1.819006323814392,3.9103710651397705,0.30484774708747864,-1.2479329109191895,-0.1689261943101883,1.8575888872146606
122,44078,44078,0.03426000103354454,-0.051100004464387894,0.9457975625991821,-4.870363712310791,-8.47756290435791,0.46549904346466064,1.8206202983856201,3.9106452465057373,0.30845192074775696,-1.1644784212112427,-0.2601872980594635,1.8558671474456787
123,44088,44088,0.01932488940656185,0.1241290494799614,0.99984210729599,-2.6085548400878906,-8.57598876953125,1.0240272283554077,1.8215034008026123,3.9105072021484375,0.30937862396240234,-1.1578660011291504,-0.24716731905937195,1.875043272972107
124,44098,44098,0.024334987625479698,0.08890708535909653,1.0063308477401733,0.13731840252876282,-9.303075790405273,0.5501202940940857,1.8238023519515991,3.9102835655212402,0.3101767897605896,-1.2050026655197144,-0.27100056409835815,1.8803554773330688
125,44108,44108,-0.0007802000618539751,0.013166644610464573,1.0061720609664917,2.439969301223755,-10.55018138885498,0.5760564804077148,1.8239604234695435,3.910083770751953,0.3073170781135559,-1.0550758838653564,-0.25018060207366943,1.8881858587265015
126,44118,44118,0.0007489655399695039,-0.0026001050136983395,0.9819831252098083,4.254216194152832,-11.390583992004395,0.637732744216919,1.825669288635254,3.9096057415008545,0.30799591541290283,-0.9727506637573242,-0.19394828379154205,1.8996778726577759
127,44128,44128,0.0064897057600319386,0.0871882364153862,0.9788036942481995,4.240882873535156,-11.775762557983398,0.4752233326435089,1.8274730443954468,3.9095072746276855,0.3086007833480835,-0.9505149126052856,-0.12622185051441193,1.9123425483703613
128,44138,44138,0.0023398061748594046,-0.0021766861900687218,0.9608281254768372,2.8280060291290283,-11.780570030212402,0.4989698529243469,1.82648766040802,3.9094009399414062,0.3095669448375702,-0.6190980076789856,-0.07883688807487488,1.9183430671691895
129,44148,44148,0.02545071579515934,0.06996186077594757,0.9494855999946594,1.2195003032684326,-11.379085540771484,0.5165386199951172,1.829255223274231,3.9105777740478516,0.30988460779190063,-0.6946854591369629,-0.13061559200286865,1.9136101007461548
130,44158,44158,-0.010894685052335262,-0.008950121700763702,0.9607480764389038,-0.9688376784324646,-10.368365287780762,0.9801130294799805,1.8290294408798218,3.9105615615844727,0.310623437166214,-0.4547923505306244,-0.1308641880750656,1.9187594652175903
131,44168,44168,0.008481311611831188,-0.06305577605962753,0.9814505577087402,-2.535050392150879,-9.704730033874512,0.49803096055984497,1.828963041305542,3.9095370769500732,0.3112812936306,-0.25613486766815186,-0.09468874335289001,1.9325897693634033
132,44178,44178,0.03346822038292885,-0.10334029048681259,0.9326751828193665,-3.0377800464630127,-8.48631477355957,0.47967493534088135,1.8317621946334839,3.910128355026245,0.31231412291526794,-0.30534669756889343,-0.1503123939037323,1.932759404182434
133,44188,44188,0.02151680365204811,-0.09363691508769989,0.955635130405426,-2.5347673892974854,-6.8296122550964355,0.5678873658180237,1.8318333625793457,3.910689115524292,0.3129233121871948,-0.13607002794742584,-0.20139195024967194,1.933780550956726
134,44198,44198,-0.010225405916571617,-0.006252419203519821,0.9724305272102356,-0.9527849555015564,-4.533191680908203,0.6191394329071045,1.8327056169509888,3.910921573638916,0.31336718797683716,-0.08278656750917435,-0.23087476193904877,1.936495304107666
135,44208,44208,-0.02445022575557232,-0.014895249158143997,0.9672147631645203,0.311576783657074,-2.5023624897003174,0.12932328879833221,1.834538221359253,3.9103755950927734,0.3148849308490753,-0.06615555286407471,-0.15942825376987457,1.9448920488357544
136,44218,44218,-0.12568189203739166,0.03733386471867561,0.9335424900054932,1.4311871528625488,-1.357643961906433,0.1553657352924347,1.8358633518218994,3.9097940921783447,0.3153105676174164,-0.07360530644655228,-0.07490493357181549,1.9476584196090698
137,44228,44228,0.01344907097518444,-0.11476577818393707,0.9347566962242126,1.0415499210357666,-0.9197309017181396,0.025242803618311882,1.8376692533493042,3.910243511199951,0.31568270921707153,-0.09045780450105667,-0.06802403926849365,1.951912522315979
138,44238,44238,0.02407756634056568,-0.09618234634399414,0.9894952774047852,0.013588697649538517,-2.1388206481933594,0.02888031303882599,1.8384712934494019,3.9106359481811523,0.31610536575317383,-0.0199102945625782,-0.07165376842021942,1.954723596572876
139,44248,44248,0.012696299701929092,-0.07258142530918121,0.9735844731330872,-0.9377303719520569,-4.314243793487549,-0.08144278824329376,1.8403910398483276,3.911329507827759,0.31634509563446045,-0.06998495012521744,-0.16797633469104767,1.954659104347229
140,44258,44258,-0.013248734176158905,-0.017577532678842545,0.9556782841682434,-0.9029236435890198,-6.397157669067383,-0.016019072383642197,1.8398290872573853,3.911877155303955,0.3168075978755951,0.14689260721206665,-0.11039738357067108,1.9505254030227661
141,44268,44268,-0.0014096436789259315,-0.009664910845458508,0.9332181215286255,-0.2651008665561676,-7.6017045974731445,-0.05771772190928459,1.84040367603302,3.912198543548584,0.3170836567878723,0.2303297370672226,-0.12494060397148132,1.9515968561172485
142,44278,44278,-0.033673591911792755,0.0324435718357563,1.008265733718872,0.13785003125667572,-7.211036682128906,-0.12512780725955963,1.841567039489746,3.9115073680877686,0.3182791471481323,0.3137454688549042,-0.05645856633782387,1.949167013168335
143,44288,44288,-0.047580819576978683,0.014883626252412796,0.9861674308776855,-0.008971063420176506,-4.271337032318115,-0.5971556305885315,1.8424036502838135,3.9115631580352783,0.31850484013557434,0.3802250325679779,-0.06373108923435211,1.9489755630493164
144,44298,44298,-0.07147005200386047,-0.010953092016279697,0.9757806062698364,-1.116807460784912,0.6966016888618469,-0.9829708933830261,1.8447620868682861,3.9116556644439697,0.3186756372451782,0.2971160113811493,-0.08452332764863968,1.9421244859695435
145,44308,44308,-0.016494020819664,-0.030657432973384857,0.9569244384765625,-2.5249626636505127,4.642981052398682,-1.0730414390563965,1.8450534343719482,3.9121458530426025,0.31701475381851196,0.29161694645881653,-0.12390817701816559,1.933332085609436
146,44318,44318,-0.015505439601838589,0.00919376965612173,0.992831826210022,-3.848560094833374,6.450469017028809,-1.3546466827392578,1.8450952768325806,3.9124672412872314,0.3171759247779846,0.31329068541526794,-0.1863788217306137,1.9177050590515137
147,44328,44328,-0.022508418187499046,0.11434584856033325,0.9451895356178284,-3.8540637493133545,5.9159345626831055,-1.4290640354156494,1.8462978601455688,3.9127557277679443,0.3172246813774109,0.23947927355766296,-0.25596776604652405,1.9033390283584595
148,44338,44338,-0.008655325509607792,0.10358710587024689,0.9574103355407715,-2.284571409225464,3.606940746307373,-2.0382909774780273,1.8473364114761353,3.9119107723236084,0.3178565204143524,0.1943487524986267,-0.23388493061065674,1.8794431686401367
149,44348,44348,0.013787779025733471,0.04824131354689598,0.9954500198364258,-1.825049638748169,1.5054851770401,-1.9412782192230225,1.8480240106582642,3.912142753601074,0.3179170787334442,0.18522092700004578,-0.2732210159301758,1.862463355064392
150,44358,44358,0.007922504097223282,-0.02648424170911312,0.9769598841667175,0.06145338714122772,-1.707768440246582,-1.5707741975784302,1.8486391305923462,3.9110782146453857,0.3179532289505005,0.22725942730903625,-0.20966491103172302,1.82993483543396
151,44368,44368,-0.002958629745990038,-0.04505504295229912,0.9681154489517212,0.5210434198379517,-2.72625470161438,-1.4718482494354248,1.8496520519256592,3.9110686779022217,0.3179841935634613,0.29075801372528076,-0.21509742736816406,1.8111708164215088
152,44378,44378,-0.026015974581241608,-0.012054442428052425,0.9824206829071045,-0.7117407321929932,-3.7236642837524414,-1.9661316871643066,1.8493118286132812,3.911158800125122,0.31661221385002136,0.4412427544593811,-0.2261381298303604,1.7942523956298828
153,44388,44388,0.015977686271071434,-0.032766763120889664,0.9785714745521545,-2.630354166030884,-5.081265926361084,-2.666445732116699,1.8521990776062012,3.911231279373169,0.31641367077827454,0.30114951729774475,-0.26695239543914795,1.7754969596862793
154,44398,44398,-0.026042748242616653,0.004309743642807007,0.9984376430511475,-5.144338607788086,-4.043069362640381,-3.5425050258636475,1.8519103527069092,3.9114224910736084,0.3163626492023468,0.4696204662322998,-0.3459884822368622,1.7472383975982666
155,44408,44408,-0.06440536677837372,0.006193640176206827,1.0676649808883667,-6.529796600341797,-1.9575408697128296,-4.422133922576904,1.853636622428894,3.911911964416504,0.31503501534461975,0.4664675295352936,-0.4516676366329193,1.7136414051055908
156,44418,44418,-0.0809980109333992,-0.01802118867635727,1.04032301902771,-8.941298484802246,-0.3010343015193939,-4.85125207901001,1.8541879653930664,3.912318229675293,0.3149093687534332,0.5865464806556702,-0.4330849349498749,1.6549654006958008
157,44428,44428,-0.07773122191429138,0.041526634246110916,1.0138460397720337,-7.458228588104248,2.3749637603759766,-4.000421047210693,1.85395348072052,3.9116930961608887,0.31495702266693115,0.42846250534057617,-0.4905923008918762,1.6165282726287842
158,44438,44438,0.018150292336940765,-0.03428877517580986,1.0282191038131714,-5.91836404800415,4.6751532554626465,-3.6893951892852783,1.8567304611206055,3.912113904953003,0.3131507933139801,0.3929731249809265,-0.5595970153808594,1.5905778408050537
159,44448,44448,0.040275346487760544,-0.06715703755617142,1.0025315284729004,-2.0853147506713867,4.106571197509766,-4.575869560241699,1.8567166328430176,3.912783145904541,0.313065767288208,0.3918282985687256,-0.6518994569778442,1.5557211637496948
160,44458,44458,-0.01332166139036417,-0.003354473505169153,1.0025259256362915,-0.22079935669898987,2.1251769065856934,-4.467620849609375,1.8577735424041748,3.91361927986145,0.312939316034317,0.369723916053772,-0.6660958528518677,1.5194029808044434
161,44468,44468,0.016279436647892,-0.007146998308598995,0.9917802214622498,1.6231694221496582,-0.4424230456352234,-4.635794639587402,1.8573390245437622,3.912191390991211,0.3129120469093323,0.45274025201797485,-0.508378267288208,1.4612321853637695
162,44478,44478,-0.03774569556117058,0.06840639561414719,1.0207141637802124,1.9969027042388916,-2.9557371139526367,-4.566049575805664,1.858647108078003,3.9129223823547363,0.3124323785305023,0.4130137264728546,-0.5594279766082764,1.4307055473327637
163,44488,44488,0.01494582463055849,-0.03431405872106552,1.0005993843078613,-1.2554233074188232,-2.5002644062042236,-4.129080772399902,1.8577829599380493,3.912910223007202,0.31235745549201965,0.54302579164505,-0.5477911829948425,1.3846795558929443
164,44498,44498,0.023227959871292114,-0.1394893229007721,1.0470173358917236,-3.079082727432251,-2.4548232555389404,-3.842751979827881,1.8593000173568726,3.914543390274048,0.31224364042282104,0.5063281655311584,-0.662399411201477,1.3686755895614624
165,44508,44508,-0.024764003232121468,-0.20074202120304108,1.0417660474777222,-2.9830710887908936,-0.9303908944129944,-4.017383098602295,1.859032392501831,3.9146203994750977,0.3117506802082062,0.619955837726593,-0.7080561518669128,1.3266328573226929
166,44518,44518,0.010348103009164333,-0.02809027023613453,1.03738534450531,-2.308177947998047,0.5294433236122131,-3.7540063858032227,1.860888123512268,3.9145586490631104,0.31168562173843384,0.5443950891494751,-0.7394937872886658,1.2934983968734741
167,44528,44528,-0.013252558186650276,0.06939743459224701,0.9978212714195251,-0.6152291893959045,2.0940873622894287,-4.09887170791626,1.8626413345336914,3.9153332710266113,0.3116309642791748,0.4455457627773285,-0.7543219923973083,1.2641321420669556
168,44538,44538,-0.010301033034920692,0.08641408383846283,0.9891976118087769,2.395815134048462,5.181784152984619,-4.264677047729492,1.8628166913986206,3.9150311946868896,0.3114117383956909,0.47000086307525635,-0.734869122505188,1.204840898513794
169,44548,44548,-0.005429786164313555,0.08310376852750778,0.9718772768974304,6.508018493652344,5.406270503997803,-2.633216142654419,1.8636220693588257,3.9152772426605225,0.3113822937011719,0.4592309594154358,-0.6565007567405701,1.168611764907837
170,44558,44558,-0.011777760460972786,0.023418758064508438,1.02859365940094,9.804306030273438,8.964038848876953,-1.956328272819519,1.864501714706421,3.91603422164917,0.3112840950489044,0.34433701634407043,-0.5889359712600708,1.1613757610321045
171,44568,44568,0.012663247995078564,-0.10571057349443436,1.0073202848434448,11.112573623657227,11.688886642456055,-1.7292258739471436,1.8651537895202637,3.9152045249938965,0.3112812042236328,0.25638455152511597,-0.4001300036907196,1.1284998655319214
172,44578,44578,0.042071957141160965,-0.024342723190784454,1.0044751167297363,11.16747760772705,10.295647621154785,-1.2597246170043945,1.865149974822998,3.917214870452881,0.3074626624584198,0.14107221364974976,-0.4295624792575836,1.1456512212753296
173,44588,44588,0.01814507134258747,-0.13299646973609924,0.9848917722702026,8.751604080200195,8.15968132019043,-1.5821447372436523,1.865842580795288,3.91683292388916,0.3072168529033661,0.049976952373981476,-0.31196603178977966,1.1192245483398438
174,44598,44598,-0.012004493735730648,-0.1489662230014801,1.0448176860809326,6.257791519165039,5.476006984710693,-1.3455272912979126,1.8664610385894775,3.9161224365234375,0.3070349097251892,0.010085335932672024,-0.1616891324520111,1.0920015573501587
175,44608,44608,0.040390495210886,0.028990069404244423,0.968756914138794,4.2876105308532715,4.071467876434326,-1.5222845077514648,1.8677036762237549,3.9170165061950684,0.30677226185798645,-0.07988899201154709,-0.20524826645851135,1.0860930681228638
176,44619,44618,0.002122205216437578,0.07214345037937164,1.0209286212921143,5.239521026611328,2.3824820518493652,-1.4482921361923218,1.8680248260498047,3.9175682067871094,0.3066023290157318,0.002822916256263852,-0.19532889127731323,1.0817558765411377
177,44628,44628,0.03059231862425804,-0.080683633685112,0.9613938331604004,8.756512641906738,3.732793092727661,-1.1066030263900757,1.8676265478134155,3.918687582015991,0.3064098358154297,-0.031077545136213303,-0.126022070646286,1.0676076412200928
178,44638,44638,0.030689941719174385,0.06905627250671387,1.0247257947921753,11.460951805114746,6.015288352966309,-0.7356228232383728,1.8677808046340942,3.9183170795440674,0.30362647771835327,-0.06662533432245255,0.0648793950676918,1.051600456237793
179,44648,44648,0.05453193932771683,0.001819141674786806,0.9575023055076599,12.253904342651367,7.479915618896484,-0.3221655786037445,1.8691972494125366,3.9195797443389893,0.30320265889167786,-0.19174419343471527,0.1351669877767563,1.0630073547363281
180,44659,44658,-0.016542751342058182,-0.002014274476096034,1.0011987686157227,11.0691556930542,8.138764381408691,-0.47281453013420105,1.8699842691421509,3.919222354888916,0.302728533744812,-0.3221587538719177,0.28759655356407166,1.062619686126709
181,44668,44668,-0.03143005818128586,0.0455351360142231,1.031866431236267,9.734413146972656,4.550387382507324,-0.7264606952667236,1.8692439794540405,3.9187939167022705,0.3022734224796295,-0.36213424801826477,0.3417230546474457,1.0244594812393188
182,44678,44678,-0.0570022389292717,0.09867025911808014,1.0043102502822876,7.2359514236450195,4.603816032409668,0.06422260403633118,1.8692471981048584,3.9198858737945557,0.30326569080352783,-0.36027175188064575,0.43741852045059204,1.0411282777786255
183,44688,44688,0.004872970748692751,0.03325559198856354,1.0213674306869507,5.540555477142334,2.738410234451294,-0.28601256012916565,1.869004726409912,3.9206812381744385,0.3029787540435791,-0.359721302986145,0.4955809414386749,1.0474622249603271
184,44698,44698,0.01692064292728901,-0.11940492689609528,1.0215715169906616,4.160425186157227,0.834588348865509,-0.36494866013526917,1.8697963953018188,3.9206478595733643,0.30263039469718933,-0.4084148108959198,0.5197693109512329,1.0331392288208008
185,44708,44708,-0.003983898553997278,-0.16321703791618347,1.0206258296966553,4.537974834442139,-0.12127719819545746,-0.19244681298732758,1.8703588247299194,3.921661853790283,0.3046012818813324,-0.4219660758972168,0.5422723889350891,1.0476107597351074
186,44718,44718,0.011226177215576172,-0.07379860430955887,0.9833211898803711,5.206438064575195,-1.7927711009979248,-0.43924757838249207,1.871693730354309,3.9212303161621094,0.3044254183769226,-0.4881584346294403,0.6490528583526611,1.033320426940918
187,44728,44728,0.10357191413640976,-0.0531693771481514,1.0241044759750366,5.951925754547119,-1.201298475265503,0.09028180688619614,1.870551347732544,3.922693967819214,0.3044557273387909,-0.3927095830440521,0.682913064956665,1.0633916854858398
188,44738,44738,0.09775141626596451,-0.038469020277261734,1.0427626371383667,6.088365077972412,-2.984358549118042,-0.8470832705497742,1.8720065355300903,3.9248642921447754,0.30491191148757935,-0.3746141493320465,0.7284218072891235,1.1030734777450562
189,44748,44748,-0.033593855798244476,0.030967025086283684,1.0290403366088867,5.990810394287109,-1.7210345268249512,-1.23189377784729,1.8740365505218506,3.925353765487671,0.3047739863395691,-0.5010111927986145,0.7786184549331665,1.0795831680297852
190,44758,44758,0.002058010781183839,0.036704931408166885,0.9739410877227783,6.914620876312256,-1.9132616519927979,-2.5044078826904297,1.8740826845169067,3.9259402751922607,0.3048502504825592,-0.40235480666160583,0.8369619846343994,1.0687837600708008
191,44768,44768,0.006874521262943745,0.06632865220308304,1.0297462940216064,7.024670600891113,-1.0854771137237549,-2.847421884536743,1.8745282888412476,3.9265217781066895,0.30680227279663086,-0.46302005648612976,0.7548711895942688,1.062811017036438
192,44778,44778,-0.04247913509607315,0.03436768427491188,1.0613220930099487,8.002058029174805,-3.06760311126709,-4.42172908782959,1.8738895654678345,3.92612361907959,0.3069984018802643,-0.34418168663978577,0.9109786748886108,1.045262336730957
193,44788,44788,-0.05317317321896553,0.06673828512430191,1.0077985525131226,5.263675689697266,-5.435978412628174,-5.857350826263428,1.875222086906433,3.925551652908325,0.3070293366909027,-0.43568432331085205,1.0658807754516602,0.9991225600242615
194,44798,44798,-0.03298031911253929,0.07175308465957642,0.9606704711914062,-0.44072937965393066,-7.568091869354248,-6.624142169952393,1.8758625984191895,3.9272217750549316,0.30730774998664856,-0.4089218080043793,1.0228570699691772,0.9509814977645874
195,44808,44808,-0.030997872352600098,-0.01885252632200718,1.0029408931732178,-7.564495086669922,-8.631599426269531,-7.7790374755859375,1.876508355140686,3.9277145862579346,0.30798396468162537,-0.3564971685409546,1.0416864156723022,0.8959190845489502
196,44818,44818,0.0019295281963422894,-0.0726395919919014,1.048828363418579,-10.70457649230957,-9.09682559967041,-8.301844596862793,1.8772954940795898,3.928581714630127,0.30818843841552734,-0.2658306360244751,0.9431369304656982,0.8295227289199829
197,44828,44828,0.014211106114089489,-0.012583102099597454,0.9669478535652161,-9.967741012573242,-7.645323276519775,-8.748695373535156,1.8775852918624878,3.9284467697143555,0.30845722556114197,-0.07580763101577759,0.9397033452987671,0.7746665477752686
198,44838,44838,0.020293626934289932,-0.05787603184580803,0.9226743578910828,-5.963797092437744,-5.9509148597717285,-9.022994041442871,1.8778223991394043,3.928603410720825,0.30849045515060425,0.07046893984079361,0.8571882247924805,0.7057669758796692
199,44848,44848,0.019936928525567055,-0.021055689081549644,0.9529860615730286,-1.0185595750808716,-6.246823787689209,-7.743231296539307,1.8791581392288208,3.929450273513794,0.30866339802742004,0.12049850821495056,0.7598960399627686,0.6271581053733826
200,44858,44858,0.053953878581523895,-0.05598966032266617,0.9560114145278931,1.0978246927261353,-2.0785632133483887,-7.078127861022949,1.8819024562835693,3.928316593170166,0.30871304869651794,-0.005812563002109528,0.812150776386261,0.5077762603759766
201,44868,44868,0.061627984046936035,-0.07560878992080688,0.981859028339386,1.3238011598587036,1.481514573097229,-6.506375789642334,1.8813929557800293,3.928236722946167,0.30561375617980957,0.12801575660705566,0.8165850639343262,0.44887781143188477
202,44878,44878,0.07434659451246262,-0.09482472389936447,0.9887129068374634,-0.8999435305595398,3.8145945072174072,-5.770297527313232,1.882996916770935,3.927114486694336,0.30537092685699463,0.04304138943552971,0.9023902416229248,0.361243337392807
203,44888,44888,0.045752283185720444,-0.06767421215772629,1.0276955366134644,-5.013585567474365,4.149885177612305,-6.15296745300293,1.8831791877746582,3.927218437194824,0.30515730381011963,-0.0006613687728531659,0.8735804557800293,0.30854564905166626
204,44898,44898,0.004718797281384468,-0.05187532305717468,1.0200746059417725,-8.068548202514648,3.3753714561462402,-5.574121475219727,1.8832488059997559,3.927807092666626,0.3050844073295593,0.02009556069970131,0.7859986424446106,0.26931965351104736
205,44908,44908,-0.041765015572309494,0.0762082189321518,0.9876757264137268,-8.854947090148926,1.1069865226745605,-5.509095191955566,1.885171890258789,3.9268240928649902,0.30445894598960876,-0.1863853633403778,0.8029573559761047,0.18453554809093475
206,44918,44918,-0.0567377507686615,0.13311001658439636,0.976259171962738,-7.664941787719727,-0.2757570147514343,-3.6028800010681152,1.8853362798690796,3.9277162551879883,0.3044132888317108,-0.10333289951086044,0.6392126679420471,0.15702584385871887
207,44928,44928,-0.019029704853892326,0.020871520042419434,0.9694464802742004,-5.345983505249023,-1.0189926624298096,-2.9638149738311768,1.885764241218567,3.928356409072876,0.30434808135032654,-0.011756266467273235,0.4988042712211609,0.12749941647052765
208,44938,44938,-0.004187224432826042,-0.06931047141551971,1.0369020700454712,-5.779081344604492,-1.662561058998108,-2.8980519771575928,1.8863247632980347,3.9264156818389893,0.30341190099716187,0.018097354099154472,0.5474562048912048,0.07056161761283875
209,44948,44948,0.05173948407173157,-0.12567414343357086,0.982918381690979,-6.60344123840332,-0.013261595740914345,-3.226426601409912,1.8861968517303467,3.9268901348114014,0.30318689346313477,0.057284172624349594,0.5082470774650574,0.0736415758728981
210,44958,44958,0.002102889120578766,-0.04543500393629074,1.0553737878799438,-6.658055305480957,1.6448383331298828,-3.081228733062744,1.8874969482421875,3.9274439811706543,0.3029109835624695,-0.004301132168620825,0.37923353910446167,0.04021129384636879
211,44968,44968,0.011167658492922783,-0.14777888357639313,0.9961216449737549,-6.104185581207275,5.080609321594238,-3.33400821685791,1.8873404264450073,3.926295042037964,0.3065214455127716,0.056015703827142715,0.48109373450279236,0.03475091978907585
212,44978,44978,-0.043016109615564346,-0.0580335296690464,1.0317795276641846,-4.930322647094727,7.786992073059082,-3.2389564514160156,1.888424277305603,3.927018165588379,0.3065636456012726,-0.02910519205033779,0.34507492184638977,0.014436465688049793
213,44988,44988,0.023932600393891335,-0.030745599418878555,1.0138899087905884,-3.220677614212036,6.886183261871338,-2.265427589416504,1.889012336730957,3.9263691902160645,0.30663609504699707,-0.06620977818965912,0.3099175989627838,-0.02621227316558361
214,44998,44998,-0.006810321938246489,-0.017853623256087303,1.0531498193740845,-1.1360667943954468,4.3622026443481445,-1.4144681692123413,1.890675663948059,3.926696300506592,0.3065651059150696,-0.2494911402463913,0.30065375566482544,-0.03030952252447605
215,45008,45008,0.02897273749113083,-0.11395987868309021,0.9918866157531738,-0.4135858416557312,1.7339656352996826,-0.9466198682785034,1.8905948400497437,3.92665958404541,0.3093035817146301,-0.22855991125106812,0.24568189680576324,-0.03749015927314758
216,45018,45018,-0.03808736056089401,-0.021525509655475616,1.0203596353530884,-1.5604442358016968,-4.60622501373291,0.21086221933364868,1.890226125717163,3.925722599029541,0.30966874957084656,-0.16973353922367096,0.286456823348999,-0.049650173634290695
217,45028,45028,0.02511950023472309,-0.006681972648948431,0.9792254567146301,-4.022029876708984,-9.853229522705078,0.472962349653244,1.889482855796814,3.9258346557617188,0.3100568652153015,-0.02572016231715679,0.22921691834926605,-0.035675689578056335
218,45038,45038,-0.002715841168537736,0.01713603548705578,1.0205481052398682,-6.774519443511963,-11.30374813079834,0.3989028036594391,1.8907296657562256,3.9252371788024902,0.31361764669418335,0.02959996648132801,0.2108260989189148,-0.0345970019698143
219,45048,45048,-0.03220313414931297,-0.004429022315889597,1.0383696556091309,-12.088494300842285,-7.503485679626465,0.7223854064941406,1.891648769378662,3.9260871410369873,0.3140929639339447,0.1246664971113205,0.14330628514289856,0.0038048429414629936
220,45058,45058,-0.04500741884112358,0.04586190730333328,1.0603100061416626,-14.924155235290527,-1.7546887397766113,0.8347252011299133,1.8936351537704468,3.9258108139038086,0.31457629799842834,0.09576384723186493,0.07328387349843979,0.01561047974973917
221,45068,45068,-0.08088619261980057,0.06705423444509506,1.0245537757873535,-17.399639129638672,7.086853981018066,1.7356494665145874,1.894486427307129,3.9272377490997314,0.314120888710022,0.1307547390460968,-0.21262650191783905,0.038796909153461456
222,45078,45078,-0.014372218400239944,0.011175397783517838,0.9954302906990051,-15.583046913146973,14.072785377502441,3.3766424655914307,1.8945029973983765,3.926828622817993,0.3146829605102539,0.10666614025831223,-0.3640157878398895,0.052163027226924896
223,45088,45088,-0.008545386604964733,-0.03751249611377716,0.9830536842346191,-11.467278480529785,16.624618530273438,4.477644920349121,1.8946939706802368,3.924161195755005,0.31531450152397156,0.037095434963703156,-0.34419775009155273,0.0458180271089077
224,45098,45098,0.06886085867881775,-0.024119505658745766,0.9931091666221619,-7.185558795928955,16.816652297973633,4.681664943695068,1.8956758975982666,3.9255964756011963,0.31556054949760437,-0.1645433008670807,-0.5845944881439209,0.11611273139715195
225,45108,45108,0.03774282708764076,0.012570999562740326,1.0021380186080933,-2.7314138412475586,10.693949699401855,5.042047500610352,1.8972810506820679,3.925508975982666,0.3165621757507324,-0.490163654088974,-0.7877904772758484,0.1979067623615265
226,45118,45118,-0.038754142820835114,-0.030034976080060005,0.9861635565757751,3.1327340602874756,2.799217700958252,5.86619758605957,1.8973866701126099,3.9249649047851562,0.31662625074386597,-0.4816724359989166,-0.6666539311408997,0.2093915045261383
227,45128,45128,-0.029933739453554153,0.0010194845963269472,0.9967843890190125,9.701144218444824,-4.15453577041626,6.809510231018066,1.8987776041030884,3.9250106811523438,0.3171646296977997,-0.5411258935928345,-0.6559032797813416,0.27576544880867004
228,45138,45138,0.021992499008774757,-0.07563277333974838,0.9831703901290894,12.036384582519531,-9.781010627746582,8.455228805541992,1.8983906507492065,3.925424098968506,0.31824299693107605,-0.3939511775970459,-0.6128789782524109,0.35273483395576477
229,45148,45148,-0.04145099222660065,0.019945962354540825,0.9790011048316956,10.978336334228516,-11.330602645874023,8.458230972290039,1.8995139598846436,3.924710273742676,0.31879526376724243,-0.3283748924732208,-0.4370845556259155,0.43635106086730957
230,45158,45158,-0.018047628924250603,-0.04453432559967041,0.9646403789520264,6.387801647186279,-6.762434482574463,9.551000595092773,1.8995450735092163,3.923527240753174,0.31936779618263245,-0.15091754496097565,-0.27908647060394287,0.49591103196144104
231,45168,45168,-0.037172771990299225,-0.17340658605098724,0.955434262752533,1.9598121643066406,-1.5349215269088745,9.196118354797363,1.9007494449615479,3.9247865676879883,0.3196048438549042,-0.11829126626253128,-0.347068190574646,0.598701000213623
232,45178,45178,-0.040848493576049805,-0.12428762763738632,0.9476189017295837,-1.7677055597305298,6.312673091888428,8.533157348632812,1.9010087251663208,3.9246394634246826,0.32005202770233154,-0.08387178182601929,-0.3212725520133972,0.6907055377960205
233,45188,45188,-0.03757984936237335,0.007110670208930969,0.9751866459846497,-4.210488796234131,10.4910888671875,8.440474510192871,1.9013261795043945,3.9244544506073,0.32047536969184875,-0.07970139384269714,-0.35262003540992737,0.765337347984314
234,45198,45198,0.020567145198583603,-0.11179471015930176,0.971049964427948,-6.980587482452393,11.998519897460938,8.248432159423828,1.9020520448684692,3.924327850341797,0.3205782473087311,-0.16387489438056946,-0.3509591519832611,0.861640989780426
235,45208,45208,-0.027333155274391174,-0.011736282147467136,0.9613069295883179,-7.624939918518066,9.110359191894531,8.153839111328125,1.9031786918640137,3.924574136734009,0.3208516240119934,-0.36812084913253784,-0.47407934069633484,0.9428221583366394
236,45218,45218,-0.07273529469966888,0.006983059924095869,0.9745776653289795,-7.856757164001465,5.621476173400879,7.612644672393799,1.9035217761993408,3.9246459007263184,0.32119300961494446,-0.4536498785018921,-0.5319511294364929,1.0392632484436035
237,45228,45228,-0.11730483919382095,0.04726932942867279,0.9954848289489746,-7.769043445587158,1.483081340789795,6.76882266998291,1.9035056829452515,3.9246115684509277,0.32149896025657654,-0.48741865158081055,-0.5972989797592163,1.1192107200622559
238,45238,45238,-0.02093546837568283,0.006318237632513046,0.9786864519119263,-7.309679985046387,-0.43680787086486816,5.859626293182373,1.9031662940979004,3.9242196083068848,0.32014769315719604,-0.45812398195266724,-0.6621451377868652,1.1779487133026123
