,timestamp_start,timestamp_end,acc.x,acc.y,acc.z,gyro.x,gyro.y,gyro.z,stateEstimate.x,stateEstimate.y,stateEstimate.z,stabilizer.pitch,stabilizer.roll,stabilizer.yaw
0,42349,42347,0.01750490814447403,-0.20526115596294403,1.1859694719314575,-8.074036598205566,-9.794132232666016,-8.279391288757324,1.9786584377288818,4.043931484222412,0.12208984047174454,-1.9339385032653809,-0.5712886452674866,4.519390106201172
1,42359,42357,0.02496076002717018,0.055631767958402634,1.0472098588943481,-8.336183547973633,-9.469583511352539,-7.743051052093506,1.9807803630828857,4.0431365966796875,0.12420374900102615,-1.8453917503356934,-0.7226694226264954,4.41919469833374
2,42369,42367,-0.023066824302077293,0.03566227853298187,1.1171706914901733,-10.541380882263184,-13.686219215393066,-6.406652450561523,1.9810588359832764,4.041568279266357,0.1253354400396347,-1.7143490314483643,-0.6701074242591858,4.400774955749512
3,42379,42377,0.058712851256132126,-0.06718212366104126,1.1500552892684937,-8.676712036132812,-12.185296058654785,-6.453597068786621,1.983903408050537,4.039597988128662,0.12775348126888275,-1.6364022493362427,-0.8447839021682739,4.320859432220459
4,42389,42387,0.002450952073559165,-0.015657100826501846,1.173543930053711,-6.394099712371826,-10.338502883911133,-6.647565841674805,1.9841557741165161,4.03996467590332,0.12789833545684814,-1.5014644861221313,-1.0422178506851196,4.223465442657471
5,42399,42397,-0.09705369174480438,0.22571539878845215,0.919023334980011,-6.978682041168213,-9.163548469543457,-5.767237663269043,1.9862611293792725,4.038863658905029,0.13109150528907776,-1.4791231155395508,-0.7370772957801819,4.2615180015563965
6,42409,42407,-0.019089631736278534,0.0524291917681694,1.086544394493103,-6.296662330627441,-9.025604248046875,-5.476076602935791,1.9859752655029297,4.037394046783447,0.13268251717090607,-1.3591771125793457,-1.0232043266296387,4.1453728675842285
7,42419,42417,0.03217914700508118,-0.021019084379076958,1.015999436378479,-4.192605972290039,-10.0404052734375,-4.3343024253845215,1.9859815835952759,4.035587787628174,0.13688424229621887,-1.23422110080719,-1.0776748657226562,4.084627628326416
8,42429,42427,-0.011707543395459652,-0.06597603112459183,1.0846738815307617,-4.639006614685059,-9.537924766540527,-4.281445026397705,1.9860813617706299,4.034555912017822,0.13973915576934814,-1.321662187576294,-1.1967984437942505,4.044234275817871
9,42439,42437,-0.012238670140504837,0.0438106432557106,1.1136225461959839,-4.768436431884766,-12.383872032165527,-3.201547622680664,1.9860564470291138,4.0341033935546875,0.13971728086471558,-1.0450282096862793,-1.0872466564178467,4.026434421539307
10,42449,42447,0.007574530318379402,-0.0006290794117376208,1.1284793615341187,-4.290491580963135,-12.954900741577148,-3.1838111877441406,1.9862303733825684,4.030900955200195,0.1419822722673416,-0.9924576878547668,-0.7929207682609558,4.0850510597229
11,42459,42457,0.013938985764980316,0.30074360966682434,0.9713826775550842,-4.788463592529297,-14.923543930053711,-3.3818440437316895,1.9872090816497803,4.029846668243408,0.14647307991981506,-0.7035830020904541,-1.0050407648086548,3.997091054916382
12,42469,42467,0.016290374100208282,0.011519473046064377,1.114425778388977,-8.835848808288574,-14.993951797485352,-3.3865697383880615,1.9867240190505981,4.029469013214111,0.14965170621871948,-0.6163585186004639,-1.273314118385315,3.938260793685913
13,42479,42477,0.008433977141976357,-0.08358442783355713,1.126460075378418,-10.545684814453125,-12.699848175048828,-3.189177989959717,1.9871182441711426,4.028217792510986,0.1523524969816208,-0.33999204635620117,-1.3190792798995972,3.900810480117798
14,42489,42487,0.006019014865159988,-0.005444854963570833,1.096097469329834,-7.669009685516357,-10.367918014526367,-3.432176351547241,1.986921787261963,4.0257344245910645,0.1548551321029663,-0.1944238245487213,-1.1317981481552124,3.9033010005950928
15,42499,42497,-0.01988913118839264,0.07069509476423264,1.0110032558441162,-8.490581512451172,-9.576762199401855,-2.1199259757995605,1.9879261255264282,4.023183345794678,0.15924067795276642,-0.08111371845006943,-1.3910350799560547,3.851656913757324
16,42509,42507,0.042872216552495956,-0.0874030590057373,1.2320700883865356,-5.0194501876831055,-5.1888604164123535,-2.537595272064209,1.9875677824020386,4.02295446395874,0.16241072118282318,-0.0741291418671608,-1.458779215812683,3.8474910259246826
17,42519,42517,0.020936861634254456,-0.014091597869992256,1.1167265176773071,-3.5502071380615234,-4.035934925079346,-2.850151777267456,1.9881843328475952,4.023402690887451,0.16529154777526855,-0.027783751487731934,-1.5054820775985718,3.8226351737976074
18,42529,42527,0.015318124555051327,-0.027234649285674095,1.0429091453552246,-2.2476773262023926,-3.5457537174224854,-3.2602288722991943,1.990984320640564,4.024000644683838,0.1696692854166031,0.021371491253376007,-1.7999351024627686,3.784639596939087
19,42539,42537,0.04646124690771103,0.1234411969780922,0.9509498476982117,1.8826878070831299,-4.871340751647949,-3.3704147338867188,1.9914112091064453,4.023464679718018,0.17304569482803345,0.14388127624988556,-1.8961396217346191,3.7376811504364014
20,42549,42547,0.014119219034910202,0.1645815670490265,0.9783353805541992,-1.928145408630371,-7.023622989654541,-2.2578651905059814,1.9910506010055542,4.0227742195129395,0.17622914910316467,0.3494560420513153,-1.9184850454330444,3.6817493438720703
21,42559,42557,0.0005532798240892589,-0.11635871231555939,1.1149742603302002,3.4882991313934326,-6.750957489013672,-2.3710076808929443,1.9916411638259888,4.020524501800537,0.18317264318466187,0.4440286457538605,-1.9121980667114258,3.667349100112915
22,42569,42567,0.017945772036910057,-0.08162164688110352,1.0128854513168335,7.583429336547852,-5.9624128341674805,-1.8614505529403687,1.9946423768997192,4.0071587562561035,0.18935485184192657,0.3383343815803528,0.4329811930656433,3.6578338146209717
23,42579,42577,0.025451788678765297,-0.0744314193725586,0.9504215121269226,3.721194267272949,-0.8288077712059021,-2.8408689498901367,1.9971781969070435,4.00453519821167,0.19824931025505066,0.33151593804359436,-0.1566103845834732,3.673468828201294
24,42589,42587,0.022761017084121704,-0.16147218644618988,0.9381443858146667,-5.524653911590576,-2.5695533752441406,-3.3086657524108887,1.9988930225372314,4.004058837890625,0.20259526371955872,0.4026598334312439,-0.49026957154273987,3.6548352241516113
25,42599,42597,0.00440419465303421,-0.04886304959654808,0.917254626750946,-21.477802276611328,-2.3269147872924805,-2.3870911598205566,1.9988373517990112,4.003958702087402,0.20809052884578705,0.40486741065979004,-0.7866269946098328,3.6368744373321533
26,42609,42607,0.042007844895124435,-0.07503293454647064,0.9503090381622314,-32.04645538330078,-5.7740678787231445,-2.1289713382720947,1.9984397888183594,4.004612922668457,0.2126159369945526,0.4477069675922394,-1.086336612701416,3.612069845199585
27,42619,42617,0.04751359298825264,-0.12159474939107895,1.040315866470337,-38.382537841796875,-9.392598152160645,-1.5433926582336426,2.000081777572632,4.005172252655029,0.21784886717796326,0.664108157157898,-1.5078675746917725,3.5927846431732178
28,42629,42627,0.04093381389975548,-0.1875329166650772,0.9390767812728882,-34.08757400512695,-7.371384143829346,-2.177988052368164,1.9991647005081177,4.002593994140625,0.21853038668632507,0.41725996136665344,-2.1861813068389893,3.643061399459839
29,42639,42637,0.010394187644124031,-0.06542249023914337,0.8683611750602722,-25.12384796142578,-2.730499267578125,-2.429809331893921,2.003352403640747,4.007700443267822,0.22277884185314178,0.5230555534362793,-2.6788275241851807,3.6310760974884033
30,42649,42647,0.09909891337156296,-0.09945517778396606,0.777866780757904,-16.847627639770508,0.7988356351852417,-1.969063639640808,2.0033302307128906,4.008162498474121,0.2265114039182663,0.5149683356285095,-2.8926408290863037,3.6086082458496094
31,42659,42657,0.010977066121995449,0.079955093562603,0.8494467735290527,-5.365750789642334,0.4921973645687103,-1.7843918800354004,2.0027003288269043,4.008675575256348,0.2268516570329666,0.5445346236228943,-3.0982377529144287,3.5896074771881104
32,42669,42667,-0.008564074523746967,0.1017233282327652,0.914048969745636,8.81874942779541,-0.7582521438598633,-2.0879855155944824,2.0034396648406982,4.007862091064453,0.22985245287418365,0.42754220962524414,-3.2206315994262695,3.6077966690063477
33,42679,42677,-0.00795950647443533,0.009992570616304874,0.9354968070983887,20.74172019958496,-3.000603199005127,-2.7088522911071777,2.0034072399139404,4.007498264312744,0.23287449777126312,0.5029439330101013,-3.0921568870544434,3.57669997215271
34,42689,42687,-0.0914057046175003,-0.033606160432100296,1.0328233242034912,27.390338897705078,-6.220561981201172,-2.758552312850952,2.004810333251953,4.005996227264404,0.23720143735408783,0.7166388034820557,-2.777799606323242,3.5256547927856445
35,42699,42697,-0.0977243036031723,-0.008217692375183105,1.0234370231628418,28.52323341369629,-2.9897897243499756,-2.4181089401245117,2.003033399581909,4.009854316711426,0.23978284001350403,0.8981707096099854,-3.0637054443359375,3.5271964073181152
36,42709,42707,-0.05797519534826279,-0.06628446280956268,0.8809587955474854,26.842769622802734,-2.122443675994873,-3.466590642929077,2.0126330852508545,4.006392002105713,0.2450462281703949,-0.32185348868370056,-2.2528340816497803,3.7957215309143066
37,42719,42717,0.00478200800716877,-0.028395961970090866,0.8624925017356873,24.195293426513672,-4.895759582519531,-4.400057792663574,2.0143487453460693,4.006355285644531,0.24793140590190887,-0.292062908411026,-1.998785138130188,3.754253387451172
38,42729,42727,0.0407012440264225,-0.06466303020715714,0.8084557056427002,17.313068389892578,-12.283346176147461,-5.2033820152282715,2.013420581817627,4.006741046905518,0.25071921944618225,-0.017169110476970673,-1.7565338611602783,3.6494812965393066
39,42739,42737,0.02341470681130886,-0.08283786475658417,0.8984651565551758,8.497840881347656,-20.663715362548828,-5.11298131942749,2.0138487815856934,4.010829925537109,0.25369080901145935,0.35223034024238586,-1.9808948040008545,3.578239679336548
40,42749,42747,-0.03066582977771759,0.005600388161838055,0.9252323508262634,2.870492935180664,-27.353473663330078,-5.097917556762695,2.0132389068603516,4.011648178100586,0.2567466199398041,0.5897340774536133,-2.0633485317230225,3.5461313724517822
41,42759,42757,-0.1399463564157486,0.09972359240055084,0.898999810218811,1.8442803621292114,-30.812318801879883,-5.006554126739502,2.0114846229553223,4.014012813568115,0.25952157378196716,0.8942562341690063,-2.0406904220581055,3.4955408573150635
42,42769,42767,-0.09954895079135895,-0.016262926161289215,0.8403282165527344,3.7239508628845215,-27.136991500854492,-4.352066993713379,2.011228084564209,4.015995025634766,0.2619936764240265,1.270830750465393,-2.2101049423217773,3.4512135982513428
43,42779,42777,0.04503133147954941,-0.14336943626403809,0.7888567447662354,11.609068870544434,-22.336101531982422,-4.268645286560059,2.0105483531951904,4.017443656921387,0.26463520526885986,1.5615969896316528,-2.0583834648132324,3.3952994346618652
44,42789,42787,0.07071451842784882,-0.1467544287443161,0.7968195676803589,19.779926300048828,-13.589105606079102,-4.146607398986816,2.0085339546203613,4.019484043121338,0.26565057039260864,1.6717067956924438,-1.9153316020965576,3.367300033569336
45,42799,42797,0.007413470186293125,0.023174455389380455,0.8404534459114075,23.95035743713379,-4.044137477874756,-3.563577890396118,2.0082364082336426,4.02023458480835,0.2677234411239624,1.8705815076828003,-1.718161940574646,3.309886932373047
46,42809,42807,-0.07650648802518845,0.12330394238233566,0.8267835974693298,27.807025909423828,3.5605640411376953,-2.2803268432617188,2.0085744857788086,4.022036552429199,0.2694619596004486,1.923181176185608,-1.4879755973815918,3.268650770187378
47,42819,42817,-0.0042985244654119015,-0.015571525320410728,0.848448634147644,28.52762794494629,9.643282890319824,-2.30043888092041,2.010427713394165,4.018311500549316,0.27142202854156494,1.923181176185608,-1.4879755973815918,3.268650770187378
48,42829,42827,-0.04705917090177536,-0.00867526140064001,0.9325823187828064,26.839092254638672,11.418028831481934,-2.117762804031372,2.011770725250244,4.02187967300415,0.27323082089424133,1.7501940727233887,-1.331913948059082,3.292867422103882
49,42839,42837,0.02625805325806141,-0.13502030074596405,0.9158684611320496,23.34950828552246,10.307304382324219,-1.3611714839935303,2.01254940032959,4.021590232849121,0.2747706472873688,1.7807886600494385,-1.0383460521697998,3.237851142883301
50,42849,42847,0.032518137246370316,-0.06964782625436783,0.9005914926528931,19.292633056640625,5.706842422485352,-0.8876255750656128,2.0106663703918457,4.023841381072998,0.2762416899204254,1.6706523895263672,-1.0890467166900635,3.282172203063965
51,42859,42857,0.005145162343978882,-0.009770933538675308,0.8984388113021851,16.8544979095459,0.8336976766586304,-1.1705085039138794,2.008129119873047,4.028876304626465,0.2751553952693939,1.7091820240020752,-0.7211037278175354,3.209268808364868
52,42869,42867,-0.012802032753825188,-0.012504113838076591,0.9223711490631104,15.146236419677734,-1.0001815557479858,-1.3967489004135132,2.0073466300964355,4.028334140777588,0.27641233801841736,1.68453848361969,-0.5463347434997559,3.1985995769500732
53,42879,42877,-0.09244069457054138,0.15194985270500183,0.9237357378005981,14.538270950317383,-4.12517786026001,-0.35670825839042664,2.006417751312256,4.034088134765625,0.27730128169059753,1.7622555494308472,-0.49786287546157837,3.2058041095733643
54,42889,42887,-0.006850761827081442,-0.003385995514690876,0.9028633832931519,17.024564743041992,-2.245509624481201,-0.07909417897462845,2.004216194152832,4.033575057983398,0.27784082293510437,1.8158369064331055,-0.3421095013618469,3.1853694915771484
55,42899,42897,0.014365220442414284,-0.0464010164141655,0.9228144288063049,18.49260711669922,2.0437469482421875,0.8919728398323059,2.003957509994507,4.034672260284424,0.27870580554008484,1.8447723388671875,-0.16378602385520935,3.1825385093688965
56,42909,42907,0.0010052393190562725,-0.0276059377938509,0.9374489784240723,19.818649291992188,7.212398529052734,1.8147258758544922,2.0046939849853516,4.036967754364014,0.27934134006500244,1.777021884918213,0.07821421325206757,3.175381898880005
57,42919,42917,0.009758435189723969,-0.047240834683179855,0.941068708896637,19.801313400268555,10.67678165435791,2.5458102226257324,2.0073697566986084,4.033194065093994,0.27752235531806946,1.7303342819213867,0.29548951983451843,3.18729829788208
58,42929,42927,0.0008747831452637911,-0.016119902953505516,0.9410181045532227,18.75448989868164,12.293256759643555,3.3135132789611816,2.007249116897583,4.03398323059082,0.27797046303749084,1.7088053226470947,0.42541512846946716,3.22817063331604
59,42939,42937,0.006867760326713324,-0.019116492941975594,0.9497564435005188,17.078832626342773,12.359825134277344,4.230594635009766,2.006044387817383,4.035084247589111,0.2783347964286804,1.6522542238235474,0.7013255953788757,3.240807294845581
60,42949,42947,0.03543771430850029,-0.06523638218641281,0.9102562069892883,13.210585594177246,10.68169116973877,4.86732816696167,2.0053257942199707,4.035238265991211,0.2786932587623596,1.4338045120239258,0.9233494400978088,3.266616106033325
61,42959,42957,-0.011198660358786583,-0.09534025192260742,1.0710395574569702,10.43040657043457,11.164264678955078,5.040099620819092,2.0060205459594727,4.035317897796631,0.27875804901123047,1.5447579622268677,0.929604172706604,3.3648488521575928
62,42969,42967,-0.06836818158626556,0.016954166814684868,1.0104236602783203,8.193480491638184,6.119662761688232,5.5541768074035645,2.003331184387207,4.037613868713379,0.27902674674987793,1.4312723875045776,1.0680516958236694,3.415419578552246
63,42979,42977,-0.06667370349168777,0.0818454697728157,1.0000526905059814,5.306771755218506,7.758909225463867,5.396572589874268,2.003075122833252,4.036142349243164,0.2793704867362976,1.3754022121429443,1.1537755727767944,3.471728801727295
64,42989,42987,-0.027142547070980072,0.015524453483521938,1.0029312372207642,5.695276737213135,7.384793758392334,5.415694236755371,2.0035102367401123,4.037054061889648,0.28149598836898804,1.34529447555542,1.2710298299789429,3.5190067291259766
65,42999,42997,-0.03587648272514343,0.0043671815656125546,0.9715503454208374,6.201529026031494,8.461042404174805,6.050680160522461,2.0023763179779053,4.037470817565918,0.28194189071655273,1.164989948272705,1.313449501991272,3.559488534927368
66,43009,43007,-0.019126398488879204,-0.009813846088945866,0.9951874017715454,6.445826530456543,9.467584609985352,6.09613561630249,2.0023438930511475,4.039438724517822,0.28244200348854065,1.2086753845214844,1.4396287202835083,3.6277291774749756
67,43019,43017,-0.002726777223870158,0.01614825800061226,1.0483267307281494,6.981105327606201,9.945205688476562,6.569488048553467,2.0003864765167236,4.038902282714844,0.285160630941391,1.1193650960922241,1.5024656057357788,3.691030263900757
68,43029,43027,-0.03525453060865402,0.053496163338422775,0.9591767191886902,6.204918384552002,12.200311660766602,6.143372058868408,1.9995372295379639,4.039846420288086,0.2857673764228821,0.9943645000457764,1.6163160800933838,3.744570016860962
69,43039,43037,-0.058293066918849945,0.09742072969675064,1.0083258152008057,5.634106159210205,12.81212329864502,6.196990013122559,1.9984842538833618,4.03818941116333,0.2864050269126892,0.9662685394287109,1.6418664455413818,3.837463855743408
70,43049,43047,0.044623199850320816,0.031871695071458817,1.041048526763916,5.145026206970215,13.55443286895752,5.280109405517578,1.9961718320846558,4.040205001831055,0.28697770833969116,0.6842482089996338,1.8098067045211792,3.842266321182251
71,43059,43057,0.02123267762362957,-0.016027389094233513,0.9921344518661499,4.714856147766113,15.40424919128418,4.920815944671631,1.995906114578247,4.040036201477051,0.2863023281097412,0.5495919585227966,1.8786020278930664,3.8965506553649902
72,43069,43067,-0.02453313022851944,0.06974632292985916,0.9564772844314575,2.985234022140503,11.69141674041748,5.560063362121582,1.9951587915420532,4.039377212524414,0.2868731915950775,0.42200687527656555,1.8486136198043823,3.9672672748565674
73,43079,43077,-0.011010361835360527,0.10279117524623871,0.9524717330932617,2.640413284301758,8.537463188171387,4.9882307052612305,1.992719292640686,4.040475845336914,0.2875315845012665,0.32071277499198914,1.8834493160247803,4.041950702667236
74,43089,43087,0.029483968392014503,0.11866969615221024,0.9282529354095459,0.5322271585464478,11.832782745361328,4.278578281402588,1.9921982288360596,4.040800094604492,0.2860625088214874,0.2524559199810028,1.897868275642395,4.095578193664551
75,43099,43097,-0.025991953909397125,0.05761843919754028,0.9573379158973694,-3.2582945823669434,9.542659759521484,3.4208719730377197,1.9902514219284058,4.041084289550781,0.28641432523727417,0.008327106945216656,1.8591856956481934,4.102955341339111
76,43109,43107,-0.0016939190682023764,-0.16138367354869843,1.0033600330352783,-2.928011894226074,6.118322849273682,4.193268775939941,1.9914427995681763,4.043129920959473,0.286713182926178,-0.02575479820370674,1.9416025876998901,4.1517133712768555
77,43119,43117,0.02882613241672516,-0.0500916913151741,0.9829018712043762,-3.281374454498291,6.43386173248291,3.2750351428985596,1.9897280931472778,4.042271137237549,0.28659263253211975,-0.11090322583913803,1.9295434951782227,4.185328960418701
78,43129,43127,0.06569844484329224,-0.07582895457744598,0.983430027961731,-3.583721876144409,4.085285186767578,3.567216157913208,1.9887622594833374,4.04118537902832,0.2868158519268036,-0.1796809881925583,1.905414342880249,4.2188520431518555
79,43139,43137,0.06589511036872864,-0.0846889540553093,0.9630375504493713,-4.225711345672607,2.54304575920105,3.943843126296997,1.9888484477996826,4.0412278175354,0.28700774908065796,-0.21832692623138428,1.8715323209762573,4.257559776306152
80,43149,43147,0.06959956884384155,-0.09911398589611053,0.9903438091278076,-4.733022689819336,1.9842573404312134,3.3285889625549316,1.988283634185791,4.041429042816162,0.2871641218662262,-0.24854208528995514,1.830068826675415,4.29683256149292
81,43159,43157,0.001219995436258614,0.03391880542039871,0.9029197692871094,-5.870429515838623,2.3557636737823486,2.8690905570983887,1.9881149530410767,4.041532516479492,0.28965499997138977,-0.19509705901145935,1.9211899042129517,4.3579816818237305
82,43169,43167,-0.03032075986266136,0.037144556641578674,1.0204299688339233,-5.775913715362549,2.5240817070007324,2.5155582427978516,1.9868576526641846,4.040195465087891,0.28983205556869507,-0.2920909821987152,1.8347272872924805,4.357550621032715
83,43179,43177,0.019245751202106476,-0.029345888644456863,1.0348087549209595,-7.3633551597595215,-1.1697697639465332,3.313875198364258,1.9861093759536743,4.04030704498291,0.29007488489151,-0.35850203037261963,1.7330824136734009,4.36765193939209
84,43189,43187,0.11239912360906601,-0.21848207712173462,1.0621272325515747,-6.53222131729126,6.152279853820801,1.9193434715270996,1.9858638048171997,4.040087699890137,0.28919801115989685,-0.3609625995159149,1.6651067733764648,4.396744728088379
85,43199,43197,0.057933252304792404,-0.2484305053949356,1.0376578569412231,-7.82927942276001,7.3885817527771,2.3184218406677246,1.9858112335205078,4.041321277618408,0.2894374132156372,-0.47036200761795044,1.6495062112808228,4.411764144897461
86,43209,43207,-0.002191909123212099,-0.2114766240119934,1.0678284168243408,-5.788088321685791,3.8223555088043213,2.0048139095306396,1.9842058420181274,4.038947582244873,0.28972896933555603,-0.5363104939460754,1.6710798740386963,4.449001312255859
87,43219,43217,0.02712078206241131,-0.03091004677116871,0.9885002374649048,-5.779368877410889,4.017367839813232,1.6192706823349,1.9836889505386353,4.037649631500244,0.2913627624511719,-0.6415567398071289,1.4814716577529907,4.435699939727783
88,43229,43227,0.015564478002488613,-0.04567946493625641,0.9817978739738464,-8.683778762817383,2.704134702682495,1.200845718383789,1.983919382095337,4.03886604309082,0.29184746742248535,-0.7318931818008423,1.4297376871109009,4.436894416809082
89,43239,43237,-0.0013593611074611545,-0.052984971553087234,0.9803453683853149,-9.239795684814453,1.0524042844772339,1.1087586879730225,1.9841684103012085,4.038686275482178,0.29225093126296997,-0.564858078956604,1.4214104413986206,4.520373344421387
90,43249,43247,0.02435038611292839,-0.04450151324272156,0.9724252223968506,-9.710390090942383,-4.198073863983154,0.36310553550720215,1.9819839000701904,4.037586212158203,0.2926824986934662,-0.5882375240325928,1.3147776126861572,4.524008750915527
91,43259,43257,0.017643406987190247,0.02031802572309971,1.0783076286315918,-8.82368278503418,-5.319616794586182,-0.11239029467105865,1.9817850589752197,4.037597179412842,0.288156658411026,-0.5528137683868408,1.1347471475601196,4.513991355895996
92,43269,43267,-0.034685179591178894,0.08218179643154144,0.9660102128982544,-10.43499755859375,-3.7254254817962646,0.5699533224105835,1.9814108610153198,4.038229942321777,0.2883073091506958,-0.5163991451263428,1.1831835508346558,4.526509761810303
93,43279,43277,-0.028982162475585938,-0.0056707849726080894,1.0958306789398193,-7.778501987457275,-1.3471235036849976,0.25412097573280334,1.9807078838348389,4.0352020263671875,0.2884664237499237,-0.5031750798225403,1.1424614191055298,4.5335493087768555
94,43289,43287,0.0281932782381773,-0.04154116287827492,1.0442230701446533,-6.622322082519531,-0.39875802397727966,-0.025297727435827255,1.9810477495193481,4.034052848815918,0.28951695561408997,-0.5115805864334106,1.0449843406677246,4.527126312255859
95,43299,43297,-0.03682703524827957,0.07144250720739365,0.9711410999298096,-8.961508750915527,1.5960636138916016,-0.009022099897265434,1.980346441268921,4.032442092895508,0.2898845672607422,-0.509390652179718,0.9738771319389343,4.527105808258057
96,43309,43307,-0.02669917792081833,-0.0055655185133218765,1.01600980758667,-9.753683090209961,0.7368638515472412,-0.5596922039985657,1.9811735153198242,4.030055522918701,0.2901579737663269,-0.5965166687965393,0.8857214450836182,4.508197784423828
97,43319,43317,-0.014486158266663551,0.11297250539064407,0.9965353608131409,-13.842280387878418,1.1102217435836792,-0.3157029449939728,1.9811687469482422,4.030660629272461,0.290702760219574,-0.5573722124099731,0.724272608757019,4.505652904510498
98,43329,43327,-0.018871231004595757,-0.009249663911759853,0.9841353893280029,-15.137307167053223,-1.0584094524383545,-1.039738416671753,1.9802640676498413,4.030290603637695,0.2910613715648651,-0.5848010778427124,0.7489272952079773,4.521610260009766
99,43339,43337,-0.06004882976412773,0.030325789004564285,0.9819232821464539,-15.092730522155762,-2.091444730758667,-0.22176310420036316,1.9803229570388794,4.027835845947266,0.2913493812084198,-0.5757662057876587,0.5904027819633484,4.508946895599365
100,43349,43347,-0.019180890172719955,0.04654103145003319,1.0518046617507935,-12.870731353759766,-4.122987747192383,-1.0668967962265015,1.9798256158828735,4.02801513671875,0.2931283116340637,-0.5507789850234985,0.4411885142326355,4.50572395324707
101,43359,43357,-0.019956791773438454,-0.014298358000814915,1.041696310043335,-11.987970352172852,-4.51102876663208,-1.2861933708190918,1.9784079790115356,4.028446674346924,0.29360222816467285,-0.4292808771133423,0.3373413681983948,4.5164408683776855
102,43369,43367,0.011827492155134678,-0.012235504575073719,1.0326566696166992,-9.64447021484375,-3.6798529624938965,-0.9030342698097229,1.9783891439437866,4.028519630432129,0.29413482546806335,-0.46113890409469604,0.23882931470870972,4.495666027069092
103,43379,43377,0.04573342204093933,-0.05243567004799843,1.070526123046875,-6.660881996154785,7.200961589813232,-1.7704428434371948,1.9788742065429688,4.026851177215576,0.2946928143501282,-0.506300687789917,0.18079525232315063,4.4826507568359375
104,43389,43387,-0.024222133681178093,0.07042396813631058,1.0507529973983765,-6.317671298980713,18.16566276550293,-1.9419059753417969,1.9795399904251099,4.024078845977783,0.29466965794563293,-0.7001452445983887,0.0758318305015564,4.4440083503723145
105,43399,43397,-0.06447707861661911,0.11790341138839722,0.9665570855140686,-8.573092460632324,23.781845092773438,-1.8492839336395264,1.9805902242660522,4.023605823516846,0.295311838388443,-0.7947683334350586,-0.03724367171525955,4.425756931304932
106,43409,43407,0.03975339233875275,-0.09821397066116333,1.1345601081848145,-9.002002716064453,23.106908798217773,-1.5232690572738647,1.9803870916366577,4.02320671081543,0.2960611581802368,-0.9834874272346497,0.04586922749876976,4.4389753341674805
107,43419,43417,-0.008136899210512638,0.01797032542526722,1.0184502601623535,-8.984132766723633,19.77664566040039,-1.7482411861419678,1.9793870449066162,4.02219820022583,0.2959958016872406,-1.2840626239776611,-0.04128652065992355,4.4204559326171875
108,43429,43427,-0.03534592315554619,0.05781477689743042,0.9970042705535889,-10.51542854309082,16.23602867126465,-2.2725818157196045,1.9795597791671753,4.02329158782959,0.2967158555984497,-1.5353583097457886,-0.2138047218322754,4.382934093475342
109,43439,43437,0.007577382959425449,-0.05928666144609451,1.0196678638458252,-10.342601776123047,7.735869884490967,-2.0914151668548584,1.9799649715423584,4.023445129394531,0.2974136769771576,-1.5721731185913086,-0.311993271112442,4.365481376647949
110,43449,43447,0.011019004508852959,-0.03676736354827881,1.0050084590911865,-10.10399055480957,1.2242510318756104,-1.8174046277999878,1.979493260383606,4.022817611694336,0.293850839138031,-1.644648790359497,-0.4184717833995819,4.344362735748291
111,43459,43457,0.03518901392817497,-0.004689940717071295,1.055987000465393,-8.40565013885498,-2.9449737071990967,-2.159233570098877,1.9789502620697021,4.021081447601318,0.29430073499679565,-1.6159588098526,-0.49898841977119446,4.329955101013184
112,43469,43467,0.0016873397398740053,0.04500740021467209,0.9493181109428406,-6.855682373046875,-4.772301197052002,-2.3139567375183105,1.9785090684890747,4.020086765289307,0.2948076128959656,-1.5790766477584839,-0.5808371901512146,4.3010029792785645
113,43479,43477,0.011002188548445702,-0.03504587709903717,0.9322941303253174,-5.195419788360596,-3.9656262397766113,-2.120588779449463,1.9783999919891357,4.018013954162598,0.29524457454681396,-1.6075021028518677,-0.7274880409240723,4.261007308959961
114,43489,43487,-0.03344864025712013,0.09105467051267624,0.9495622515678406,-3.126225233078003,-2.6404619216918945,-1.783789873123169,1.9793813228607178,4.018798351287842,0.29407915472984314,-1.4325313568115234,-0.6994597911834717,4.2474188804626465
115,43499,43497,0.02666252851486206,0.02284485474228859,0.9528380036354065,-1.6670044660568237,3.5169999599456787,-2.03731107711792,1.9781277179718018,4.0168538093566895,0.2944731116294861,-1.5991921424865723,-0.7289419770240784,4.235161304473877
116,43509,43507,0.037835054099559784,-0.03555092215538025,0.9173405766487122,-3.856396436691284,6.562869548797607,-2.1386752128601074,1.9798645973205566,4.016347408294678,0.2946431636810303,-1.6744630336761475,-0.7673385143280029,4.207730770111084
117,43519,43517,0.04533982649445534,-0.19667306542396545,1.0099529027938843,-2.8524420261383057,5.39521598815918,-1.3093373775482178,1.979727864265442,4.016543865203857,0.2958360016345978,-1.747576117515564,-0.8946681618690491,4.167900085449219
118,43529,43527,0.06171517074108124,-0.10503403842449188,0.9799997210502625,-4.0219011306762695,4.559673309326172,-1.3586478233337402,1.9805055856704712,4.017338275909424,0.29603052139282227,-1.8627643585205078,-0.85466068983078,4.176745414733887
119,43539,43537,0.042682915925979614,-0.09417349845170975,1.021012783050537,-4.192442417144775,2.199110746383667,-1.4563570022583008,1.9813281297683716,4.017100811004639,0.2961198091506958,-1.794234037399292,-0.8350043296813965,4.171257019042969
120,43549,43547,0.01728823222219944,-0.16534386575222015,0.9009270668029785,-1.9828367233276367,0.3482280373573303,-1.9085609912872314,1.9803450107574463,4.016619682312012,0.2952283024787903,-1.8365129232406616,-0.7936733365058899,4.174015045166016
121,43559,43557,0.028397977352142334,-0.12480197101831436,0.8867855668067932,-3.340700387954712,-3.8822429180145264,-1.1565241813659668,1.981613278388977,4.015253067016602,0.2952297627925873,-1.7568093538284302,-0.9113548398017883,4.123032569885254
122,43569,43567,0.08217059820890427,-0.1961386799812317,1.0428788661956787,-1.7670209407806396,-7.963179111480713,-1.669976830482483,1.9812555313110352,4.016595363616943,0.29532647132873535,-1.757021188735962,-1.0218498706817627,4.098718166351318
123,43579,43577,0.05476020649075508,-0.07979919016361237,0.9646312594413757,-1.496418833732605,-4.132021427154541,-1.9460363388061523,1.9824066162109375,4.016223907470703,0.29529330134391785,-1.6798263788223267,-0.8639094829559326,4.127940654754639
124,43589,43587,-0.010406321845948696,-0.07698199898004532,0.9457346200942993,-2.8394358158111572,-4.438877582550049,-2.5503921508789062,1.9844390153884888,4.0149455070495605,0.29757580161094666,-1.714935541152954,-0.9717742800712585,4.101218223571777
125,43599,43597,0.024621492251753807,-0.17200693488121033,1.0330597162246704,-1.719720482826233,-4.598560810089111,-2.9666831493377686,1.9849138259887695,4.015339374542236,0.2976283133029938,-1.6697100400924683,-0.9996480941772461,4.07338285446167
126,43609,43607,0.05582975968718529,-0.09463454782962799,0.9881724119186401,-0.47934645414352417,-3.8130736351013184,-4.255681037902832,1.986732840538025,4.013910293579102,0.29776161909103394,-1.5161857604980469,-1.0493800640106201,4.021911144256592
127,43619,43617,0.01964879035949707,-0.014591137878596783,0.918442964553833,-0.906115710735321,-2.7489371299743652,-4.00714635848999,1.98694908618927,4.015158653259277,0.2971397936344147,-1.573598861694336,-1.0301917791366577,3.999527931213379
128,43629,43627,-0.008645937778055668,0.07343489676713943,1.054129958152771,-0.09679790586233139,-3.9312071800231934,-4.492856025695801,1.9901107549667358,4.014013290405273,0.29705938696861267,-1.5387221574783325,-1.0376981496810913,3.959514617919922
129,43639,43637,0.03921778127551079,-0.06397147476673126,1.1171619892120361,-0.4881522059440613,-2.0669424533843994,-4.397963047027588,1.9913005828857422,4.0129313468933105,0.2970000207424164,-1.50706946849823,-1.104682445526123,3.9004528522491455
130,43649,43647,0.059186194092035294,-0.08764802664518356,1.047058343887329,1.7916525602340698,-1.2679049968719482,-5.212663173675537,1.993329644203186,4.0120062828063965,0.29515352845191956,-1.5065715312957764,-1.025234580039978,3.880805730819702
131,43659,43657,0.029629312455654144,-0.01487059984356165,1.0336605310440063,-0.1823064535856247,-2.259171962738037,-5.657200813293457,1.9947798252105713,4.011298179626465,0.29521018266677856,-1.5406877994537354,-1.0603413581848145,3.8239994049072266
132,43669,43667,0.004799365997314453,-0.058649539947509766,0.9905961751937866,0.8474668264389038,-4.0539398193359375,-5.682713031768799,1.9957607984542847,4.01099157333374,0.2951411306858063,-1.461191177368164,-1.0920203924179077,3.7518112659454346
133,43679,43677,-0.011107579804956913,0.049548834562301636,1.067528247833252,0.6007372140884399,-6.079115867614746,-5.907390594482422,1.9965394735336304,4.009194850921631,0.29607486724853516,-1.3634895086288452,-1.113645076751709,3.6784191131591797
134,43689,43687,0.01763543300330639,-0.09113810211420059,1.0575652122497559,2.158409595489502,-8.195613861083984,-5.772469520568848,1.9968737363815308,4.009157180786133,0.29619187116622925,-1.303826928138733,-1.1213600635528564,3.6202924251556396
135,43699,43697,0.03847217559814453,-0.0934196189045906,1.0814906358718872,2.235677480697632,-10.559646606445312,-5.107100486755371,1.9967973232269287,4.008713722229004,0.2963288128376007,-1.1147996187210083,-1.1101868152618408,3.5522425174713135
136,43709,43707,0.015582617372274399,0.014956831932067871,1.1766273975372314,5.174719333648682,-9.602580070495605,-5.02335262298584,1.9968128204345703,4.0083136558532715,0.2965824007987976,-1.1727701425552368,-0.9835066199302673,3.548529624938965
137,43719,43717,-0.03744165226817131,0.07028478384017944,0.9833678007125854,6.445085048675537,-4.420618534088135,-5.363489151000977,1.9984924793243408,4.007061958312988,0.298206627368927,-1.1240357160568237,-0.9013389348983765,3.502197027206421
138,43729,43727,-0.007681148126721382,0.018449759110808372,1.0257084369659424,5.269551753997803,-3.5574252605438232,-5.393402576446533,1.9997540712356567,4.006742000579834,0.2986297905445099,-1.0270038843154907,-0.9132516384124756,3.4244534969329834
139,43739,43737,0.027479132637381554,-0.077804334461689,1.0345039367675781,4.794559478759766,-4.95053243637085,-5.415618419647217,1.9998530149459839,4.009060382843018,0.29921191930770874,-0.9026620388031006,-0.8528114557266235,3.3657066822052
140,43749,43747,0.023081334307789803,-0.010049763135612011,1.033471703529358,2.636265993118286,-5.658836841583252,-5.130959510803223,1.9998137950897217,4.007934093475342,0.3001728653907776,-0.9504905939102173,-0.740330159664154,3.3424673080444336
141,43759,43757,-0.003266172716394067,-0.04808665066957474,1.0139044523239136,1.9427165985107422,-6.794424533843994,-5.364646911621094,2.0014026165008545,4.006200790405273,0.3006804585456848,-0.733978271484375,-0.7361022233963013,3.2600185871124268
142,43769,43767,0.02622547373175621,-0.024995693936944008,1.0063759088516235,0.0707583874464035,-7.6064653396606445,-5.440835952758789,2.000663995742798,4.005573272705078,0.30143463611602783,-0.8260508179664612,-0.751393735408783,3.227552890777588
143,43779,43777,-0.001271972432732582,-0.03817960247397423,0.9900305271148682,0.7808160781860352,-9.531885147094727,-4.969763278961182,2.0025863647460938,4.005029201507568,0.30228137969970703,-0.8730061650276184,-0.7580252289772034,3.194559097290039
144,43789,43787,-0.0020950441248714924,0.007358250208199024,1.0278607606887817,0.5167685747146606,-10.137670516967773,-5.62842321395874,2.0048718452453613,4.005093097686768,0.3027980327606201,-0.6588736772537231,-0.7691880464553833,3.121046543121338
145,43799,43797,0.010475771501660347,-0.04103653132915497,1.0160685777664185,1.9383206367492676,-11.801507949829102,-5.209942817687988,2.004983901977539,4.005067825317383,0.303562194108963,-0.4309349060058594,-0.7518635988235474,3.053584575653076
146,43809,43807,0.022951077669858932,-0.01905719004571438,0.9927855134010315,2.5750210285186768,-12.624872207641602,-4.6270751953125,2.0061099529266357,4.004577159881592,0.30437105894088745,-0.3501584231853485,-0.7239850163459778,3.011498212814331
147,43819,43817,0.008141674101352692,0.07651890069246292,0.988571047782898,4.919538974761963,-12.529865264892578,-4.5443034172058105,2.0074994564056396,4.004482269287109,0.3049927055835724,-0.2261780947446823,-0.6799328327178955,2.9682557582855225
148,43829,43827,-0.00010182743426412344,-0.017000801861286163,0.9638388156890869,5.557524681091309,-11.204469680786133,-4.309331893920898,2.0087034702301025,4.004870414733887,0.30565518140792847,-0.1255539357662201,-0.6814959645271301,2.9236977100372314
149,43839,43837,0.011628408916294575,-0.06855407357215881,0.9872182607650757,5.218168258666992,-8.398640632629395,-3.750302791595459,2.0086264610290527,4.003937721252441,0.3063772916793823,0.09634310007095337,-0.5950759053230286,2.877107858657837
150,43849,43847,-0.007571810856461525,-0.043562088161706924,1.1093523502349854,4.5125508308410645,-5.870141983032227,-3.5583205223083496,2.0110347270965576,4.0037970542907715,0.30928274989128113,0.039641011506319046,-0.5236327052116394,2.863262176513672
151,43859,43857,0.010172613896429539,-0.022723624482750893,0.9497107267379761,3.843566417694092,-2.434072256088257,-3.6820452213287354,2.011023759841919,4.00472354888916,0.3101472854614258,0.1739196926355362,-0.4522486925125122,2.8184728622436523
152,43869,43867,-0.04351246729493141,0.036184392869472504,0.9251649975776672,2.673696279525757,-0.05406879633665085,-3.151035785675049,2.0121665000915527,4.00581693649292,0.3110339641571045,0.13875065743923187,-0.5526948571205139,2.785581350326538
153,43879,43877,-0.02932283841073513,-0.04446142539381981,1.0405068397521973,2.9873201847076416,0.10695439577102661,-2.8159642219543457,2.012577772140503,4.006311416625977,0.3112836480140686,0.2566083073616028,-0.5914298295974731,2.7474184036254883
154,43889,43887,-0.03844964876770973,-0.07543117552995682,1.048514723777771,3.6066887378692627,-0.1652422398328781,-2.8894379138946533,2.0158138275146484,4.006453037261963,0.3120165467262268,0.16892489790916443,-0.527877151966095,2.7323343753814697
155,43899,43897,-0.07853523641824722,0.07615763694047928,0.9672865867614746,3.4407410621643066,0.3067808449268341,-2.259777069091797,2.0156078338623047,4.005305290222168,0.31289929151535034,0.08700908720493317,-0.48879700899124146,2.7106246948242188
156,43909,43907,-0.006410099565982819,-0.13531401753425598,0.9519543647766113,2.9627108573913574,-0.7640764713287354,-2.352494716644287,2.019183397293091,4.006262302398682,0.3134327232837677,0.09383842349052429,-0.46089863777160645,2.688405990600586
157,43919,43917,-0.04277050867676735,-0.04798799008131027,0.9873393774032593,2.597670078277588,-3.336730718612671,-2.4598159790039062,2.0200560092926025,4.0058207511901855,0.31432831287384033,0.241631880402565,-0.40650680661201477,2.6492857933044434
158,43929,43927,-0.04382481426000595,0.05334847420454025,0.8962346911430359,2.866320848464966,-5.909428119659424,-2.1713147163391113,2.0236241817474365,4.004779815673828,0.314982146024704,0.19459867477416992,-0.323004812002182,2.6288726329803467
159,43939,43937,-0.029040848836302757,0.027577698230743408,0.9886612296104431,2.5783016681671143,-6.86242151260376,-2.195422410964966,2.024008274078369,4.005275249481201,0.3157767653465271,0.4176218509674072,-0.26996251940727234,2.5949156284332275
160,43949,43947,-0.02031118795275688,0.038695793598890305,0.9362409114837646,2.0376856327056885,-6.848917007446289,-2.118644952774048,2.024559259414673,4.004859924316406,0.3191370666027069,0.5007510781288147,-0.2415287345647812,2.5727286338806152
161,43959,43957,-0.027892909944057465,0.10791469365358353,1.0053869485855103,2.5826363563537598,-6.05561637878418,-1.708324909210205,2.0278234481811523,4.0061187744140625,0.31984058022499084,0.3461950421333313,-0.34748128056526184,2.572176933288574
162,43969,43967,-0.011651609092950821,0.039318643510341644,0.9604042172431946,1.969460129737854,-4.1990251541137695,-2.0906548500061035,2.0266408920288086,4.004847049713135,0.32080596685409546,0.4952543079853058,-0.3113822638988495,2.555518865585327
163,43979,43977,0.06180155649781227,0.008486946113407612,0.9286240339279175,3.227411985397339,-2.6189661026000977,-2.0394961833953857,2.027374267578125,4.0039262771606445,0.3204154074192047,0.5639954209327698,-0.18635062873363495,2.519440174102783
164,43989,43987,0.08103586733341217,-0.13143108785152435,1.0081409215927124,2.5949385166168213,-1.8810763359069824,-2.1055350303649902,2.026676654815674,4.0044050216674805,0.3210705816745758,0.4161767363548279,-0.1891036480665207,2.4978220462799072
165,43999,43997,0.03297125920653343,-0.08025193214416504,0.926887571811676,2.152657985687256,-0.14631830155849457,-2.2763211727142334,2.0297863483428955,4.00502872467041,0.3215930759906769,0.43007588386535645,-0.16897712647914886,2.474416732788086
166,44009,44007,0.00981828197836876,0.003970628138631582,0.9590564370155334,1.0962625741958618,1.5363411903381348,-2.5705747604370117,2.030404567718506,4.005378723144531,0.323817640542984,0.5264737010002136,-0.12456893175840378,2.4466559886932373
167,44019,44017,0.03047589398920536,-0.12302619218826294,0.9302877187728882,0.501948356628418,0.6365296840667725,-2.491246223449707,2.0321712493896484,4.0044989585876465,0.32435914874076843,0.4317181706428528,-0.09979288280010223,2.4164812564849854
168,44029,44027,0.020458055660128593,-0.12179811298847198,0.9335033893585205,-1.9116137027740479,0.08744407445192337,-2.1997570991516113,2.0338449478149414,4.004631042480469,0.3249078094959259,0.44611111283302307,-0.15726430714130402,2.3970000743865967
169,44039,44037,0.07241640985012054,-0.10975649952888489,0.9430620074272156,-1.9064747095108032,-0.9912252426147461,-2.441190242767334,2.034041404724121,4.0035481452941895,0.32537707686424255,0.46624070405960083,-0.17248521745204926,2.3744688034057617
170,44049,44047,-0.024879081174731255,0.014582682400941849,0.9592648148536682,-0.7505254745483398,-2.7932658195495605,-2.0400471687316895,2.0351035594940186,4.002285957336426,0.3201770484447479,0.6126779317855835,-0.18560351431369781,2.3431556224823
171,44059,44057,0.008114350028336048,-0.031858891248703,0.9130361676216125,-0.4496581554412842,-2.591463565826416,-2.0114824771881104,2.0351600646972656,4.002030849456787,0.32029569149017334,0.6364191174507141,-0.19343341886997223,2.32191801071167
172,44069,44067,-0.06832873076200485,0.07575566321611404,0.9874712824821472,0.6927146315574646,-2.68994140625,-2.0714142322540283,2.0355522632598877,4.001950263977051,0.3202875554561615,0.6278170943260193,-0.18985581398010254,2.3012940883636475
173,44079,44077,-0.036412451416254044,0.0053268722258508205,0.9425963759422302,0.8227620124816895,-0.589425265789032,-1.4357898235321045,2.037032127380371,4.002023220062256,0.3208596110343933,0.6912965178489685,-0.165888711810112,2.2788846492767334
174,44089,44087,-0.03680270165205002,0.10560762137174606,0.8886763453483582,0.052614256739616394,2.140580415725708,-1.1789482831954956,2.0383739471435547,4.003321170806885,0.3207828104496002,0.6224572062492371,-0.13707390427589417,2.2570064067840576
175,44099,44097,-0.008512027561664581,0.09813521057367325,1.0006496906280518,0.08291369676589966,5.723086357116699,-1.1652021408081055,2.039787769317627,4.002273082733154,0.32073983550071716,0.6465439796447754,-0.12688203155994415,2.232957601547241
176,44109,44107,0.03675079345703125,0.02896461822092533,1.1054292917251587,1.5043275356292725,3.632969856262207,-0.44330134987831116,2.0412209033966064,4.003049850463867,0.3172518312931061,0.49136388301849365,-0.12491425126791,2.2226438522338867
177,44119,44117,-0.010817513801157475,0.10866662114858627,1.0406001806259155,2.3122897148132324,4.198467254638672,-0.17353135347366333,2.040611982345581,4.002676486968994,0.3169822692871094,0.5345203876495361,-0.08400345593690872,2.2069923877716064
178,44129,44127,-0.02899477817118168,0.10693520307540894,0.9185632467269897,2.078887701034546,4.472639083862305,0.12833291292190552,2.040996789932251,4.0024566650390625,0.3167233467102051,0.5211215615272522,-0.028149990364909172,2.1975204944610596
179,44139,44137,0.034127235412597656,-0.012464465573430061,0.950982391834259,0.8467807769775391,1.3627249002456665,-0.06421533226966858,2.04166841506958,4.002633094787598,0.31639498472213745,0.44654908776283264,0.00953676551580429,2.19218111038208
180,44149,44147,0.01587267406284809,0.01000017300248146,1.131380319595337,-0.6555538177490234,2.9633073806762695,0.5625928640365601,2.041613817214966,4.00341796875,0.3148846924304962,0.5086519122123718,-0.05330168083310127,2.199780225753784
181,44159,44157,-0.017188452184200287,0.028252553194761276,1.0221359729766846,-3.250218152999878,3.881218910217285,0.4510350823402405,2.0409719944000244,4.003961086273193,0.31456634402275085,0.4467266798019409,-0.056209951639175415,2.204935312271118
182,44169,44167,-0.017450062558054924,0.06312041729688644,1.023064136505127,-4.448979377746582,3.3463363647460938,0.07902181148529053,2.041142463684082,4.003511905670166,0.3142934739589691,0.42597097158432007,-0.09984051436185837,2.2103471755981445
183,44179,44177,-0.01638590544462204,-0.02250875160098076,1.009496808052063,-2.8865482807159424,1.9052472114562988,0.10278084129095078,2.044187307357788,4.003529071807861,0.31561505794525146,0.2835574746131897,-0.16075076162815094,2.209773540496826
184,44189,44187,0.027302561327815056,0.07144288718700409,1.0178959369659424,-2.542009115219116,1.6103519201278687,0.01713251695036888,2.044304132461548,4.003690242767334,0.3154796063899994,0.3269578218460083,-0.18983055651187897,2.213921546936035
185,44199,44197,0.02774040959775448,0.04634647071361542,1.0622026920318604,0.5409780144691467,1.452288269996643,-0.5707268714904785,2.044832706451416,4.003778457641602,0.31535741686820984,0.36782366037368774,-0.21519134938716888,2.2172932624816895
186,44209,44207,0.005201173014938831,0.0066754259169101715,1.0350422859191895,1.3981478214263916,1.0816327333450317,-1.4379128217697144,2.045827865600586,4.002608299255371,0.3148687779903412,0.4122711718082428,-0.11914562433958054,2.1995904445648193
187,44219,44217,-0.028061052784323692,0.10509558022022247,1.0094153881072998,2.949866771697998,1.8091262578964233,-1.234872579574585,2.0455636978149414,4.001437664031982,0.31481054425239563,0.45101630687713623,-0.08787616342306137,2.1763899326324463
188,44229,44227,0.019647981971502304,0.058928266167640686,1.0616240501403809,2.400390148162842,3.596097946166992,-0.5525803565979004,2.0462136268615723,4.000376224517822,0.3147830665111542,0.4788125157356262,-0.04313008114695549,2.1662399768829346
189,44239,44237,-0.02769971266388893,0.03871550038456917,1.0366822481155396,1.3745477199554443,5.1216583251953125,-0.2238977551460266,2.047290325164795,4.00004243850708,0.31315046548843384,0.32877814769744873,-0.07580521702766418,2.152811288833618
190,44249,44247,-0.13247035443782806,0.17688314616680145,0.9439870715141296,0.023834655061364174,7.9306864738464355,-1.0144721269607544,2.0489773750305176,3.9995346069335938,0.3131273090839386,0.3029402196407318,-0.03987551108002663,2.1470565795898438
191,44259,44257,-0.05087745189666748,0.05807748809456825,0.9648769497871399,-3.66021466255188,10.18881607055664,-1.0340662002563477,2.04994535446167,3.9997599124908447,0.31310752034187317,0.2398759126663208,-0.039468828588724136,2.1395254135131836
192,44269,44267,-0.020194854587316513,0.038605134934186935,1.0279794931411743,-5.994725227355957,6.6194000244140625,-0.7144051194190979,2.049386501312256,3.999915361404419,0.31308141350746155,0.17410708963871002,-0.09766890853643417,2.1349234580993652
193,44279,44277,-0.05644545331597328,0.059318989515304565,0.9579652547836304,-5.471651077270508,6.368377208709717,0.6863324642181396,2.0497846603393555,4.000241279602051,0.3133915960788727,0.12669600546360016,-0.208698108792305,2.1328980922698975
194,44289,44287,-0.020500395447015762,0.007912924513220787,1.0532786846160889,-3.7080626487731934,5.092441082000732,1.407219409942627,2.050940752029419,4.000537872314453,0.3132925033569336,0.0672856867313385,-0.2692512571811676,2.139413356781006
195,44299,44297,0.014406971633434296,-0.005352427251636982,1.137550711631775,0.5311139822006226,4.850421905517578,1.5152555704116821,2.0522897243499756,3.999675750732422,0.313317209482193,0.05972893536090851,-0.24806591868400574,2.1498546600341797
196,44309,44307,-0.049655478447675705,0.00042767036939039826,0.9758471250534058,4.8204145431518555,5.048925399780273,0.975578248500824,2.0512144565582275,3.9999210834503174,0.3118775188922882,0.11312170326709747,-0.19583167135715485,2.1607091426849365
197,44319,44317,-0.024959001690149307,-0.11001552641391754,0.9493740200996399,4.071160316467285,6.1423139572143555,1.7205314636230469,2.051500082015991,3.9993157386779785,0.3119676113128662,0.05388719215989113,-0.2787623405456543,2.187252998352051
198,44329,44327,-0.0014987544855102897,-0.0763162225484848,1.101219892501831,4.372535705566406,4.287604808807373,0.957687497138977,2.0526435375213623,4.001243591308594,0.3120085895061493,-0.007739257533103228,-0.23288977146148682,2.2063043117523193
199,44339,44337,0.00020878808572888374,-0.07008044421672821,0.9639058709144592,3.6191251277923584,7.3977251052856445,0.40425726771354675,2.053180456161499,4.001927852630615,0.30994129180908203,-0.19212783873081207,-0.16965579986572266,2.2091994285583496
200,44349,44347,0.018355224281549454,-0.10465072095394135,0.9138584136962891,1.8421961069107056,8.624700546264648,-0.4446241557598114,2.0553529262542725,4.001226902008057,0.3098636865615845,-0.30606091022491455,-0.26819196343421936,2.2195379734039307
201,44359,44357,0.05828418582677841,-0.18914476037025452,1.038661003112793,-1.3898890018463135,6.409012317657471,-0.8906334638595581,2.0556013584136963,4.0035319328308105,0.30969229340553284,-0.36842817068099976,-0.16995519399642944,2.2140769958496094
202,44369,44367,0.043643251061439514,-0.08693122863769531,0.9567582607269287,-1.3436079025268555,4.623210906982422,-1.8069323301315308,2.0559709072113037,4.002366542816162,0.3096672594547272,-0.3129177689552307,-0.2411278635263443,2.203552484512329
203,44379,44377,-0.0015093864640221,0.09517239034175873,0.9961686134338379,-0.9064730405807495,-0.4676016569137573,-2.901492118835449,2.05617618560791,4.002922058105469,0.31331995129585266,-0.3755761981010437,-0.23855189979076385,2.180877685546875
204,44389,44387,0.02739519625902176,-0.09628934413194656,1.0327532291412354,-2.715219497680664,3.666546583175659,-3.391937255859375,2.0569653511047363,4.002997398376465,0.313357949256897,-0.3086879849433899,-0.2708653509616852,2.153244733810425
205,44399,44397,0.01049464289098978,-0.014612617902457714,1.0311778783798218,-0.10724443942308426,5.34717321395874,-4.238584995269775,2.056859254837036,4.00273323059082,0.3135722875595093,-0.35299235582351685,-0.3418002724647522,2.1055970191955566
206,44409,44407,-0.020665740594267845,0.011544376611709595,0.9323215484619141,2.663816213607788,9.8642578125,-4.878669738769531,2.056638717651367,4.00450325012207,0.3131256103515625,-0.47299110889434814,-0.27321770787239075,2.0722146034240723
207,44419,44417,0.005965785589069128,0.024441752582788467,0.9335435628890991,4.698472023010254,12.638583183288574,-4.745851993560791,2.0573835372924805,4.003238677978516,0.3131842315196991,-0.619167685508728,-0.25925830006599426,2.0140819549560547
208,44429,44427,-0.026909301057457924,-0.08762156218290329,0.9834779500961304,2.9209158420562744,16.82703399658203,-4.61386775970459,2.0594229698181152,4.0037641525268555,0.31314733624458313,-0.7531591057777405,-0.170253187417984,1.966248869895935
209,44439,44437,-0.019772019237279892,0.03470129147171974,0.9890725612640381,6.868191242218018,17.816347122192383,-4.295699119567871,2.059941530227661,4.003513336181641,0.3116372227668762,-0.8581922650337219,-0.03895777091383934,1.9229036569595337
210,44449,44447,-0.005038500763475895,-0.004829415585845709,0.9945383667945862,7.87960147857666,14.023982048034668,-4.015360355377197,2.0596189498901367,4.002995014190674,0.31155142188072205,-1.0793079137802124,0.025858843699097633,1.8779048919677734
211,44459,44457,-0.004039257764816284,-0.015689311549067497,1.0094693899154663,6.520656585693359,9.020899772644043,-4.978444576263428,2.060593605041504,4.003255844116211,0.3113434910774231,-1.1939282417297363,0.10008230060338974,1.834420919418335
212,44469,44467,0.02580396644771099,-0.04611828923225403,0.9600154757499695,2.989206075668335,3.9139368534088135,-4.63409948348999,2.061115264892578,4.006036281585693,0.3112000524997711,-1.2425991296768188,0.03145976364612579,1.7872300148010254
213,44479,44477,0.028476625680923462,-0.08061765879392624,0.9929349422454834,-1.2072631120681763,-0.985417902469635,-5.114509105682373,2.062070846557617,4.00518274307251,0.3121010661125183,-1.195641040802002,-0.09101256728172302,1.7292400598526
214,44489,44487,0.004889440257102251,-0.01243263017386198,1.0276447534561157,-4.533375263214111,-2.55985951423645,-5.491735458374023,2.0614395141601562,4.00774621963501,0.3120487332344055,-1.1942899227142334,-0.02645173668861389,1.69353187084198
215,44499,44497,0.0050165243446826935,-0.033078234642744064,0.9770390391349792,-5.237326145172119,-1.8102400302886963,-5.247169494628906,2.0606467723846436,4.007724761962891,0.3119240403175354,-1.1029783487319946,-0.07871932536363602,1.6412667036056519
216,44509,44507,0.005242625717073679,-0.025813795626163483,1.0511181354522705,-4.0195231437683105,-2.168193817138672,-4.7882585525512695,2.0607948303222656,4.008062839508057,0.31150904297828674,-1.2456965446472168,-0.11845032125711441,1.5865386724472046
217,44519,44517,0.010038912296295166,0.1330878883600235,0.968035101890564,-2.6692330837249756,-1.9843578338623047,-3.4200775623321533,2.063871383666992,4.008144378662109,0.31133151054382324,-1.1335351467132568,-0.1228165477514267,1.5469017028808594
218,44529,44527,-0.01866832561790943,0.040903884917497635,0.9627916216850281,-3.5900461673736572,0.34812691807746887,-1.7387562990188599,2.0642764568328857,4.0073161125183105,0.3113238513469696,-1.1502890586853027,-0.15196536481380463,1.511109709739685
219,44539,44537,-0.005718963220715523,0.0071136909537017345,1.0152024030685425,-0.141070157289505,2.5228159427642822,-0.4509058892726898,2.065124750137329,4.006833076477051,0.31104663014411926,-1.155373454093933,-0.17702841758728027,1.4910860061645508
220,44549,44547,-0.00330305565148592,-0.02718922682106495,1.0304514169692993,3.0251948833465576,6.651829242706299,-0.20167985558509827,2.0660812854766846,4.006546974182129,0.3109937310218811,-1.1099971532821655,-0.1611304134130478,1.489712119102478
221,44559,44557,-0.016277501359581947,0.02574165351688862,0.9218190908432007,4.229176044464111,9.84775161743164,-0.5336446166038513,2.0667765140533447,4.006965637207031,0.31089624762535095,-1.2939248085021973,-0.056058041751384735,1.490318775177002
222,44569,44567,-0.016583647578954697,0.019679924473166466,0.977886438369751,4.4279890060424805,8.5457181930542,-1.4170470237731934,2.0692250728607178,4.006412029266357,0.31070980429649353,-1.3854038715362549,-0.11547543853521347,1.4625900983810425
223,44579,44577,-0.02106890082359314,-0.042611055076122284,0.9962548017501831,5.19094705581665,4.571131706237793,-2.9882357120513916,2.0669820308685303,4.008033752441406,0.31092557311058044,-1.4277700185775757,0.0020547015592455864,1.4522285461425781
224,44589,44587,0.03727118670940399,-0.08787372708320618,1.098279356956482,5.697484493255615,-4.683933258056641,-4.742537498474121,2.0672104358673096,4.007015228271484,0.31083211302757263,-1.4014688730239868,-0.03880678117275238,1.4041261672973633
225,44599,44597,0.06416642665863037,-0.14071457087993622,0.9918683767318726,4.231716156005859,-11.520037651062012,-6.106685161590576,2.0676257610321045,4.008182525634766,0.3107506036758423,-1.4888172149658203,-0.000372666196199134,1.3460865020751953
226,44609,44607,-0.013231595978140831,-0.06099517270922661,0.9272217750549316,3.0361669063568115,-18.701690673828125,-6.722981929779053,2.069993734359741,4.007026195526123,0.30951207876205444,-1.1498606204986572,0.10497411340475082,1.2772266864776611
227,44619,44617,0.00684848939999938,-0.02270195633172989,1.0468093156814575,3.636448621749878,-15.112139701843262,-8.501391410827637,2.068830966949463,4.00552225112915,0.30962073802948,-0.9588765501976013,0.19537471234798431,1.1977485418319702
228,44629,44627,0.014362680725753307,-0.011378377676010132,1.039972186088562,1.0174360275268555,-11.826716423034668,-9.643747329711914,2.0691592693328857,4.004977226257324,0.3094847500324249,-1.1330169439315796,0.18261319398880005,1.0894200801849365
229,44639,44637,0.00244296807795763,-0.0030989490915089846,0.9390231370925903,-4.298756122589111,-4.749108791351318,-10.446747779846191,2.0734238624572754,4.00555944442749,0.3097926080226898,-1.0485644340515137,0.09879425168037415,0.9755074381828308
230,44649,44647,-0.002415419789031148,-0.07442458719015121,0.9985832571983337,-7.6426262855529785,-2.3616178035736084,-10.919711112976074,2.0751006603240967,4.006314754486084,0.30965545773506165,-0.9035798907279968,0.02009693533182144,0.870794415473938
231,44659,44657,0.021615760400891304,-0.12223470211029053,1.0980348587036133,-6.8478546142578125,-4.350419044494629,-11.200128555297852,2.0749728679656982,4.006317138671875,0.30968713760375977,-1.0591309070587158,0.003679166780784726,0.75825434923172
232,44669,44667,-0.01988581009209156,-0.04876786470413208,1.0538086891174316,1.6850316524505615,-4.967294692993164,-11.955142974853516,2.0777316093444824,4.006028175354004,0.30825677514076233,-0.9387191534042358,-0.07331517338752747,0.6400220394134521
233,44679,44677,0.012544010765850544,-0.040062546730041504,1.0536690950393677,11.795114517211914,-7.0359063148498535,-12.595248222351074,2.0778255462646484,4.007179260253906,0.3082677125930786,-0.803285539150238,0.09305375814437866,0.5444819331169128
234,44689,44687,0.019251953810453415,-0.025172734633088112,1.0491780042648315,17.223400115966797,-4.613912105560303,-11.098970413208008,2.0777621269226074,4.006130695343018,0.30840417742729187,-0.8381187915802002,0.06603849679231644,0.38843899965286255
235,44699,44697,0.011430000886321068,-0.036279089748859406,1.0172269344329834,20.28270721435547,-8.234532356262207,-8.82852554321289,2.0803303718566895,4.007769584655762,0.30838674306869507,-0.8317660093307495,0.4437108635902405,0.30644527077674866
236,44709,44707,-0.021589118987321854,0.12259840965270996,0.9973422288894653,17.938175201416016,-6.983605861663818,-7.988569259643555,2.082036256790161,4.005659580230713,0.30790963768959045,-0.6704844832420349,0.48374348878860474,0.1942940652370453
237,44719,44717,0.015256484039127827,-0.0004112504539079964,0.9832106828689575,11.266401290893555,-6.244997024536133,-6.802000522613525,2.0820977687835693,4.006753444671631,0.3080994188785553,-0.7587223052978516,0.7594265937805176,0.10569029301404953
238,44729,44727,0.02767406590282917,0.03805052489042282,1.0440067052841187,0.3731233775615692,-9.681802749633789,-5.796169757843018,2.083876371383667,4.005475997924805,0.3080061674118042,-0.4919995665550232,0.7030434608459473,0.04426426813006401
239,44739,44737,-0.010184637270867825,-0.04417571425437927,0.9846507906913757,-7.667932033538818,-14.058337211608887,-5.761885643005371,2.082782506942749,4.006981372833252,0.30863556265830994,-0.4070369303226471,0.6645457148551941,-0.014396285638213158
240,44749,44747,-0.042420584708452225,-0.0824035182595253,0.9166380167007446,-13.850729942321777,-17.733535766601562,-5.994139194488525,2.083888292312622,4.0084662437438965,0.30869874358177185,-0.32788485288619995,0.5821618437767029,-0.07881475239992142
