,timestamp_start,timestamp_end,acc.x,acc.y,acc.z,gyro.x,gyro.y,gyro.z,stateEstimate.x,stateEstimate.y,stateEstimate.z,stabilizer.pitch,stabilizer.roll,stabilizer.yaw
0,41487,41485,0.005225462839007378,-0.05563325434923172,0.9733812212944031,-4.887450218200684,-14.126325607299805,2.124798059463501,1.9068410396575928,3.9060676097869873,0.1675182431936264,1.4350863695144653,1.1331870555877686,2.077955484390259
1,41497,41495,-0.029321687296032906,0.040970925241708755,1.0489869117736816,-10.171683311462402,-7.4728684425354,2.442070484161377,1.9064445495605469,3.9054791927337646,0.1696435809135437,1.5890028476715088,1.0358333587646484,2.103440761566162
2,41507,41505,-0.007414449006319046,0.018280362710356712,1.041120171546936,-14.898944854736328,3.495384693145752,2.693147659301758,1.904606580734253,3.905694007873535,0.17154841125011444,1.7492393255233765,0.7220366597175598,2.1892154216766357
3,41517,41515,-0.04584011435508728,0.0923137217760086,1.0037258863449097,-16.893903732299805,11.332565307617188,1.7258495092391968,1.9051481485366821,3.9014275074005127,0.173477903008461,1.7919495105743408,1.4598859548568726,2.0665342807769775
4,41527,41525,-0.0030233319848775864,0.06420626491308212,1.0310461521148682,-16.038928985595703,14.181516647338867,3.0509467124938965,1.903939962387085,3.902115821838379,0.17565885186195374,1.7140783071517944,1.2744687795639038,2.095989227294922
5,41537,41535,0.0014070530887693167,-0.057729657739400864,1.0711196660995483,-15.622344970703125,12.993943214416504,2.8946423530578613,1.9026479721069336,3.9023351669311523,0.17772544920444489,1.7334589958190918,1.076217532157898,2.1712586879730225
6,41547,41545,-0.023376313969492912,-0.04393291845917702,1.061173915863037,-17.374767303466797,12.453588485717773,2.1179394721984863,1.90293550491333,3.9042441844940186,0.180292546749115,1.5846542119979858,0.7619784474372864,2.2339694499969482
7,41557,41555,0.01625467836856842,-0.004119980148971081,0.9728326201438904,-19.61350440979004,14.044944763183594,0.9353007674217224,1.9020321369171143,3.903278112411499,0.18225155770778656,1.5568512678146362,0.5847980380058289,2.2782225608825684
8,41567,41565,0.019127914682030678,-0.02570183575153351,0.9615755081176758,-19.106515884399414,9.853099822998047,1.0638113021850586,1.9020122289657593,3.903280258178711,0.18385712802410126,1.305873990058899,0.31036072969436646,2.2880148887634277
9,41577,41575,0.020205242559313774,-0.10457582026720047,1.0494791269302368,-17.548227310180664,6.657423973083496,1.1667553186416626,1.9002572298049927,3.9021735191345215,0.18573324382305145,1.405419111251831,0.18979917466640472,2.3141067028045654
10,41587,41585,-0.016517452895641327,-0.0048088571056723595,1.0436577796936035,-11.482767105102539,3.950286626815796,1.2708415985107422,1.899293065071106,3.9021053314208984,0.1875941902399063,1.3861640691757202,0.10555043816566467,2.3217742443084717
11,41597,41595,-0.017571983858942986,0.03413485735654831,1.0517194271087646,-8.345560073852539,4.867331504821777,1.596787929534912,1.8990471363067627,3.903576135635376,0.18664051592350006,1.3805612325668335,-0.1344265639781952,2.360673189163208
12,41607,41605,0.028321852907538414,-0.07054491341114044,0.960512101650238,-5.986766815185547,7.387047290802002,0.8387669920921326,1.898236632347107,3.9046475887298584,0.1885572373867035,1.3636831045150757,-0.30474042892456055,2.399857759475708
13,41617,41615,-0.021028680726885796,0.02472928911447525,1.0619310140609741,-5.432464122772217,9.186287879943848,0.7475653290748596,1.898336410522461,3.905055522918701,0.19082686305046082,1.1635242700576782,-0.49709856510162354,2.4223432540893555
14,41627,41625,-0.04309818148612976,-0.023286445066332817,1.066402792930603,-3.4876129627227783,11.626382827758789,-0.07154000550508499,1.8986581563949585,3.9061965942382812,0.1931784600019455,1.0259250402450562,-0.6461619734764099,2.4424173831939697
15,41637,41635,-0.056241609156131744,0.026735099032521248,0.9784196615219116,-2.496537208557129,18.986600875854492,-0.5893106460571289,1.8952583074569702,3.904883861541748,0.1949855089187622,1.3421071767807007,-0.6752943396568298,2.453227996826172
16,41647,41645,0.04786143824458122,-0.0013966772239655256,0.9541804790496826,-1.069266676902771,18.29033088684082,-0.38355082273483276,1.8941611051559448,3.9049978256225586,0.1969873309135437,1.2014613151550293,-0.6899117231369019,2.4449374675750732
17,41657,41655,0.016466084867715836,-0.1388636976480484,1.0129905939102173,0.14579695463180542,14.514189720153809,0.23479385673999786,1.8940935134887695,3.905238628387451,0.19970807433128357,0.7589259147644043,-0.7606438994407654,2.449296236038208
18,41667,41665,0.06807263195514679,-0.3221967816352844,1.043138027191162,1.8916678428649902,14.789969444274902,-0.07246869057416916,1.8918631076812744,3.903812885284424,0.20283085107803345,0.8409928679466248,-0.5736194849014282,2.4169859886169434
19,41677,41675,0.02034119702875614,-0.15856140851974487,0.997473418712616,2.640268564224243,15.76333236694336,-0.4715094566345215,1.8916224241256714,3.903679370880127,0.20516933500766754,0.5982880592346191,-0.6023381352424622,2.4247756004333496
20,41687,41685,0.039778657257556915,0.031819868832826614,0.9587608575820923,0.5875652432441711,18.27364158630371,-1.0563803911209106,1.890584111213684,3.9037551879882812,0.20732995867729187,0.47652578353881836,-0.6202985644340515,2.420748472213745
21,41697,41695,0.06248103082180023,-0.005058644339442253,0.9482898712158203,-2.2241756916046143,14.690969467163086,-0.9862942695617676,1.8906199932098389,3.904498815536499,0.20907312631607056,0.20473778247833252,-0.592065691947937,2.4148387908935547
22,41707,41705,0.014550881460309029,-0.06874411553144455,1.027785301208496,-4.300046443939209,13.717297554016113,-1.1540778875350952,1.889366865158081,3.903961420059204,0.21112127602100372,0.12004176527261734,-0.6128506660461426,2.399545669555664
23,41717,41715,0.031289905309677124,-0.0855197086930275,1.0096566677093506,-5.113481044769287,12.636797904968262,-0.879783570766449,1.8882356882095337,3.902571678161621,0.21318419277668,-0.019757946953177452,-0.5842467546463013,2.3837857246398926
24,41727,41725,0.055872708559036255,-0.09900758415460587,0.9677494764328003,-3.56550931930542,9.879212379455566,-0.6781104803085327,1.886970043182373,3.9034368991851807,0.21415315568447113,-0.1308073252439499,-0.7128279209136963,2.3749847412109375
25,41737,41735,0.009996699169278145,0.04392458125948906,1.0155706405639648,-2.7381577491760254,8.362103462219238,-0.8776094317436218,1.8863118886947632,3.903110980987549,0.21627449989318848,-0.35089772939682007,-0.6597812175750732,2.373882293701172
26,41747,41745,0.014124676585197449,0.03704029321670532,1.0078339576721191,-0.4453578591346741,8.071468353271484,-1.2286508083343506,1.885798692703247,3.903099298477173,0.21833419799804688,-0.46625110507011414,-0.7475171089172363,2.364802122116089
27,41757,41755,-0.03567502647638321,0.05058605968952179,1.040132999420166,0.17351852357387543,5.947719573974609,-1.562185525894165,1.8849560022354126,3.903726816177368,0.22122523188591003,-0.5604982972145081,-0.7290619015693665,2.354670763015747
28,41767,41765,-0.06313300877809525,0.006327978800982237,0.9955610632896423,1.2275707721710205,3.5611929893493652,-1.4766578674316406,1.8844420909881592,3.903665542602539,0.22335779666900635,-0.6829637289047241,-0.7644561529159546,2.340843677520752
29,41777,41775,-0.052436020225286484,0.006557794287800789,0.996015191078186,1.0458898544311523,4.504004001617432,-1.1579140424728394,1.884708285331726,3.903285503387451,0.225515678524971,-0.8505390286445618,-0.778539776802063,2.3342909812927246
30,41787,41785,-0.019911862909793854,0.027280094102025032,0.9632217884063721,1.3221133947372437,2.853849172592163,-1.0164796113967896,1.8821651935577393,3.9022939205169678,0.2277504950761795,-0.6234021782875061,-0.7195908427238464,2.302955389022827
31,41797,41795,0.01600634679198265,-0.007489512208849192,0.962744951248169,1.0445832014083862,2.0335378646850586,-1.0263848304748535,1.8818691968917847,3.901674747467041,0.23141802847385406,-0.7836337089538574,-0.6655001640319824,2.3097856044769287
32,41807,41805,-0.0054094684310257435,0.027602948248386383,0.9871203899383545,1.4093990325927734,2.35685396194458,-1.3780076503753662,1.8794913291931152,3.9034831523895264,0.23361065983772278,-0.6163905262947083,-0.8334462642669678,2.254342794418335
33,41817,41815,0.007691388484090567,-0.0409209169447422,0.944978654384613,0.6757303476333618,3.3860371112823486,-1.204047679901123,1.8791652917861938,3.903301954269409,0.23593305051326752,-0.7730689644813538,-0.8294481039047241,2.25287127494812
34,41827,41825,-0.05256127938628197,0.0015361345140263438,0.9609318375587463,1.8645398616790771,4.4851298332214355,-1.5917893648147583,1.87834632396698,3.903768301010132,0.24054236710071564,-0.9206228852272034,-0.8219037652015686,2.2504613399505615
35,41837,41835,-0.03571976348757744,-0.005083001684397459,0.9533262848854065,2.933213710784912,6.166525840759277,-1.5918635129928589,1.8775278329849243,3.9037773609161377,0.24281014502048492,-0.9275951385498047,-0.8003782033920288,2.2327017784118652
36,41847,41845,-0.0636971965432167,0.04944731295108795,0.9513959288597107,4.464203834533691,3.7357237339019775,-1.4086809158325195,1.8758388757705688,3.904606342315674,0.24502766132354736,-0.9415468573570251,-0.7547743320465088,2.2159368991851807
37,41857,41855,-0.019378911703824997,-0.0022597466595470905,0.9145871996879578,4.838047981262207,4.809345245361328,-1.209247350692749,1.8767681121826172,3.904703140258789,0.24817010760307312,-1.097468614578247,-0.6897183060646057,2.2168471813201904
38,41867,41865,0.013433277606964111,-0.02590898796916008,0.950167179107666,5.59004020690918,1.1707524061203003,-1.1600011587142944,1.875939965248108,3.9058170318603516,0.25036847591400146,-1.1514102220535278,-0.7615795731544495,2.1796481609344482
39,41877,41875,-0.0843420997262001,0.055987391620874405,0.9965737462043762,6.442058563232422,-0.8264310359954834,-0.982035756111145,1.8758788108825684,3.905320405960083,0.2524632215499878,-1.2363989353179932,-0.7318355441093445,2.167088508605957
40,41887,41885,-0.10053382813930511,0.03411666676402092,0.9602063298225403,6.938685417175293,-3.478477716445923,-1.3338834047317505,1.8755192756652832,3.905195474624634,0.2546074390411377,-1.1906489133834839,-0.6143960356712341,2.1652467250823975
41,41897,41895,-0.09130951762199402,0.033300865441560745,0.9347332119941711,6.824961185455322,-5.161642074584961,-1.304664969444275,1.8756760358810425,3.906313419342041,0.25535619258880615,-1.1809779405593872,-0.5682723522186279,2.1497621536254883
42,41907,41905,-0.10647164285182953,0.11386656016111374,0.9280418753623962,5.669295787811279,-4.599869728088379,-1.8347854614257812,1.8749456405639648,3.906930685043335,0.25728052854537964,-1.1461758613586426,-0.44655004143714905,2.148212194442749
43,41917,41915,-0.0825960785150528,0.17203053832054138,0.9050481915473938,4.096957683563232,-3.6918234825134277,-2.072260856628418,1.8750691413879395,3.907777786254883,0.2591448128223419,-1.1216274499893188,-0.3501472473144531,2.1420650482177734
44,41927,41925,-0.051835548132658005,0.20545268058776855,0.9098053574562073,2.455059051513672,-3.3785786628723145,-1.8394306898117065,1.8753910064697266,3.908430576324463,0.2609190344810486,-1.182800531387329,-0.3583216369152069,2.1164467334747314
45,41937,41935,-0.02304859273135662,0.09978359937667847,0.939947783946991,1.9803097248077393,-4.433048725128174,-1.421675682067871,1.8767341375350952,3.909442186355591,0.26261237263679504,-1.2993420362472534,-0.3073624074459076,2.1139001846313477
46,41947,41945,-0.001533791422843933,0.006885344162583351,0.9402627944946289,1.6955779790878296,-4.839085102081299,-1.734643578529358,1.8748905658721924,3.9092917442321777,0.26434776186943054,-1.0843859910964966,-0.27061954140663147,2.0913949012756348
47,41957,41955,0.06144626438617706,-0.029473189264535904,0.9009233117103577,1.5408955812454224,-1.55130136013031,-1.85184907913208,1.875159740447998,3.9092326164245605,0.2672722041606903,-1.0584867000579834,-0.2407258152961731,2.078723192214966
48,41967,41965,0.026191186159849167,-0.06309127062559128,0.9530210494995117,3.0740292072296143,-5.1750264167785645,-1.6857842206954956,1.8749691247940063,3.909085273742676,0.268830806016922,-1.025072455406189,-0.12694723904132843,2.0845601558685303
49,41977,41975,0.026453815400600433,-0.13538949191570282,0.9538209438323975,2.5841562747955322,-5.6067891120910645,-1.5473521947860718,1.874794602394104,3.909705877304077,0.2702854871749878,-0.9633905291557312,-0.08745423704385757,2.0705881118774414
50,41987,41985,0.043239615857601166,-0.0944104865193367,0.9244814515113831,2.491403818130493,-7.147470951080322,-1.6808093786239624,1.8744274377822876,3.909970998764038,0.2717418372631073,-0.8775042295455933,-0.048429783433675766,2.0564684867858887
51,41997,41995,-0.02144567482173443,-0.06886015832424164,0.9757285118103027,0.6500516533851624,-5.937926292419434,-1.7086586952209473,1.877143383026123,3.9114716053009033,0.27224087715148926,-1.2362992763519287,-0.09315092116594315,2.0342557430267334
52,42007,42005,-0.04814212769269943,0.0033983783796429634,1.0084983110427856,0.5976065397262573,-4.0695366859436035,-1.471053957939148,1.8714803457260132,3.9185783863067627,0.27421635389328003,-0.5704743266105652,-0.9189352989196777,1.8151910305023193
53,42017,42015,-0.03414095565676689,-0.032950509339571,0.9722554683685303,0.2807731330394745,-6.831081390380859,-0.1921556293964386,1.8716058731079102,3.9188311100006104,0.2757644057273865,-0.5741863250732422,-0.8251560926437378,1.8213063478469849
54,42027,42025,0.010360118001699448,-0.06121399253606796,0.9305598735809326,7.218944072723389,-4.317211627960205,-0.3965577781200409,1.871085286140442,3.9185760021209717,0.2777774930000305,-0.4958697259426117,-0.784292459487915,1.8242926597595215
55,42037,42035,0.0495329424738884,-0.03523830324411392,0.904781699180603,14.76494026184082,-2.71937894821167,-0.009802364744246006,1.8704643249511719,3.9182469844818115,0.2791459560394287,-0.4374336004257202,-0.643373429775238,1.8382604122161865
56,42047,42045,0.07445839792490005,0.03704790398478508,0.9084894061088562,20.858388900756836,0.9644292593002319,-0.11594494432210922,1.871047019958496,3.9187965393066406,0.2804960310459137,-0.49766799807548523,-0.38742420077323914,1.8650927543640137
57,42057,42055,0.0966339260339737,0.06396112591028214,0.9026976227760315,22.341169357299805,5.0498738288879395,-0.3659767508506775,1.8709919452667236,3.918405055999756,0.28082185983657837,-0.5254371166229248,-0.055030956864356995,1.8895137310028076
58,42067,42065,0.15415909886360168,-0.09415259957313538,0.9084331393241882,20.905948638916016,0.7378875017166138,-0.4338434934616089,1.8712174892425537,3.919707775115967,0.28181400895118713,-0.5821198225021362,0.13629749417304993,1.8818132877349854
59,42077,42075,0.05289967358112335,-0.06335237622261047,0.9483519196510315,14.472110748291016,-1.1375794410705566,-0.1871919482946396,1.8710606098175049,3.919297933578491,0.28270256519317627,-0.6111726760864258,0.3682105541229248,1.8809257745742798
60,42087,42085,0.03776451572775841,-0.027485797181725502,0.9459429979324341,6.63950777053833,-3.638627290725708,-0.12198302149772644,1.8711134195327759,3.919259548187256,0.28350192308425903,-0.5868567824363708,0.6422432065010071,1.89559805393219
61,42097,42095,-0.01702124811708927,0.080392025411129,0.9646421670913696,0.3484342098236084,-7.884649276733398,-0.6936639547348022,1.8700655698776245,3.9210257530212402,0.28306683897972107,-0.5031773447990417,0.6265284419059753,1.8770496845245361
62,42107,42105,-0.09281647205352783,0.03965204581618309,0.9606974124908447,-4.766761302947998,-8.57924747467041,-0.3892631232738495,1.8685787916183472,3.9217851161956787,0.2837098240852356,-0.3806772530078888,0.6687358617782593,1.8741252422332764
63,42117,42115,-0.04059397429227829,-0.04116249829530716,0.9513876438140869,-8.00648021697998,-7.309327602386475,-0.2158527374267578,1.8679808378219604,3.922553777694702,0.2843690514564514,-0.2410958707332611,0.6159793734550476,1.8659857511520386
64,42127,42125,0.03385961428284645,-0.07066044956445694,0.9236689209938049,-7.336284637451172,-1.9371287822723389,-0.9937284588813782,1.8685427904129028,3.923837184906006,0.28415215015411377,-0.28754663467407227,0.5311734080314636,1.8564815521240234
65,42137,42135,0.03421459719538689,-0.026842882856726646,0.9238486886024475,-3.581810235977173,-1.7616459131240845,-0.05989690124988556,1.868436574935913,3.9235191345214844,0.2846771776676178,-0.3068181276321411,0.5432117581367493,1.8560227155685425
66,42147,42145,-0.025135627016425133,-0.03353423997759819,1.0008190870285034,1.358009696006775,0.7325614094734192,0.032996490597724915,1.8682373762130737,3.925764560699463,0.28514572978019714,-0.2741259038448334,0.5330129265785217,1.858193039894104
67,42157,42155,-0.007205828092992306,-0.08351776003837585,0.9715873003005981,4.559164524078369,0.7955779433250427,0.13510599732398987,1.8682899475097656,3.925417423248291,0.2863832116127014,-0.27600353956222534,0.592427670955658,1.8636242151260376
68,42167,42165,-0.025640834122896194,-0.09505466371774673,0.9473704099655151,6.428300380706787,-0.24659161269664764,-0.03485916554927826,1.8683348894119263,3.925410509109497,0.2867869436740875,-0.2793148458003998,0.6949292421340942,1.8704535961151123
69,42177,42175,-0.03410482779145241,-0.0576089508831501,0.8974466323852539,5.331120491027832,-0.7323760390281677,0.1857471466064453,1.8680003881454468,3.925020694732666,0.28714418411254883,-0.2737719416618347,0.7330048680305481,1.8691078424453735
70,42187,42185,-0.023864153772592545,0.030754851177334785,0.932238757610321,1.799843430519104,-2.1512014865875244,0.400759220123291,1.8694623708724976,3.9274632930755615,0.28530940413475037,-0.2529642879962921,0.8235553503036499,1.874192237854004
71,42197,42195,0.030236806720495224,-0.028148435056209564,0.949485719203949,-2.5113155841827393,-3.008286237716675,0.41156205534935,1.8688918352127075,3.9301395416259766,0.2853829264640808,-0.20894020795822144,0.845452606678009,1.8796048164367676
72,42207,42205,-0.03428789973258972,-0.059210874140262604,1.0272458791732788,-4.677366733551025,-8.840006828308105,0.5957531332969666,1.8683701753616333,3.9294748306274414,0.2854045629501343,-0.12474358081817627,0.8825020790100098,1.8925400972366333
73,42217,42215,-0.021036949008703232,-0.1956220120191574,1.046539306640625,-7.819791316986084,-5.206488609313965,-0.09191104024648666,1.8682276010513306,3.931964159011841,0.28547799587249756,-0.014452910982072353,0.7875127792358398,1.8965638875961304
74,42227,42225,0.04133116826415062,-0.06012055277824402,1.015944004058838,-8.409162521362305,0.655009925365448,-0.13896045088768005,1.8683959245681763,3.930418014526367,0.28744035959243774,0.007144241593778133,0.7964338660240173,1.8939509391784668
75,42237,42235,0.09645239263772964,-0.07892734557390213,0.9751576781272888,-8.302186965942383,3.477393627166748,0.22691093385219574,1.8683462142944336,3.9303505420684814,0.2876589894294739,-0.058976273983716965,0.708366334438324,1.88528573513031
76,42247,42245,0.09665265679359436,-0.19071301817893982,0.9760360717773438,-7.299306869506836,2.486203908920288,0.36363425850868225,1.870236873626709,3.93078351020813,0.2878665030002594,-0.2671925127506256,0.5590522289276123,1.8626340627670288
77,42257,42255,0.048957709223032,-0.02956755831837654,1.0173072814941406,-4.323104381561279,0.5112782120704651,0.3086448013782501,1.8692567348480225,3.930168867111206,0.2856684923171997,-0.1936550885438919,0.5197997093200684,1.8802056312561035
78,42267,42265,-0.0007535357144661248,0.05467045307159424,1.0059878826141357,-4.290252208709717,-2.746455430984497,0.9005743265151978,1.8690029382705688,3.93070125579834,0.2857152223587036,-0.17673394083976746,0.42138683795928955,1.8889389038085938
79,42277,42275,0.023980598896741867,-0.07014251500368118,0.9749268293380737,-2.079935312271118,-5.194272518157959,0.936022162437439,1.8684163093566895,3.931560754776001,0.28575122356414795,-0.10507700592279434,0.3564223051071167,1.9015944004058838
80,42287,42285,-0.007045193109661341,0.123642697930336,1.0486092567443848,-0.07681593298912048,-3.5263473987579346,0.6454871892929077,1.8684791326522827,3.931680917739868,0.2876432538032532,-0.10207065939903259,0.3286149501800537,1.9048141241073608
81,42297,42295,0.060225799679756165,0.05867626890540123,0.9777222871780396,0.6292522549629211,-3.552083730697632,0.6098398566246033,1.868455171585083,3.931671380996704,0.2877974808216095,-0.11150464415550232,0.4025384187698364,1.9085437059402466
82,42307,42305,-0.009814180433750153,0.04559977725148201,1.0558815002441406,-0.3546857535839081,-4.209494590759277,0.7249133586883545,1.869027018547058,3.9311718940734863,0.28796613216400146,-0.10018056631088257,0.39470359683036804,1.9120882749557495
83,42317,42315,-0.04739101231098175,0.0465707890689373,1.0430232286453247,-1.5089550018310547,-6.728392601013184,0.7601984143257141,1.8680624961853027,3.931563138961792,0.2881682813167572,0.018217185512185097,0.4493969678878784,1.9273442029953003
84,42327,42325,-0.08936639875173569,0.09863105416297913,0.9916294813156128,-3.060202121734619,-4.667378902435303,0.9089046716690063,1.8704513311386108,3.932746171951294,0.29016515612602234,-0.17238837480545044,0.3964815139770508,1.9076179265975952
85,42337,42335,-0.011400174349546432,0.1171906590461731,1.005341649055481,-5.64255952835083,-2.4348886013031006,1.6264680624008179,1.869078516960144,3.933109760284424,0.2906325161457062,0.009288609027862549,0.3157660961151123,1.9296220541000366
86,42347,42345,0.033393751829862595,0.12940408289432526,1.0569984912872314,-6.370166778564453,-4.99932861328125,0.9099079370498657,1.8689616918563843,3.933108329772949,0.29099541902542114,0.018597472459077835,0.2814957797527313,1.9410083293914795
87,42357,42355,-0.011185908690094948,-0.10566145926713943,1.0247224569320679,-5.0406084060668945,-6.46295166015625,0.5005182027816772,1.8690563440322876,3.933211088180542,0.29212191700935364,0.06894363462924957,0.17085444927215576,1.9488227367401123
88,42367,42365,-0.007259002886712551,-0.08434919267892838,1.012439250946045,-3.704275369644165,-6.176558971405029,0.32595837116241455,1.8679332733154297,3.9325191974639893,0.2926367521286011,0.1934763789176941,0.23341721296310425,1.9587575197219849
89,42377,42375,0.04652199521660805,-0.04098699986934662,1.0355815887451172,-1.8302313089370728,-7.4663472175598145,0.24396368861198425,1.8687881231307983,3.9326581954956055,0.293146014213562,0.15274900197982788,0.22877156734466553,1.9553189277648926
90,42387,42385,0.012654153630137444,0.016668053343892097,0.9832541942596436,-1.2409939765930176,-6.332740306854248,0.7955092191696167,1.8681334257125854,3.932515859603882,0.29508814215660095,0.2916245460510254,0.17297837138175964,1.9632376432418823
91,42397,42395,-0.0025294905062764883,-0.1255979984998703,1.028871774673462,-1.6647582054138184,-2.9156277179718018,-0.4245853126049042,1.8675808906555176,3.933051109313965,0.2956942617893219,0.38980504870414734,0.13141967356204987,1.9713226556777954
92,42407,42405,0.030994189903140068,-0.05051913112401962,1.0105559825897217,-1.4141921997070312,-4.005932331085205,0.7766759395599365,1.8676902055740356,3.932298183441162,0.29638686776161194,0.418210506439209,0.15355639159679413,1.9730747938156128
93,42417,42415,0.033363740891218185,-0.007384225260466337,1.0114352703094482,-2.584455728530884,-1.0419203042984009,0.9602825045585632,1.866864562034607,3.9327237606048584,0.2970525920391083,0.4672567844390869,0.09937068074941635,1.9839346408843994
94,42427,42425,0.04375729709863663,-0.02005070634186268,1.0020735263824463,-4.178116798400879,-1.1183650493621826,0.7209179401397705,1.866209864616394,3.9329440593719482,0.29805147647857666,0.5124533176422119,0.1011972576379776,1.9896090030670166
95,42437,42435,0.03285091742873192,-0.06576526165008545,1.0140655040740967,-4.03990364074707,-0.4507410228252411,0.6300577521324158,1.8666939735412598,3.9327216148376465,0.29806169867515564,0.4650810956954956,0.0811321809887886,1.9931124448776245
96,42447,42445,-0.026222562417387962,-0.008616011589765549,1.043013572692871,-4.132628917694092,-2.4825258255004883,1.1716704368591309,1.8673522472381592,3.9337594509124756,0.29882681369781494,0.487827867269516,-0.008097688667476177,2.00162935256958
97,42457,42455,0.050724174827337265,-0.14163461327552795,0.9718604683876038,-4.711597919464111,0.5717395544052124,0.1414317786693573,1.8680670261383057,3.933650493621826,0.30003902316093445,0.42868778109550476,-0.03320528194308281,2.0031497478485107
98,42467,42465,0.0011094427900388837,0.035226304084062576,0.9973269701004028,-4.531086444854736,2.868898391723633,-0.28547120094299316,1.867781162261963,3.9331581592559814,0.30083081126213074,0.40679389238357544,-0.06175387278199196,1.9998219013214111
99,42477,42475,0.021558763459324837,-0.025719191879034042,0.9522136449813843,-3.4409990310668945,-0.13736625015735626,0.1069066971540451,1.8672080039978027,3.9339439868927,0.30158376693725586,0.3920392692089081,-0.14880156517028809,2.0022311210632324
100,42487,42485,-0.08285710960626602,0.04785395786166191,1.0081478357315063,-1.2118465900421143,-0.7311081290245056,-0.43013638257980347,1.866964340209961,3.933900833129883,0.3025497794151306,0.4325646460056305,-0.2003324031829834,2.0042779445648193
101,42497,42495,-0.05267633870244026,0.018871966749429703,0.9643378853797913,-1.975433349609375,-0.5752867460250854,0.24563033878803253,1.8675963878631592,3.933820962905884,0.3033033013343811,0.38051673769950867,-0.16709429025650024,1.9957540035247803
102,42507,42505,0.02603141777217388,-0.05787158012390137,0.9694436192512512,-0.5051161050796509,-0.9640164375305176,-0.7338911890983582,1.8681949377059937,3.934758424758911,0.3040192127227783,0.40876972675323486,-0.20726406574249268,1.9935534000396729
103,42517,42515,0.004969578702002764,0.10282290726900101,0.979197084903717,-0.27447575330734253,0.23891852796077728,-0.9529584050178528,1.8678182363510132,3.9348576068878174,0.305799663066864,0.43577080965042114,-0.2277577668428421,1.9901033639907837
104,42527,42525,-0.03847113251686096,0.044891294091939926,0.9816668033599854,0.443854421377182,-0.6081924438476562,-0.7290528416633606,1.8670192956924438,3.9344322681427,0.3065682053565979,0.5295631885528564,-0.1698227971792221,1.979030966758728
105,42537,42535,0.057622816413640976,-0.023989707231521606,0.9413559436798096,-0.6151614189147949,5.142702102661133,-0.5126960873603821,1.8671393394470215,3.934562921524048,0.30729392170906067,0.5191521048545837,-0.18321500718593597,1.972446084022522
106,42547,42545,0.07547909021377563,-0.11974985897541046,0.9827021956443787,-0.07940249890089035,-0.9261069297790527,-0.2340257465839386,1.8671109676361084,3.9351890087127686,0.30800989270210266,0.5010080933570862,-0.20256319642066956,1.9705860614776611
107,42557,42555,-0.01790970377624035,-0.1637323796749115,1.0052703619003296,-1.7773587703704834,-0.5962471961975098,0.060472842305898666,1.8668968677520752,3.935539722442627,0.30716460943222046,0.5220154523849487,-0.23238639533519745,1.9708225727081299
108,42567,42565,-0.05743303894996643,-0.03666926920413971,1.0079243183135986,-1.9197382926940918,1.6888574361801147,0.0638168603181839,1.8660773038864136,3.935353994369507,0.3071824312210083,0.5125917792320251,-0.27780917286872864,1.9724034070968628
109,42577,42575,0.036308303475379944,-0.07288787513971329,0.9217879176139832,-2.022432804107666,3.9562203884124756,0.06592892110347748,1.866814136505127,3.9351108074188232,0.3077346384525299,0.471133828163147,-0.2434813380241394,1.969427466392517
110,42587,42585,0.009045775979757309,-0.015657057985663414,0.9749200344085693,-0.00570825906470418,-0.9164825081825256,0.13550792634487152,1.8671413660049438,3.935518264770508,0.30438417196273804,0.400841623544693,-0.28327134251594543,1.972150206565857
111,42597,42595,0.018867937847971916,-0.037237923592329025,1.0049771070480347,0.07078125327825546,7.2687602043151855,-0.3987129330635071,1.8675541877746582,3.9348630905151367,0.304608017206192,0.32187432050704956,-0.29453277587890625,1.972241759300232
112,42607,42605,0.16361595690250397,-0.08538822084665298,0.9564821124076843,-0.15526854991912842,5.160215377807617,0.031409263610839844,1.8679596185684204,3.935187816619873,0.30481699109077454,0.22425076365470886,-0.30528247356414795,1.9720097780227661
113,42617,42615,0.11332190036773682,-0.025989042595028877,0.9913918375968933,1.0508242845535278,-1.2535239458084106,-0.5121474862098694,1.8679331541061401,3.934882402420044,0.3029804825782776,0.20074491202831268,-0.2294415384531021,1.965111494064331
114,42627,42625,-0.03741585835814476,-0.046905238181352615,0.9781454801559448,0.42736056447029114,-2.387096405029297,-0.35245639085769653,1.8680773973464966,3.9356114864349365,0.3030349016189575,0.21814559400081635,-0.31064286828041077,1.964975357055664
115,42637,42635,-0.006052952725440264,-0.12124559283256531,0.9757457971572876,0.21354040503501892,-3.433373212814331,0.0015199402114376426,1.867335557937622,3.936344861984253,0.30302587151527405,0.28555604815483093,-0.31150132417678833,1.961744785308838
116,42647,42645,0.06148921698331833,0.03363683447241783,0.9866436123847961,0.5155648589134216,-4.368625640869141,0.48757204413414,1.86653470993042,3.936149835586548,0.3030121326446533,0.36543115973472595,-0.23813048005104065,1.9574804306030273
117,42657,42655,0.1024809256196022,-2.980006865982432e-05,0.972584068775177,0.9602598547935486,-6.192477226257324,0.21145197749137878,1.8662850856781006,3.936145544052124,0.3072677552700043,0.4582204520702362,-0.16194964945316315,1.9552643299102783
118,42667,42665,0.022378724068403244,-0.03881693631410599,0.9779781103134155,-0.08698664605617523,-4.06439208984375,-0.0696614533662796,1.8657007217407227,3.9362504482269287,0.30745574831962585,0.5431854128837585,-0.17132943868637085,1.9569646120071411
119,42677,42675,-0.0391295962035656,-0.0024360439274460077,1.0273067951202393,-1.8609119653701782,-0.20825600624084473,0.2802460193634033,1.8660789728164673,3.936558723449707,0.30767470598220825,0.5707541704177856,-0.20816797018051147,1.960005283355713
120,42687,42685,0.041172608733177185,-0.0424622967839241,0.9720251560211182,-2.693955421447754,4.454768180847168,0.03112672083079815,1.8656946420669556,3.9370949268341064,0.3085750937461853,0.5338338613510132,-0.2568278908729553,1.9659430980682373
121,42697,42695,0.009791508316993713,0.01313233096152544,1.0208790302276611,-2.2587318420410156,7.050845623016357,0.974370002746582,1.8656895160675049,3.936330795288086,0.30899596214294434,0.4266933798789978,-0.23673421144485474,1.9676945209503174
122,42707,42705,0.017561068758368492,-0.006958561949431896,1.0026246309280396,-1.8211243152618408,15.138738632202148,0.9980863332748413,1.8666568994522095,3.9370310306549072,0.30900660157203674,0.23840200901031494,-0.2897219955921173,1.981735110282898
123,42717,42715,0.013644329272210598,-0.0096033476293087,1.0023084878921509,-1.2513420581817627,19.004343032836914,0.8162635564804077,1.865417242050171,3.937638282775879,0.30685341358184814,0.23730555176734924,-0.4110064208507538,1.9884557723999023
124,42727,42725,0.0072291637770831585,-0.05779343098402023,1.0007662773132324,-0.8492119312286377,24.50487518310547,-0.0974954217672348,1.866919994354248,3.9371020793914795,0.3069738745689392,-0.16898135840892792,-0.3455054461956024,1.9910873174667358
125,42737,42735,0.02808094583451748,-0.041888173669576645,0.9676205515861511,1.2294445037841797,24.34076690673828,0.3250337243080139,1.8667341470718384,3.9369254112243652,0.3070637285709381,-0.35096293687820435,-0.3467303514480591,1.9887597560882568
126,42747,42745,-0.014899316243827343,0.017411503940820694,1.0266385078430176,2.1253819465637207,21.2015323638916,0.637170672416687,1.8670212030410767,3.937136650085449,0.3064417839050293,-0.5949161052703857,-0.32721513509750366,1.992905855178833
127,42757,42755,0.0229770727455616,-0.04859694465994835,0.9911172986030579,3.2435288429260254,15.088850975036621,0.588546872138977,1.867340326309204,3.9373996257781982,0.3064693212509155,-0.8222594261169434,-0.28981247544288635,1.9989449977874756
128,42767,42765,-0.008498305454850197,0.044191714376211166,1.0781173706054688,3.975537061691284,8.892562866210938,0.42623963952064514,1.8662145137786865,3.9370663166046143,0.3065546751022339,-0.8694481253623962,-0.23563431203365326,2.000560760498047
129,42777,42775,-0.0014430207666009665,0.02321787364780903,1.0178948640823364,2.67549467086792,7.442425727844238,0.1832333207130432,1.8653411865234375,3.937434434890747,0.3067154586315155,-0.8620036840438843,-0.260841429233551,1.998339056968689
130,42787,42785,0.022859223186969757,-0.045865923166275024,0.9613093733787537,1.7041103839874268,3.9994301795959473,0.26155078411102295,1.8640673160552979,3.9391379356384277,0.30585071444511414,-0.8276230692863464,-0.41027483344078064,1.9924830198287964
131,42797,42795,0.0010413203854113817,0.04088073596358299,0.9968990087509155,1.4836982488632202,4.652687072753906,0.1366303712129593,1.8632253408432007,3.9393908977508545,0.3059364855289459,-0.8831673264503479,-0.34370025992393494,1.994346022605896
132,42807,42805,-0.01044986117631197,0.04945603013038635,1.0210254192352295,1.9803251028060913,1.4753774404525757,0.7021885514259338,1.863595962524414,3.939409017562866,0.30598020553588867,-0.9720588326454163,-0.29869091510772705,2.0008301734924316
133,42817,42815,-0.06545571982860565,-0.07658489793539047,1.0710673332214355,3.402754783630371,6.025804042816162,-0.2020973414182663,1.8643107414245605,3.9391608238220215,0.30499938130378723,-1.039467453956604,-0.23507097363471985,2.0052621364593506
134,42827,42825,-0.06242114305496216,-0.07940986007452011,1.0218340158462524,2.206042528152466,11.979702949523926,-0.5402440428733826,1.8628712892532349,3.938743829727173,0.30511513352394104,-0.8752555847167969,-0.12428729236125946,2.006398916244507
135,42837,42835,0.024165814742445946,-0.03834197297692299,1.0320724248886108,1.7317966222763062,12.136797904968262,-0.36788684129714966,1.8627914190292358,3.938347578048706,0.30523934960365295,-1.0154913663864136,-0.08816999197006226,2.004612445831299
136,42847,42845,0.03164574131369591,0.02329397387802601,0.9716657996177673,-1.1346349716186523,12.836817741394043,0.3393316864967346,1.8634910583496094,3.9396910667419434,0.3038943111896515,-1.2442352771759033,-0.15932697057724,1.9975273609161377
137,42857,42855,-0.009178142994642258,-0.06510123610496521,1.010575294494629,-1.6231862306594849,8.924873352050781,0.4075038731098175,1.864046335220337,3.9401166439056396,0.3039095997810364,-1.443932294845581,-0.16220323741436005,2.0023574829101562
138,42867,42865,0.03310666233301163,-0.1243123859167099,1.016706109046936,-0.30355948209762573,11.517887115478516,-1.3216415643692017,1.8626832962036133,3.9397151470184326,0.3040071427822113,-1.440604567527771,-0.09551019966602325,2.010817289352417
139,42877,42875,0.003476332640275359,0.0004305733018554747,0.9757062792778015,-0.2843957543373108,4.382500171661377,-1.0936083793640137,1.8630815744400024,3.9406447410583496,0.3040239214897156,-1.5770819187164307,-0.18971703946590424,1.9916424751281738
140,42887,42885,0.01112644374370575,-0.02168719284236431,0.9588773250579834,-0.20610405504703522,5.594729900360107,-1.3985008001327515,1.8614485263824463,3.941349506378174,0.3054884374141693,-1.4906642436981201,-0.19051378965377808,1.9784555435180664
141,42897,42895,0.08597343415021896,-0.040118541568517685,0.8906558156013489,-0.8609533905982971,3.149242639541626,-0.6848553419113159,1.8614754676818848,3.942099094390869,0.30557504296302795,-1.5622457265853882,-0.19048866629600525,1.9681953191757202
142,42907,42905,0.03106263093650341,-0.02149861492216587,1.0161725282669067,2.805666208267212,-2.900914430618286,-0.9975212216377258,1.8621360063552856,3.942896842956543,0.3055550754070282,-1.5879346132278442,-0.1802375465631485,1.9616750478744507
143,42917,42915,-0.02965399995446205,0.04318375885486603,1.055990219116211,3.346389055252075,0.35698243975639343,-0.4847950041294098,1.8623191118240356,3.9428765773773193,0.30561336874961853,-1.6493675708770752,-0.13636119663715363,1.9612456560134888
144,42927,42925,0.00582685973495245,-0.06860414147377014,0.9985263347625732,3.8977952003479004,3.968156337738037,-0.5710541605949402,1.861487865447998,3.94266414642334,0.30566516518592834,-1.5804224014282227,-0.07679321616888046,1.9598959684371948
145,42937,42935,-0.0368012897670269,0.10197241604328156,1.0579506158828735,3.36664080619812,4.4258623123168945,-1.1754528284072876,1.8615442514419556,3.942979335784912,0.3056994080543518,-1.6323834657669067,-0.018065953627228737,1.959047794342041
146,42947,42945,-0.013411098159849644,-0.033349357545375824,1.02313232421875,2.147016763687134,0.900330662727356,-1.0823707580566406,1.861960530281067,3.942209482192993,0.30509820580482483,-1.7136739492416382,0.033369746059179306,1.9518624544143677
147,42957,42955,-0.06427345424890518,-0.053719040006399155,1.037453293800354,-0.06816171854734421,4.708056449890137,-1.5304434299468994,1.861595630645752,3.9430224895477295,0.3051324486732483,-1.770119071006775,-0.016170991584658623,1.9239788055419922
148,42967,42965,0.03185104951262474,0.009137949906289577,0.9913056492805481,-1.4020251035690308,3.286322593688965,-1.229349136352539,1.8619707822799683,3.943594455718994,0.3052266538143158,-1.834314227104187,-0.09077717363834381,1.8898348808288574
149,42977,42975,0.01821552962064743,-0.0434313639998436,0.9999406337738037,-1.6152162551879883,-0.671206533908844,-1.2012830972671509,1.863487958908081,3.9440958499908447,0.30522817373275757,-2.015673875808716,-0.10273390263319016,1.8778338432312012
150,42987,42985,0.02558513730764389,-0.16377043724060059,0.9950469732284546,0.20101775228977203,-5.038493633270264,-1.4273297786712646,1.8628225326538086,3.9441723823547363,0.30453020334243774,-1.9456684589385986,-0.11492016911506653,1.8664271831512451
151,42997,42995,-0.015472207218408585,-0.050472959876060486,1.0625015497207642,2.2228453159332275,-7.272209644317627,-1.4355210065841675,1.8622910976409912,3.9435367584228516,0.3046538233757019,-1.8225946426391602,-0.10076967626810074,1.860392689704895
152,43007,43005,0.003265735926106572,-0.16609351336956024,0.9969801306724548,3.1935040950775146,-9.735147476196289,-1.0386459827423096,1.8617274761199951,3.9431440830230713,0.30475449562072754,-1.7176904678344727,0.02437770925462246,1.8755155801773071
153,43017,43015,-0.08206373453140259,-0.05936366319656372,1.0911575555801392,4.475822448730469,-8.698030471801758,-0.8999141454696655,1.8613479137420654,3.9426112174987793,0.30699631571769714,-1.5224117040634155,0.08191627264022827,1.8706104755401611
154,43027,43025,-0.08075698465108871,0.011750919744372368,1.0285439491271973,3.485274314880371,-2.7771246433258057,-0.9908990263938904,1.8620476722717285,3.943120241165161,0.3072888255119324,-1.520435094833374,0.06872221827507019,1.8479984998703003
155,43037,43035,0.029361678287386894,0.05847302824258804,0.9682856798171997,0.21369782090187073,5.147963523864746,-1.4366461038589478,1.864040732383728,3.9429922103881836,0.3075827360153198,-1.5951260328292847,0.1223866194486618,1.8422907590866089
156,43047,43045,0.004244388546794653,-0.041358985006809235,0.9974066019058228,-1.0239776372909546,5.2074174880981445,-1.491281270980835,1.8653980493545532,3.944347381591797,0.3109211325645447,-1.6780186891555786,0.05085024982690811,1.8064680099487305
157,43057,43055,0.014448629692196846,-0.022079966962337494,1.0100889205932617,-2.1585521697998047,4.609334468841553,-1.5612921714782715,1.8661954402923584,3.945498466491699,0.31140097975730896,-1.7705684900283813,0.034207187592983246,1.7916165590286255
158,43067,43065,0.016438594087958336,0.07938653975725174,0.9693302512168884,-3.169558525085449,-1.9641255140304565,-1.55574631690979,1.866681456565857,3.9455864429473877,0.3119901120662689,-1.7462091445922852,0.0011333642760291696,1.7762912511825562
159,43077,43075,-0.05423172563314438,-0.021251114085316658,1.0327284336090088,-2.541991710662842,-7.15263557434082,-1.9306901693344116,1.8674520254135132,3.945722818374634,0.31246212124824524,-1.7898406982421875,-0.036981575191020966,1.7585326433181763
160,43087,43085,0.06713832169771194,-0.03521161898970604,0.9932490587234497,-2.109973907470703,-8.706976890563965,-2.1342389583587646,1.866962194442749,3.9454052448272705,0.31389567255973816,-1.5844193696975708,-0.06857448816299438,1.7402061223983765
161,43097,43095,0.07900520414113998,-0.07752055674791336,1.0089402198791504,0.6730524897575378,-12.739686965942383,-2.7279272079467773,1.8676680326461792,3.94498872756958,0.3144495189189911,-1.4959306716918945,-0.0804990828037262,1.7223296165466309
162,43107,43105,0.10294247418642044,-0.175810307264328,0.9893737435340881,4.388411998748779,-15.106538772583008,-2.1496944427490234,1.8691997528076172,3.9459967613220215,0.314996600151062,-1.4314320087432861,-0.04947405681014061,1.7017849683761597
163,43117,43115,0.07538341730833054,-0.014172392897307873,0.9899799823760986,4.758668899536133,-12.359360694885254,-2.0551276206970215,1.870222568511963,3.94653058052063,0.31651297211647034,-1.3554153442382812,-0.0538829006254673,1.6713272333145142
164,43127,43125,0.007697707042098045,-0.0730375126004219,0.9676200747489929,4.487171649932861,-7.899639129638672,-1.8557885885238647,1.8715900182724,3.9464619159698486,0.317084938287735,-1.3067246675491333,0.03767658770084381,1.662075161933899
165,43137,43135,-0.059155162423849106,0.07411006838083267,1.0179945230484009,4.547757148742676,-7.261267185211182,-1.3595547676086426,1.8712923526763916,3.9473791122436523,0.3178212642669678,-1.0914195775985718,0.04333474487066269,1.635387897491455
166,43147,43145,-0.010320497676730156,-0.1349031627178192,0.9775355458259583,4.04731559753418,-5.472998142242432,-2.1923718452453613,1.8727858066558838,3.947641611099243,0.3185857832431793,-1.0838093757629395,0.12497574090957642,1.6277735233306885
167,43157,43155,-0.023224974051117897,-0.13527321815490723,0.9545459151268005,3.0004725456237793,-3.5833799839019775,-3.2339766025543213,1.8731261491775513,3.9489264488220215,0.3192349672317505,-0.9517678022384644,0.11331260204315186,1.5974037647247314
168,43167,43165,-0.11361110955476761,-0.09254967421293259,0.9935426712036133,1.0091623067855835,4.315061569213867,-3.160829544067383,1.8757625818252563,3.949063539505005,0.31966105103492737,-1.1718207597732544,0.1664350926876068,1.5688930749893188
169,43177,43175,-0.028479617089033127,-0.2173527330160141,0.9844669699668884,1.0843689441680908,-1.8268195390701294,-3.232238531112671,1.875720500946045,3.9493260383605957,0.3222438097000122,-1.1004271507263184,0.19308459758758545,1.5429787635803223
170,43187,43185,-0.044332608580589294,-0.09517887234687805,0.9786604642868042,2.2237532138824463,-6.135146141052246,-2.2938928604125977,1.8756704330444336,3.948686361312866,0.3230043053627014,-0.9680981636047363,0.22272291779518127,1.518227219581604
171,43197,43195,-0.024965645745396614,0.03365738317370415,0.9635857939720154,1.9417064189910889,-9.453594207763672,-2.1509487628936768,1.878477692604065,3.94869065284729,0.3234761357307434,-1.148720622062683,0.18544557690620422,1.4818817377090454
172,43207,43205,0.015331164002418518,0.09986846894025803,0.9530890583992004,2.90527081489563,-12.417582511901855,-2.6120405197143555,1.8780990839004517,3.948230028152466,0.32429954409599304,-0.9433853626251221,0.2371254563331604,1.4667167663574219
173,43217,43215,0.055672962218523026,0.05192706361413002,0.9257158041000366,3.6095693111419678,-14.067231178283691,-2.4918692111968994,1.8783684968948364,3.948028564453125,0.32307860255241394,-0.7741114497184753,0.29670676589012146,1.4463385343551636
174,43227,43225,0.07573994249105453,0.02333908900618553,0.9666127562522888,3.8747024536132812,-13.347726821899414,-2.1636316776275635,1.8797038793563843,3.948686361312866,0.32350513339042664,-0.6586538553237915,0.28696390986442566,1.4134920835494995
175,43237,43235,0.050853926688432693,-0.0003842691075988114,0.9686450958251953,3.6229095458984375,-12.294469833374023,-2.804187536239624,1.8805968761444092,3.94897198677063,0.32387468218803406,-0.5364862084388733,0.2888418436050415,1.38572096824646
176,43247,43245,-0.04126377031207085,-0.050860852003097534,0.9500052332878113,1.6096981763839722,-8.1183500289917,-1.9766955375671387,1.881771206855774,3.9486618041992188,0.32131728529930115,-0.4552019238471985,0.35487228631973267,1.369551420211792
177,43257,43255,-0.021921835839748383,-0.05378507077693939,0.9538062214851379,1.3515149354934692,-6.863128662109375,-1.3193731307983398,1.8812066316604614,3.9500985145568848,0.3215171992778778,-0.26276811957359314,0.39069506525993347,1.360424518585205
178,43267,43265,-0.027575930580496788,-0.033351946622133255,0.9533976316452026,0.9132739901542664,-3.315314292907715,-0.12153232842683792,1.8827564716339111,3.95015287399292,0.32153967022895813,-0.2767083942890167,0.4186379015445709,1.340118646621704
179,43277,43275,-0.0021573223639279604,-0.06392869353294373,0.9311860799789429,0.21821822226047516,-0.9258957505226135,0.5004465579986572,1.8836206197738647,3.9508368968963623,0.3214089870452881,-0.18708625435829163,0.4359189569950104,1.3408490419387817
180,43287,43285,-0.005378456320613623,-0.09564954042434692,0.930057942867279,-1.3043265342712402,0.3643933832645416,0.6927754282951355,1.8851274251937866,3.951343297958374,0.3213580250740051,-0.2180163562297821,0.4378994405269623,1.3416023254394531
181,43297,43295,-0.06426425278186798,-0.014201383106410503,0.9596366882324219,-2.685831308364868,-4.531307697296143,2.4300177097320557,1.8851195573806763,3.9512815475463867,0.3213411271572113,-0.16045549511909485,0.4148561954498291,1.3528684377670288
182,43307,43305,-0.006575952749699354,-0.016713658347725868,1.0046054124832153,-3.9419500827789307,-7.629173278808594,2.3746516704559326,1.8844599723815918,3.9510338306427,0.32137274742126465,0.02838398702442646,0.3680914640426636,1.3804094791412354
183,43317,43315,0.0478537455201149,-0.07183246314525604,0.9691217541694641,-4.873545169830322,-7.341678619384766,1.4996923208236694,1.8867355585098267,3.950962781906128,0.3189277648925781,-0.06523734331130981,0.30394357442855835,1.3884661197662354
184,43327,43325,0.001583246630616486,-0.013480535708367825,1.0081582069396973,-3.280771255493164,-7.428213119506836,1.3956023454666138,1.8861143589019775,3.951169490814209,0.31876006722450256,0.17164158821105957,0.23573368787765503,1.4140137434005737
185,43337,43335,-0.006359894759953022,-0.004457343835383654,0.9931788444519043,-1.3975632190704346,-6.7288713455200195,0.6766121983528137,1.8883475065231323,3.9519808292388916,0.3183925449848175,0.0835845023393631,0.19512352347373962,1.4270886182785034
186,43347,43345,-0.04976281896233559,-0.03818391263484955,0.9911714196205139,-0.06985674798488617,-4.158211708068848,1.0227211713790894,1.8876880407333374,3.9513742923736572,0.31738439202308655,0.291049063205719,0.26062217354774475,1.4402117729187012
187,43357,43355,-0.009565846063196659,-0.017913898453116417,0.972405731678009,1.7348670959472656,-2.1087703704833984,1.370674729347229,1.8894459009170532,3.951488494873047,0.31695041060447693,0.2083570510149002,0.26566174626350403,1.4495267868041992
188,43367,43365,0.02636355720460415,0.04082814231514931,1.0185587406158447,2.027179479598999,1.7453609704971313,0.812926173210144,1.8903840780258179,3.951517343521118,0.3166005611419678,0.24854739010334015,0.2913162112236023,1.468286395072937
189,43377,43375,0.001208711415529251,0.06482929736375809,1.0128594636917114,1.1917750835418701,4.609463691711426,1.0904481410980225,1.8913987874984741,3.9514617919921875,0.31820207834243774,0.15637314319610596,0.3203262984752655,1.4714316129684448
190,43387,43385,0.0033489668276160955,-0.0689198300242424,1.0032403469085693,-0.7314648628234863,1.6960926055908203,0.04091441631317139,1.8910497426986694,3.951411485671997,0.3180100917816162,0.20417186617851257,0.32925084233283997,1.4883251190185547
191,43397,43395,-0.01315812673419714,-0.08591865003108978,1.0230356454849243,-3.5888760089874268,3.859912872314453,-0.306405246257782,1.8927509784698486,3.952110767364502,0.31772416830062866,0.11433161050081253,0.30595165491104126,1.4905016422271729
192,43407,43405,0.09253650158643723,-0.02732415869832039,1.0138490200042725,-6.623129367828369,-1.732789158821106,-1.8389703035354614,1.8925493955612183,3.9526865482330322,0.3176172971725464,0.20508340001106262,0.23300789296627045,1.5031312704086304
193,43417,43415,-0.009249013848602772,0.0005933389766141772,1.0343754291534424,-7.149689674377441,-6.081346035003662,-1.7396360635757446,1.8918213844299316,3.9526190757751465,0.3140215277671814,0.3541218936443329,0.12335455417633057,1.4956129789352417
194,43427,43425,0.02504405751824379,-0.10629773885011673,1.0243829488754272,-8.127140045166016,-4.689879417419434,-2.6500608921051025,1.8933013677597046,3.9523251056671143,0.3135935962200165,0.3018159866333008,0.08027541637420654,1.4676765203475952
195,43437,43435,0.013008770532906055,-0.1797526329755783,1.0150309801101685,-4.431589603424072,-1.5073939561843872,-2.6991875171661377,1.8941401243209839,3.9520201683044434,0.3131917417049408,0.310016393661499,0.04105212911963463,1.4372234344482422
196,43447,43445,-0.025095397606492043,-0.16197429597377777,1.0437136888504028,0.4227532148361206,2.319589138031006,-2.176527976989746,1.8948705196380615,3.9519870281219482,0.3120792806148529,0.34242475032806396,-0.018765507265925407,1.4117474555969238
197,43457,43455,0.00957206916064024,-0.12043988704681396,1.0059828758239746,4.642179489135742,8.967418670654297,-2.6335344314575195,1.8966751098632812,3.9519243240356445,0.3116453289985657,0.21692630648612976,0.004333837423473597,1.3824409246444702
198,43467,43465,0.07175854593515396,0.0057210903614759445,0.9775981903076172,6.17524528503418,15.002208709716797,-2.736891746520996,1.8967442512512207,3.9514148235321045,0.3114359676837921,0.23748120665550232,0.08686619251966476,1.3555268049240112
199,43477,43475,0.10182326287031174,-0.03105125203728676,1.029933214187622,6.243603229522705,11.821581840515137,-2.6491947174072266,1.8970310688018799,3.9514529705047607,0.3092842400074005,0.12088049203157425,0.18651971220970154,1.3249019384384155
200,43487,43485,0.023484094068408012,-0.14822766184806824,1.0294283628463745,7.213492393493652,7.373341083526611,-2.3144047260284424,1.8977210521697998,3.9521279335021973,0.3088698387145996,0.03261558711528778,0.211248517036438,1.3149360418319702
201,43497,43495,-0.008223305456340313,-0.056980617344379425,1.0224027633666992,4.397068977355957,4.577247619628906,-2.383399248123169,1.8980112075805664,3.9522576332092285,0.3084888458251953,-0.0024152668192982674,0.23704874515533447,1.299312710762024
202,43507,43505,0.0011699191527441144,-0.10600963979959488,1.0415606498718262,3.3664121627807617,2.3416802883148193,-2.126166582107544,1.89861261844635,3.9519762992858887,0.30879220366477966,0.011273412965238094,0.30983930826187134,1.2755666971206665
203,43517,43515,0.013596192002296448,0.0577007532119751,1.0645151138305664,0.6084491014480591,-1.3006317615509033,-2.3819656372070312,1.899047613143921,3.951568365097046,0.30850380659103394,-0.011509444564580917,0.35031917691230774,1.2446247339248657
204,43527,43525,-0.02300160564482212,0.04638976231217384,1.040725827217102,-2.702335834503174,-1.6640390157699585,-2.1065587997436523,1.8998759984970093,3.9527199268341064,0.30829837918281555,0.0049142916686832905,0.339741587638855,1.2438884973526
205,43537,43535,-0.05040036141872406,0.07451820373535156,1.0151472091674805,-6.648382186889648,-1.1589621305465698,-0.2107989341020584,1.901028037071228,3.9528608322143555,0.3080272674560547,-0.055669382214546204,0.2755482494831085,1.2229164838790894
206,43547,43545,0.00695605156943202,-0.12901540100574493,1.0660146474838257,-6.382167816162109,-0.26003026962280273,0.04880039766430855,1.9017691612243652,3.9523162841796875,0.30782589316368103,-0.04529101029038429,0.2461022138595581,1.2127525806427002
207,43557,43555,0.04057689383625984,-0.11580027639865875,1.0486316680908203,-5.268929958343506,-0.23186670243740082,0.3871136009693146,1.901639461517334,3.9529149532318115,0.3077434301376343,0.024085931479930878,0.13886649906635284,1.2188750505447388
208,43567,43565,-0.03504956141114235,-0.06233587488532066,1.044846534729004,-5.188297748565674,2.0798869132995605,1.1308369636535645,1.9030195474624634,3.952390670776367,0.30759313702583313,-0.06266836822032928,0.12334644794464111,1.2066471576690674
209,43577,43575,0.0034353293012827635,-0.08312804251909256,0.9628412127494812,-4.733525276184082,1.8824353218078613,3.0244903564453125,1.9021742343902588,3.9524173736572266,0.3077775239944458,0.00890432856976986,0.030465740710496902,1.2360994815826416
210,43587,43585,0.05007574334740639,-0.05322033539414406,0.9947625398635864,-3.2084848880767822,-2.7964107990264893,4.823002338409424,1.9035202264785767,3.9521872997283936,0.30771100521087646,-0.06049105525016785,-0.04056331142783165,1.263479232788086
211,43597,43595,0.03344770520925522,-0.08076740056276321,1.0336862802505493,-0.6330646872520447,-7.451345443725586,5.167364120483398,1.9035508632659912,3.9528696537017822,0.30778059363365173,0.024442259222269058,0.004180980380624533,1.3237725496292114
212,43607,43605,0.029162492603063583,-0.06318748742341995,1.077286720275879,-0.18582236766815186,-6.128015041351318,3.0932908058166504,1.9040584564208984,3.9534692764282227,0.30818408727645874,0.07314988970756531,-0.08949721604585648,1.376805067062378
213,43617,43615,-0.004965170752257109,-0.021827172487974167,0.9979600310325623,0.546746015548706,-4.309199810028076,2.660313367843628,1.9052261114120483,3.9534800052642822,0.3082306981086731,0.11405421793460846,-0.08961692452430725,1.4146385192871094
214,43627,43625,-0.004257421940565109,0.04715535417199135,0.9512563943862915,0.7933804988861084,-3.4981884956359863,4.100244522094727,1.9053541421890259,3.9530506134033203,0.30846020579338074,0.28712198138237,-0.07630215585231781,1.439715027809143
215,43637,43635,-0.04108702763915062,0.1209440678358078,1.0461504459381104,1.0705831050872803,0.26031675934791565,4.465366363525391,1.9059146642684937,3.954122304916382,0.3085680603981018,0.34540340304374695,-0.052352797240018845,1.4954445362091064
216,43647,43645,-0.01827550120651722,0.03086649253964424,1.0294698476791382,0.06539710611104965,7.739590167999268,4.439444065093994,1.9087517261505127,3.9547770023345947,0.30983710289001465,0.15027907490730286,-0.03643511235713959,1.5538779497146606
217,43657,43655,-0.062295302748680115,-0.0007091943407431245,1.01190185546875,-0.7281823754310608,8.747505187988281,4.861786365509033,1.9091341495513916,3.9553189277648926,0.31004926562309265,0.09257277846336365,-0.047508955001831055,1.6135174036026
218,43667,43665,-0.0230123121291399,0.07304646074771881,1.0090264081954956,-1.032779574394226,13.67342758178711,2.869520664215088,1.9099856615066528,3.955150842666626,0.3102462887763977,-0.016945738345384598,-0.06910693645477295,1.6522636413574219
219,43677,43675,-0.009197871200740337,0.10076288878917694,0.984734833240509,2.237804651260376,17.00371551513672,1.590197205543518,1.9107470512390137,3.9554662704467773,0.31284135580062866,-0.17388224601745605,-0.06852209568023682,1.6924079656600952
220,43687,43685,-0.00640881760045886,0.15132451057434082,1.0125566720962524,6.350852012634277,16.410770416259766,0.7986792922019958,1.9111937284469604,3.9557278156280518,0.3133125901222229,-0.2799300253391266,-0.08230537921190262,1.7204772233963013
221,43697,43695,0.006518511101603508,0.022170746698975563,1.033774495124817,8.827204704284668,10.48744010925293,-0.1863383799791336,1.911799669265747,3.9554407596588135,0.3136528730392456,-0.4555422067642212,0.04456821456551552,1.724586844444275
222,43707,43705,-0.05011045187711716,0.03448520228266716,1.0027415752410889,7.413840293884277,2.548079490661621,-0.19885174930095673,1.912122368812561,3.9559342861175537,0.31480056047439575,-0.5200274586677551,0.10918726027011871,1.7397719621658325
223,43717,43715,-0.019609257578849792,0.052725229412317276,0.9496477246284485,2.2373006343841553,-3.7893214225769043,-0.864591121673584,1.9120731353759766,3.956035852432251,0.31536200642585754,-0.44085681438446045,0.20658914744853973,1.7305281162261963
224,43727,43725,0.007856521755456924,-0.041524093598127365,0.9209083914756775,-2.269056558609009,-13.8770751953125,-0.2564065754413605,1.9117439985275269,3.9560227394104004,0.315847247838974,-0.33351826667785645,0.22020135819911957,1.734552264213562
225,43737,43735,-0.03979642316699028,-0.016859199851751328,0.9635924100875854,-8.140896797180176,-12.026079177856445,0.11774012446403503,1.9130584001541138,3.9560599327087402,0.3120128810405731,-0.2887715697288513,0.14874908328056335,1.7377955913543701
226,43747,43745,-0.0031275416258722544,-0.09712189435958862,1.0159547328948975,-12.57377815246582,-8.296730041503906,-0.6567920446395874,1.9120573997497559,3.9557995796203613,0.31216731667518616,-0.024184435606002808,0.1473437398672104,1.7400456666946411
227,43757,43755,0.027489716187119484,-0.04817601293325424,0.9423201680183411,-14.536595344543457,-3.7576723098754883,-0.5043126940727234,1.9133260250091553,3.9573280811309814,0.3122651278972626,-0.004493494983762503,-0.07990346103906631,1.751800298690796
228,43767,43765,-0.016518520191311836,0.04645970091223717,0.9906670451164246,-12.237483978271484,5.548405647277832,-0.9869621992111206,1.914053201675415,3.957397222518921,0.31233829259872437,-0.009792979806661606,-0.22372229397296906,1.7458460330963135
229,43777,43775,-0.023030558601021767,-0.01476256549358368,0.9552789926528931,-5.922086238861084,12.963354110717773,-0.6219955682754517,1.9153425693511963,3.956477403640747,0.31372663378715515,-0.06873739510774612,-0.23924505710601807,1.7308783531188965
230,43787,43785,-0.03466199338436127,-0.002067563822492957,0.9710499048233032,3.1101691722869873,17.597126007080078,-0.23998336493968964,1.9164507389068604,3.9560658931732178,0.3137913942337036,-0.24088218808174133,-0.2970176041126251,1.713214635848999
231,43797,43795,-0.045126304030418396,-0.052760716527700424,0.9799506664276123,9.662345886230469,18.362356185913086,0.10099777579307556,1.917718529701233,3.9557788372039795,0.3138429820537567,-0.46799278259277344,-0.21548813581466675,1.7096469402313232
232,43807,43805,-0.01871626451611519,-0.03138417750597,0.9834691882133484,12.480864524841309,18.498323440551758,0.3244202733039856,1.919497013092041,3.9556758403778076,0.31353476643562317,-0.7133789658546448,-0.12185782194137573,1.7118598222732544
233,43817,43815,-0.02192814275622368,-0.012950041331350803,0.9886506795883179,11.81330680847168,11.81351375579834,1.164900541305542,1.9188175201416016,3.9546291828155518,0.3137039840221405,-0.7523536682128906,0.08032329380512238,1.7150964736938477
234,43827,43825,0.039982590824365616,-0.04803108796477318,0.9612827897071838,10.14634895324707,5.8930840492248535,-0.24570332467556,1.919492244720459,3.954965114593506,0.31376028060913086,-0.8462586998939514,0.1761624962091446,1.739190936088562
235,43837,43835,-0.01410709135234356,0.06051085516810417,1.0104163885116577,4.906884670257568,-3.9062705039978027,-1.4205145835876465,1.9196479320526123,3.954274892807007,0.3111375570297241,-0.7995690107345581,0.29893791675567627,1.734339952468872
236,43847,43845,-0.019309647381305695,-0.030441703274846077,0.9613016843795776,-0.43622636795043945,-8.35399341583252,-1.6422252655029297,1.9184449911117554,3.9552810192108154,0.31109437346458435,-0.638837456703186,0.2542203664779663,1.717403531074524
237,43857,43855,0.02146083675324917,-0.14749909937381744,1.0186618566513062,-7.290343284606934,-8.721481323242188,-1.1550445556640625,1.9190051555633545,3.9554944038391113,0.31090104579925537,-0.5925214886665344,0.19714787602424622,1.6964573860168457
238,43867,43865,0.0762893408536911,-0.16615502536296844,1.0498868227005005,-9.331402778625488,-9.010265350341797,-1.9203425645828247,1.918190360069275,3.9560203552246094,0.31082332134246826,-0.3639189600944519,0.05915521830320358,1.6805320978164673
239,43877,43875,0.003307403065264225,0.05518777668476105,0.9520789980888367,-11.394619941711426,-6.695084571838379,-1.1407958269119263,1.9211302995681763,3.9565110206604004,0.3099989891052246,-0.5778352618217468,-0.04047685116529465,1.6803114414215088
