,timestamp_start,timestamp_end,acc.x,acc.y,acc.z,gyro.x,gyro.y,gyro.z,stateEstimate.x,stateEstimate.y,stateEstimate.z,stabilizer.pitch,stabilizer.roll,stabilizer.yaw
0,45355,45354,0.08056255429983139,0.09755934774875641,0.9936736226081848,3.4474430084228516,10.640384674072266,-3.575528860092163,2.0232748985290527,4.009617328643799,0.1673147976398468,0.1989947259426117,-0.10854776948690414,3.1791205406188965
1,45365,45364,-0.004928237292915583,0.017665205523371696,1.0704681873321533,0.5125090479850769,9.053217887878418,-3.7638185024261475,2.02111554145813,4.0083327293396,0.16885803639888763,0.2837642431259155,-0.006736999377608299,3.145350933074951
2,45375,45374,-0.0066764778457582,-0.044809240847826004,1.055368185043335,-2.4148201942443848,6.399190425872803,-3.543395519256592,2.019357442855835,4.0078816413879395,0.17051494121551514,0.09679847210645676,0.11551246047019958,3.102095603942871
3,45385,45384,0.004501471295952797,0.10458129644393921,1.0207786560058594,-4.430284023284912,6.179964542388916,-3.5407025814056396,2.019942283630371,4.0085859298706055,0.1726398468017578,-0.09580348432064056,-0.03800985589623451,3.063157796859741
4,45395,45394,-0.004636120051145554,0.04059552028775215,1.0526851415634155,-6.14836311340332,4.946339130401611,-2.97469425201416,2.017730712890625,4.008481502532959,0.1743658483028412,0.02411898598074913,-0.0658668577671051,3.037484645843506
5,45405,45404,0.02842814475297928,-0.041345082223415375,1.0809382200241089,-5.181070327758789,6.562245845794678,-3.724310874938965,2.017364978790283,4.00773286819458,0.17617473006248474,-0.09902674704790115,-0.19351118803024292,3.002310276031494
6,45415,45414,0.019270434975624084,-0.01569734886288643,1.039393424987793,-2.3620333671569824,8.220525741577148,-3.4066669940948486,2.016406774520874,4.008016109466553,0.17764849960803986,-0.15692365169525146,-0.29318055510520935,2.962273120880127
7,45425,45424,0.028700189664959908,0.04452810063958168,1.0598082542419434,1.4767861366271973,7.082831859588623,-3.6101019382476807,2.015622138977051,4.008362293243408,0.1795327365398407,-0.30499064922332764,-0.3387444019317627,2.9242336750030518
8,45435,45434,0.010382072068750858,0.005855410359799862,1.0534019470214844,5.568668365478516,6.027027606964111,-3.3332149982452393,2.01615571975708,4.008052349090576,0.1815134882926941,-0.5064265727996826,-0.24351659417152405,2.8938658237457275
9,45445,45444,-0.03699846565723419,0.011098156683146954,1.0640901327133179,7.681211471557617,4.334977626800537,-3.2299001216888428,2.0151548385620117,4.007786273956299,0.18333879113197327,-0.5255014896392822,-0.17155838012695312,2.8620657920837402
10,45455,45454,0.00788821280002594,-0.01935224048793316,1.041304349899292,6.75899600982666,1.4168294668197632,-3.1538748741149902,2.013613700866699,4.007280349731445,0.18534278869628906,-0.44250497221946716,-0.0685482770204544,2.8319783210754395
11,45465,45464,0.039970602840185165,-0.05636528506875038,1.0413795709609985,3.0904085636138916,-1.2886453866958618,-3.386669874191284,2.011091470718384,4.007507801055908,0.1872013956308365,-0.1802854686975479,0.011703260242938995,2.80407977104187
12,45475,45474,-0.002126918639987707,-0.08559145778417587,1.0999566316604614,-0.5572795867919922,0.4325684607028961,-3.4422593116760254,2.010530948638916,4.0078229904174805,0.18958687782287598,-0.2719288468360901,0.03332298994064331,2.771591901779175
13,45485,45484,0.006655337754637003,-0.017738569527864456,1.0965561866760254,-4.119086265563965,1.9942785501480103,-3.149200201034546,2.0098907947540283,4.007757186889648,0.193322092294693,-0.3076537549495697,-0.00014930138422641903,2.7335073947906494
14,45495,45494,0.003470790106803179,-0.07060176879167557,1.007314682006836,-6.554864883422852,6.412099838256836,-3.7605488300323486,2.009953022003174,4.008439540863037,0.19581498205661774,-0.4462472200393677,-0.08451113849878311,2.6942098140716553
15,45505,45504,0.028731780126690865,0.01375617552548647,1.0665457248687744,-6.153772830963135,8.958279609680176,-3.442267894744873,2.0081593990325928,4.006900787353516,0.19820669293403625,-0.42816874384880066,-0.060277462005615234,2.670145273208618
16,45515,45514,-0.007740323897451162,0.008165956474840641,1.0682767629623413,-3.601292371749878,8.308215141296387,-3.6056387424468994,2.0075266361236572,4.006690502166748,0.20045781135559082,-0.580079972743988,-0.10727448016405106,2.63789963722229
17,45525,45524,-0.00011665229976642877,0.03384896740317345,1.0066092014312744,-1.5070745944976807,7.494482517242432,-3.410137891769409,2.0074448585510254,4.006288528442383,0.20300351083278656,-0.7819761037826538,-0.18766093254089355,2.5937752723693848
18,45535,45534,-0.01356482319533825,0.10994765907526016,0.9422675967216492,1.2113044261932373,2.5794525146484375,-3.034036159515381,2.0075013637542725,4.0063934326171875,0.20551274716854095,-0.9516357183456421,-0.2241373360157013,2.553323268890381
19,45545,45544,-0.03482332080602646,0.006741963326931,0.9965864419937134,2.869927167892456,-1.8993685245513916,-2.820866823196411,2.007110118865967,4.005042552947998,0.20765838027000427,-1.032470703125,-0.14620158076286316,2.5327436923980713
20,45555,45554,0.02670770138502121,-0.13862395286560059,0.9839429259300232,3.9869747161865234,-6.515769958496094,-2.8797695636749268,2.007136583328247,4.003767490386963,0.21010035276412964,-1.0131382942199707,0.021987149491906166,2.5316171646118164
21,45565,45564,-0.012119997292757034,-0.014290597289800644,1.004523754119873,3.1318411827087402,-9.201741218566895,-3.3280160427093506,2.005150556564331,4.003210067749023,0.21277590095996857,-0.7822961807250977,-0.031524356454610825,2.489633798599243
22,45575,45574,0.011253401637077332,-0.14822770655155182,0.9643781781196594,-0.2636864483356476,-9.600625991821289,-3.2454769611358643,2.0036869049072266,4.0043134689331055,0.21526125073432922,-0.6507785320281982,-0.009717078879475594,2.456519603729248
23,45585,45584,-0.03239653632044792,-0.043611396104097366,1.0026600360870361,-2.1686394214630127,-8.34703254699707,-3.268045425415039,2.001025915145874,4.004703521728516,0.22104518115520477,-0.25174465775489807,-0.17638938128948212,2.3963048458099365
24,45595,45594,0.053975947201251984,-0.07035620510578156,0.937199592590332,-4.038342475891113,-0.41729381680488586,-2.7329111099243164,1.9986311197280884,4.009808540344238,0.2231975793838501,-0.0109219616279006,-0.7165111303329468,2.273670196533203
25,45605,45604,0.019003530964255333,-0.03507034480571747,0.9589824080467224,-1.0412846803665161,4.673088073730469,-2.467742443084717,1.9984090328216553,4.011142730712891,0.22618108987808228,-0.11481157690286636,-0.7110519409179688,2.253098964691162
26,45615,45614,-0.0021405420266091824,0.010465463623404503,0.9704665541648865,4.86622953414917,11.241278648376465,-2.105578899383545,1.9980648756027222,4.011376857757568,0.2276199460029602,-0.214442640542984,-0.6625699996948242,2.239652156829834
27,45625,45624,-0.00730743957683444,-0.0009051855886355042,0.9661027789115906,11.299469947814941,14.952845573425293,-1.8213481903076172,1.9973772764205933,4.011176586151123,0.2302444577217102,-0.3336157500743866,-0.5268391966819763,2.2315804958343506
28,45635,45634,0.03513161838054657,0.03291361406445503,0.9207273125648499,14.521770477294922,18.625659942626953,-2.4982826709747314,1.9975110292434692,4.010880947113037,0.2329084873199463,-0.6528213620185852,-0.30002591013908386,2.2364587783813477
29,45645,45644,0.062197305262088776,0.019067274406552315,0.9438803791999817,16.2800235748291,12.910174369812012,-2.247084140777588,1.9965667724609375,4.0103888511657715,0.23283721506595612,-0.7573689222335815,-0.17009872198104858,2.208493709564209
30,45655,45654,0.010941384360194206,-0.1866580694913864,0.9815722703933716,13.932937622070312,7.624057292938232,-2.3465185165405273,1.9961429834365845,4.010375022888184,0.23500634729862213,-0.9191510081291199,-0.01316806860268116,2.186173677444458
31,45665,45664,-0.07433533668518066,-0.14848370850086212,0.9451446533203125,10.97173023223877,-0.19420157372951508,-2.4588921070098877,1.996248483657837,4.0091552734375,0.2371278554201126,-1.0723003149032593,0.2503923773765564,2.185267210006714
32,45675,45674,-0.067285917699337,-0.13679474592208862,0.9301542639732361,4.453517436981201,-1.7388722896575928,-2.7198519706726074,1.994055151939392,4.009998798370361,0.2392287254333496,-1.012893795967102,0.3044889271259308,2.149733304977417
33,45685,45684,-0.018778618425130844,-0.018653620034456253,0.9542803168296814,-0.40745383501052856,-3.2065112590789795,-2.6436307430267334,1.993518590927124,4.009584903717041,0.23946285247802734,-1.0117895603179932,0.4062199294567108,2.12872576713562
34,45695,45694,-0.039388712495565414,0.1115451529622078,0.9467154145240784,-4.3097758293151855,-8.401352882385254,-1.9754332304000854,1.9927043914794922,4.009564399719238,0.24136976897716522,-0.9478030204772949,0.4227084219455719,2.103865623474121
35,45705,45704,-0.04986486956477165,0.16275662183761597,0.925338089466095,-7.2146382331848145,-8.27368450164795,-1.9980006217956543,1.9937726259231567,4.0098042488098145,0.24325056374073029,-1.0207345485687256,0.37292298674583435,2.0734026432037354
36,45715,45714,-0.05856819078326225,0.17973577976226807,0.9233865141868591,-7.065275192260742,-7.266433238983154,-1.7708840370178223,1.9924671649932861,4.008767604827881,0.2439967840909958,-0.7939835786819458,0.49456697702407837,2.091707229614258
37,45725,45724,-0.006367865018546581,0.27593541145324707,0.9136120676994324,-4.999072074890137,-4.749817371368408,-1.811927318572998,1.9920639991760254,4.007460117340088,0.2455964833498001,-0.695315957069397,0.5160642862319946,2.091099262237549
38,45735,45734,0.010063284076750278,0.23270082473754883,0.9238008260726929,-3.4347987174987793,-3.130476951599121,-1.6971412897109985,1.9918721914291382,4.00808572769165,0.24728946387767792,-0.6480618715286255,0.3340860605239868,2.050466299057007
39,45745,45744,0.0077536748722195625,0.08717283606529236,0.9502120018005371,-0.8973843455314636,-2.221341848373413,-1.4286134243011475,1.9961111545562744,4.008281230926514,0.24894005060195923,-1.2144485712051392,0.277110755443573,1.9961451292037964
40,45755,45754,0.0759761780500412,0.06099627912044525,0.9234277009963989,0.020463310182094574,0.3241352140903473,-1.1294530630111694,1.9975565671920776,4.011531829833984,0.2502591609954834,-1.2827730178833008,0.03487739339470863,1.9348514080047607
41,45765,45764,0.10792768746614456,0.053070660680532455,0.9189209938049316,1.4474592208862305,-5.243336200714111,-0.7251776456832886,1.9939184188842773,4.006772041320801,0.2529846131801605,-0.8338690400123596,0.650417149066925,2.063416004180908
42,45775,45774,0.05574578046798706,0.0007542033563368022,0.9305651783943176,2.8849849700927734,-14.221320152282715,-1.364200234413147,1.9951510429382324,4.007321834564209,0.25437530875205994,-0.9409730434417725,0.6227316856384277,2.0397989749908447
43,45785,45784,-0.06735134869813919,0.03419762849807739,0.9519979953765869,-2.0397095680236816,-18.440853118896484,-0.986993670463562,1.9949171543121338,4.018983840942383,0.2581944763660431,-0.8207156658172607,-0.7949723601341248,1.7604396343231201
44,45795,45794,-0.03922893851995468,-0.016890421509742737,0.96719890832901,-5.349332809448242,-19.74749755859375,1.1655586957931519,1.9945881366729736,4.020140647888184,0.2598859667778015,-0.6401389241218567,-0.7123080492019653,1.7674521207809448
45,45805,45804,-0.01164152566343546,0.0355183444917202,0.9729436039924622,-1.787697196006775,-14.765413284301758,0.03359541669487953,1.9951242208480835,4.020692348480225,0.2614090144634247,-0.5450849533081055,-0.6980911493301392,1.782307505607605
46,45815,45814,-0.022769592702388763,0.06226980313658714,0.9721612930297852,8.457998275756836,-11.615827560424805,-0.23348481953144073,1.993566870689392,4.020359516143799,0.258339524269104,-0.2594066858291626,-0.5528688430786133,1.8147677183151245
47,45825,45824,-0.01919063739478588,0.05833815038204193,0.9670064449310303,18.37185287475586,-8.454591751098633,-0.45801711082458496,1.9942853450775146,4.019474029541016,0.25959858298301697,-0.25310495495796204,-0.33354246616363525,1.834641456604004
48,45835,45834,0.015865430235862732,0.005936827510595322,0.9365566968917847,23.06660270690918,-4.966737747192383,-0.546418309211731,1.9932459592819214,4.018063545227051,0.260821670293808,-0.06648167222738266,0.03180525079369545,1.8568789958953857
49,45845,45844,-0.0012705490225926042,0.02557315118610859,0.9810714721679688,23.131105422973633,-3.638932228088379,-0.17792032659053802,1.9932584762573242,4.0172014236450195,0.26087331771850586,-0.01949976198375225,0.3792162835597992,1.8656675815582275
50,45855,45854,0.007768573705106974,-0.06079961732029915,0.9461835026741028,15.995478630065918,-3.986501693725586,-0.3151957392692566,1.993937611579895,4.018396377563477,0.2618829607963562,-0.07080639153718948,0.4008316695690155,1.8407320976257324
51,45865,45864,-0.03919180855154991,0.0007366626523435116,0.9666814804077148,6.712430477142334,-3.6472647190093994,-0.7005521655082703,1.9937052726745605,4.01741361618042,0.26277321577072144,0.009557321667671204,0.7069628238677979,1.8500354290008545
52,45875,45874,-0.05919121205806732,0.04401302710175514,0.9686257243156433,-2.8903751373291016,-5.0630364418029785,-0.01641399785876274,1.9934217929840088,4.017265319824219,0.26403966546058655,0.06877236068248749,0.8353291749954224,1.8487528562545776
53,45885,45884,-0.04142199456691742,0.10083834826946259,0.9632454514503479,-8.866512298583984,-7.188056468963623,-0.6484012603759766,1.9938608407974243,4.017574787139893,0.26488545536994934,0.001990615390241146,0.8093923330307007,1.8400110006332397
54,45895,45894,0.0037521584890782833,0.056485679000616074,0.9342575073242188,-11.406192779541016,-8.97494125366211,-0.5967709422111511,1.9949253797531128,4.0175323486328125,0.26562780141830444,-0.013267399743199348,0.7586067318916321,1.8287104368209839
55,45905,45904,-0.013167096301913261,0.0789349377155304,0.982951819896698,-9.637757301330566,-9.600682258605957,-0.3906693756580353,1.994973063468933,4.016615867614746,0.2663522958755493,0.09105902910232544,0.7392550110816956,1.8265756368637085
56,45915,45914,0.013179128058254719,0.02411067672073841,0.9723528623580933,-6.616246223449707,-9.088433265686035,-0.24987484514713287,1.9947280883789062,4.017674446105957,0.2641863524913788,0.2200240045785904,0.5848223567008972,1.8213595151901245
57,45925,45924,-0.010714631527662277,0.021376226097345352,1.0037652254104614,-1.4350025653839111,-9.456254959106445,-0.07654785364866257,1.9947515726089478,4.0171637535095215,0.2646249830722809,0.273142009973526,0.5756195783615112,1.8160210847854614
58,45935,45934,-0.055560871958732605,0.006470855325460434,0.9839861989021301,2.6222965717315674,-8.217208862304688,-0.4481162130832672,1.9940439462661743,4.016145706176758,0.26507362723350525,0.4774335026741028,0.7051910758018494,1.8249359130859375
59,45945,45944,-0.1130015179514885,0.07182283699512482,0.9989176392555237,3.360140562057495,-5.872368335723877,-0.31319814920425415,1.994774580001831,4.017013072967529,0.26571452617645264,0.4960877597332001,0.7291113138198853,1.8140989542007446
60,45955,45954,-0.04354994744062424,0.018466927111148834,0.9977275133132935,-0.16413769125938416,-2.595231056213379,0.3743338882923126,1.9945168495178223,4.015925884246826,0.26618334650993347,0.6360517144203186,0.7598117589950562,1.8165230751037598
61,45965,45964,-0.04502977803349495,0.07916418462991714,1.0292223691940308,-4.562134265899658,-1.4797166585922241,-0.010946759954094887,1.9942288398742676,4.0152459144592285,0.26664602756500244,0.7055809497833252,0.7992651462554932,1.8210318088531494
62,45975,45974,0.006699321325868368,-0.0001600742689333856,0.9719670414924622,-9.019793510437012,2.107335090637207,-0.6129191517829895,1.9932986497879028,4.015771389007568,0.2667340934276581,0.7415571808815002,0.6851686239242554,1.8229788541793823
63,45985,45984,0.013434252701699734,0.042501647025346756,1.0424888134002686,-10.67309856414795,0.8526608347892761,-0.6908875107765198,1.9939204454421997,4.014448642730713,0.2671365737915039,0.6628936529159546,0.7248436212539673,1.806781530380249
64,45995,45994,0.005137775558978319,-0.046405140310525894,1.0103358030319214,-11.51036262512207,1.1675843000411987,-0.4068208336830139,1.9935650825500488,4.014741897583008,0.2676462233066559,0.6953320503234863,0.5168332457542419,1.8089478015899658
65,46005,46004,-0.012332851067185402,-0.0093771293759346,1.0170490741729736,-9.444254875183105,0.23355160653591156,-0.44273173809051514,1.9948663711547852,4.014005661010742,0.26811346411705017,0.566119372844696,0.45860183238983154,1.7861379384994507
66,46015,46014,0.032906368374824524,-0.031356316059827805,1.0715079307556152,-6.944591045379639,-1.0538920164108276,0.08946406841278076,1.9944616556167603,4.015594005584717,0.26754656434059143,0.6022906303405762,0.27885234355926514,1.7923518419265747
67,46025,46024,0.010995572432875633,-0.05651368573307991,1.0369369983673096,-5.119320392608643,-2.746511459350586,-0.36878153681755066,1.994329571723938,4.014586448669434,0.2680090665817261,0.6556913256645203,0.2926744818687439,1.7914026975631714
68,46035,46034,0.019291313365101814,-0.014113642275333405,1.0262713432312012,-2.6025304794311523,-4.040237903594971,0.021193882450461388,1.9944922924041748,4.012989044189453,0.26849713921546936,0.6595397591590881,0.408516526222229,1.7738354206085205
69,46045,46044,-0.03775334730744362,-0.02539387345314026,1.0794992446899414,-2.0484910011291504,-5.737362861633301,0.9422991275787354,1.9949597120285034,4.012604236602783,0.27338144183158875,0.6065084934234619,0.38901713490486145,1.7664971351623535
70,46055,46054,-0.027613399550318718,0.012853915803134441,1.0300238132476807,-5.125288009643555,-3.962994337081909,0.28143376111984253,1.9943792819976807,4.011960983276367,0.27419549226760864,0.7038133144378662,0.4371248185634613,1.768758773803711
71,46065,46064,-0.04376905411481857,0.11173383891582489,1.0687456130981445,-8.23316764831543,-2.9878005981445312,0.0004028473631478846,1.994863510131836,4.012900352478027,0.2751748859882355,0.7007420063018799,0.27977240085601807,1.776122808456421
72,46075,46074,0.03658308461308479,-0.03208628296852112,0.9851158857345581,-11.90447998046875,-0.8424111604690552,-0.9803781509399414,1.9943623542785645,4.011173725128174,0.2795783579349518,0.7695447206497192,0.22920401394367218,1.7748087644577026
73,46085,46084,0.08001603931188583,-0.06727638095617294,1.02031409740448,-13.40842056274414,-2.9146151542663574,-0.745918333530426,1.9946298599243164,4.0106611251831055,0.28077203035354614,0.7330591678619385,0.1193503886461258,1.7616811990737915
74,46095,46094,-0.03578463941812515,0.090729258954525,1.0311081409454346,-12.629199981689453,-2.8128600120544434,-0.5758090019226074,1.993739366531372,4.00938081741333,0.2819852828979492,0.8353114128112793,-0.0673411637544632,1.7632195949554443
75,46105,46104,-0.038997262716293335,0.05655433237552643,0.984809935092926,-10.446495056152344,-1.6522244215011597,-0.08015915751457214,1.9929360151290894,4.0085954666137695,0.2831871807575226,0.889447033405304,-0.17308583855628967,1.7559858560562134
76,46115,46114,-0.04579607769846916,0.15368643403053284,1.0037789344787598,-6.482343673706055,1.8175382614135742,-0.16288918256759644,1.9921773672103882,4.009979724884033,0.281840056180954,0.8429612517356873,-0.30806243419647217,1.7556549310684204
77,46125,46124,0.018113717436790466,0.028274783864617348,0.9760130643844604,-3.577099323272705,2.6875672340393066,0.12453708797693253,1.992692232131958,4.008261680603027,0.2829280197620392,0.8308537602424622,-0.30192267894744873,1.7468793392181396
78,46135,46134,0.0026368352118879557,0.00689840828999877,1.0078647136688232,-1.8908321857452393,5.828738689422607,0.11094176769256592,1.992432951927185,4.00830602645874,0.28405001759529114,0.8080514073371887,-0.33543726801872253,1.7484116554260254
79,46145,46144,0.07113613188266754,-0.06489859521389008,0.9272301197052002,-1.305294394493103,12.140812873840332,0.02901984006166458,1.9929327964782715,4.007064342498779,0.2840290069580078,0.70208340883255,-0.33967989683151245,1.746760368347168
80,46155,46154,-0.003076470224186778,0.0037572341971099377,0.9994518160820007,-1.5192722082138062,16.14974021911621,-0.48289063572883606,1.9933310747146606,4.006309986114502,0.28507405519485474,0.4853428602218628,-0.3400670886039734,1.7433871030807495
81,46165,46164,-0.022886784747242928,0.013968095183372498,1.0044630765914917,-3.8740956783294678,22.072439193725586,-0.025991953909397125,1.9928216934204102,4.005342960357666,0.2860566973686218,0.345538854598999,-0.3631393313407898,1.7382217645645142
82,46175,46174,-0.010375821962952614,-0.005249063018709421,0.9885055422782898,-6.717777252197266,22.303098678588867,-0.35605260729789734,1.9927009344100952,4.007368087768555,0.29046744108200073,0.1338922679424286,-0.42280539870262146,1.7401766777038574
83,46185,46184,0.040078189224004745,-0.11625397950410843,0.9670335650444031,-8.40269660949707,19.44286346435547,-0.23943383991718292,1.9922313690185547,4.00665807723999,0.29161328077316284,-0.04815115034580231,-0.44454026222229004,1.7310466766357422
84,46195,46194,0.04201008751988411,-0.1611184924840927,1.019193410873413,-8.679350852966309,15.190666198730469,-0.4651953876018524,1.9908143281936646,4.005583763122559,0.2927996814250946,-0.09709927439689636,-0.564834475517273,1.728692889213562
85,46205,46204,0.03760933876037598,-0.07088828831911087,0.9766474962234497,-8.341560363769531,15.248157501220703,-0.9187254309654236,1.9909930229187012,4.005490779876709,0.2918679714202881,-0.3555077314376831,-0.7718222737312317,1.7320095300674438
86,46215,46214,0.06811004877090454,-0.05114733427762985,0.9343564510345459,-3.880779504776001,9.130046844482422,-0.6466644406318665,1.991791844367981,4.005143642425537,0.2928018867969513,-0.5371286869049072,-0.8402886986732483,1.724655270576477
87,46225,46224,0.017726944759488106,0.019645310938358307,0.9962431788444519,-0.6815943121910095,9.777762413024902,-0.7784504294395447,1.9871487617492676,4.004034519195557,0.29397740960121155,-0.2641531825065613,-0.7604641318321228,1.6961326599121094
88,46235,46234,0.018749380484223366,0.03264036774635315,0.9856221079826355,3.750779628753662,6.021783351898193,-0.0786408931016922,1.987422227859497,4.004819869995117,0.2949228584766388,-0.3972025513648987,-0.77783203125,1.6954894065856934
89,46245,46244,0.021831579506397247,-0.005877485498785973,0.965093195438385,4.079449653625488,8.791568756103516,0.2682855725288391,1.9879508018493652,4.003806114196777,0.2957848608493805,-0.5258709192276001,-0.666462779045105,1.6979284286499023
90,46255,46254,0.00611457135528326,0.001392505713738501,0.9710688591003418,3.3327903747558594,11.488363265991211,0.43642961978912354,1.986965537071228,4.003641605377197,0.2966509759426117,-0.5387728214263916,-0.6446272134780884,1.692966103553772
91,46265,46264,0.020672891288995743,-0.03318212926387787,0.9413248896598816,0.030140452086925507,13.852863311767578,0.2921416461467743,1.9860535860061646,4.003042221069336,0.2974916398525238,-0.6085049510002136,-0.6563993692398071,1.6893119812011719
92,46275,46274,0.000951053574681282,-0.01848789118230343,0.9733851552009583,-3.2650132179260254,16.490535736083984,0.13103127479553223,1.987025499343872,4.003298282623291,0.2966802716255188,-0.8864741325378418,-0.7177593111991882,1.6985054016113281
93,46285,46284,-0.0346294604241848,0.027667803689837456,0.994265615940094,-4.948954105377197,17.056137084960938,-0.3862884044647217,1.9873000383377075,4.003652572631836,0.2973043918609619,-1.1066452264785767,-0.8248815536499023,1.6966445446014404
94,46295,46294,-0.004082907922565937,-0.015796391293406487,0.9454363584518433,-5.304872512817383,15.272599220275879,-0.464207261800766,1.9868303537368774,4.0024614334106445,0.29792794585227966,-1.2244800329208374,-0.867278516292572,1.684884786605835
95,46305,46304,0.010107276029884815,-0.04052114486694336,0.9372555613517761,-2.338468074798584,12.54283618927002,-0.5307379364967346,1.987906575202942,4.002737998962402,0.3014688491821289,-1.4717768430709839,-0.9669840931892395,1.6831337213516235
96,46315,46314,-0.01941259577870369,-0.00508173368871212,0.9657002091407776,0.2695293128490448,8.895691871643066,-0.5998857021331787,1.9889119863510132,4.002867698669434,0.3021058142185211,-1.6546945571899414,-1.0120716094970703,1.6795387268066406
97,46325,46324,-0.0014766653766855597,-0.019419923424720764,0.9499865174293518,3.565918207168579,3.3804771900177,-0.5510930418968201,1.987844705581665,4.001210689544678,0.3029463291168213,-1.5952833890914917,-0.8417459726333618,1.6763724088668823
98,46335,46334,0.004921694751828909,-0.04446469619870186,0.9299268126487732,6.4294114112854,-0.23981782793998718,0.3082232177257538,1.987951397895813,4.000767707824707,0.3035527467727661,-1.6194236278533936,-0.7895811200141907,1.6746670007705688
99,46345,46344,0.00988868996500969,-0.1193544790148735,0.925706148147583,6.818282127380371,-2.4896745681762695,0.23013056814670563,1.9874298572540283,3.999467611312866,0.3042728900909424,-1.5058300495147705,-0.6965813636779785,1.6692149639129639
100,46355,46354,0.04185080900788307,-0.12731485068798065,0.9492632746696472,5.771956920623779,-3.5681514739990234,0.45277106761932373,1.987148404121399,4.000020980834961,0.3047831952571869,-1.4671046733856201,-0.6941734552383423,1.6581108570098877
101,46365,46364,0.02661815471947193,-0.05061330273747444,0.9933669567108154,2.133063793182373,0.4229280352592468,-0.22911179065704346,1.9854756593704224,4.000179290771484,0.3052702248096466,-1.366364598274231,-0.6454970240592957,1.6489911079406738
102,46375,46374,0.005619893316179514,0.023044822737574577,0.9551997780799866,-0.07623732089996338,6.575730800628662,-0.5434108972549438,1.9854410886764526,4.000603675842285,0.30243808031082153,-1.4187313318252563,-0.7232896089553833,1.631600260734558
103,46385,46384,0.02048628404736519,-0.0027215902227908373,0.944359302520752,0.11033602803945541,7.236966133117676,-0.4991619288921356,1.9861717224121094,4.00201940536499,0.3025970757007599,-1.6043649911880493,-0.7332823872566223,1.6372839212417603
104,46395,46394,-0.008016731590032578,-0.019445009529590607,0.9710031151771545,1.8073674440383911,7.163180828094482,-0.5923086404800415,1.9857066869735718,4.00145149230957,0.30276140570640564,-1.6408907175064087,-0.7287964224815369,1.6266268491744995
105,46405,46404,-0.048288509249687195,0.056638672947883606,0.9846538305282593,3.9722368717193604,6.805586338043213,-0.11537816375494003,1.9863790273666382,4.002050876617432,0.30528727173805237,-1.7310357093811035,-0.687406599521637,1.6257075071334839
106,46415,46414,-0.017436854541301727,-0.006060340441763401,0.9816318154335022,6.238471984863281,4.5972771644592285,0.3985138237476349,1.986713171005249,4.00193452835083,0.3055345416069031,-1.8091832399368286,-0.6154587864875793,1.6306638717651367
107,46425,46424,-0.028535379096865654,0.002253044629469514,0.9869157671928406,7.961264133453369,1.5497790575027466,0.4489057958126068,1.9869359731674194,4.0021185874938965,0.3057987093925476,-1.8471190929412842,-0.5799938440322876,1.62687087059021
108,46435,46434,0.021478071808815002,-0.09564979374408722,0.9774473309516907,8.129205703735352,-3.8964810371398926,0.539612352848053,1.9872000217437744,4.001866340637207,0.3060556650161743,-1.829500436782837,-0.4538092613220215,1.6373802423477173
109,46445,46444,0.004586115013808012,-0.06361506879329681,1.008442997932434,6.820461273193359,2.04608154296875,-0.22323869168758392,1.9868559837341309,4.00209903717041,0.3058633506298065,-1.7650381326675415,-0.4776402711868286,1.6069155931472778
110,46455,46454,0.006796862930059433,0.00405033677816391,0.9841475486755371,6.035470485687256,-3.4384591579437256,-0.48009318113327026,1.9863684177398682,4.001720905303955,0.30607685446739197,-1.6943016052246094,-0.3546067476272583,1.6145379543304443
111,46465,46464,-0.00511341355741024,0.020170634612441063,0.9999650120735168,2.813668727874756,-2.515042304992676,-0.45692282915115356,1.9871418476104736,4.001197338104248,0.30623218417167664,-1.703011155128479,-0.2815340757369995,1.6203337907791138
112,46475,46474,-0.010473272763192654,-0.06522965431213379,0.983345091342926,0.5931187868118286,-2.8690366744995117,-1.0594606399536133,1.986929178237915,4.000603675842285,0.30521145462989807,-1.6246001720428467,-0.2485945075750351,1.6115314960479736
113,46485,46484,-0.06777055561542511,-0.0704105794429779,1.0281198024749756,-1.5846898555755615,-1.0371524095535278,-1.0284560918807983,1.987754464149475,4.001286506652832,0.3052371144294739,-1.7048449516296387,-0.26053112745285034,1.6075241565704346
114,46495,46494,0.014872864820063114,-0.04595733806490898,0.9381679892539978,-1.2598130702972412,1.402893304824829,-1.0668494701385498,1.9871853590011597,4.001036643981934,0.3053199350833893,-1.6730276346206665,-0.290101557970047,1.5903416872024536
115,46505,46504,-0.02433902584016323,0.05900890380144119,1.0336636304855347,0.4438052475452423,5.893187522888184,-1.5789330005645752,1.9888489246368408,4.002102375030518,0.3055131137371063,-1.8256081342697144,-0.3747882544994354,1.5657222270965576
116,46515,46514,0.09660714864730835,0.10101965069770813,0.9339133501052856,3.588711977005005,7.032119274139404,-1.7414846420288086,1.9891239404678345,4.001219749450684,0.30557018518447876,-1.8892848491668701,-0.33666497468948364,1.553964376449585
117,46525,46524,0.019147910177707672,0.017933716997504234,0.9886854887008667,7.190461158752441,0.936430811882019,-1.901620626449585,1.9892261028289795,4.000868797302246,0.3056245744228363,-1.8930237293243408,-0.2393549680709839,1.5466926097869873
118,46535,46534,0.004715335555374622,-0.009940889663994312,0.9783968329429626,8.05331802368164,-2.274688243865967,-1.7339129447937012,1.989190936088562,4.000898361206055,0.30677783489227295,-1.8249733448028564,-0.17401650547981262,1.51577889919281
119,46545,46544,-0.02865324728190899,-0.02068418264389038,1.0135067701339722,7.919655799865723,-5.34259557723999,-1.535078763961792,1.9888744354248047,4.000336647033691,0.3067733943462372,-1.7864259481430054,-0.10788634419441223,1.4931375980377197
120,46555,46554,-0.0017804006347432733,0.07253462076187134,1.006683588027954,5.229496955871582,-6.905794620513916,-1.860601782798767,1.9892338514328003,3.9999289512634277,0.30684858560562134,-1.6905155181884766,0.010777387768030167,1.4908936023712158
121,46565,46564,-0.010071721859276295,-0.01366826519370079,0.9635829329490662,2.6065073013305664,-4.787199974060059,-1.7937061786651611,1.9899691343307495,4.000072479248047,0.3068642318248749,-1.6700576543807983,0.07877404987812042,1.4819517135620117
122,46575,46574,-0.04671463742852211,-0.0738193616271019,0.9548490643501282,-0.14250361919403076,-7.147310733795166,-1.576881766319275,1.991425633430481,4.000014781951904,0.3085666298866272,-1.7047593593597412,0.09668787568807602,1.4730690717697144
123,46585,46584,0.027813471853733063,-0.14644251763820648,0.926420271396637,-2.7266845703125,-6.524526596069336,-0.6046041250228882,1.9911807775497437,4.001288890838623,0.3087562322616577,-1.5691261291503906,0.06641203165054321,1.4613580703735352
124,46595,46594,0.012253557331860065,-0.04399105906486511,0.9522215723991394,-2.636192798614502,-8.702869415283203,-0.04764103889465332,1.9915156364440918,4.001724720001221,0.30880939960479736,-1.503456950187683,0.024082254618406296,1.4537808895111084
125,46605,46604,-0.0008537714020349085,0.01705550216138363,1.0127217769622803,-2.558194637298584,-8.414793968200684,-0.4454292356967926,1.990857720375061,4.001992225646973,0.31097710132598877,-1.2828421592712402,-0.02627820521593094,1.4476922750473022
126,46615,46614,-0.012293153442442417,0.014137440361082554,0.9821516871452332,-1.098648190498352,-5.142529010772705,0.43402597308158875,1.9896644353866577,4.001996994018555,0.31113967299461365,-1.0997380018234253,-0.05977378413081169,1.446048617362976
127,46625,46624,-0.0436733141541481,0.14799581468105316,1.0028074979782104,0.48607027530670166,-0.35996365547180176,-0.5629033446311951,1.9914519786834717,4.001663684844971,0.3112049102783203,-1.2278478145599365,-0.055027421563863754,1.4437850713729858
128,46635,46634,0.005345024634152651,0.13114450871944427,0.9461064338684082,2.628574848175049,2.731757164001465,-0.8727323412895203,1.9925644397735596,4.0013933181762695,0.3088478744029999,-1.3339757919311523,-0.031185554340481758,1.4376393556594849
129,46645,46644,-0.0475442074239254,0.12597359716892242,0.9946995973587036,3.83257794380188,1.9792197942733765,-1.046091079711914,1.9932975769042969,4.000815391540527,0.30868393182754517,-1.4489847421646118,0.025803737342357635,1.4298921823501587
130,46655,46654,-0.0020641018636524677,-0.014616306871175766,0.994192898273468,4.527065753936768,-0.19605199992656708,-1.595708966255188,1.993894100189209,4.000145435333252,0.3086051642894745,-1.4313942193984985,0.055597420781850815,1.4365307092666626
131,46665,46664,-0.047390080988407135,-0.05522340536117554,1.0189645290374756,4.636948108673096,-5.9875311851501465,-1.0383695363998413,1.9941970109939575,4.001051902770996,0.30858513712882996,-1.3757895231246948,0.13365274667739868,1.4271883964538574
132,46675,46674,-0.09292574971914291,0.029242442920804024,1.0232462882995605,3.433772325515747,-9.344194412231445,-0.8712593913078308,1.9946849346160889,4.002182960510254,0.30969902873039246,-1.3266409635543823,0.05649127811193466,1.389979362487793
133,46685,46684,0.003949151374399662,0.05939406529068947,0.9584137201309204,2.424194097518921,-10.716567993164062,-0.3107895255088806,1.9955886602401733,4.002493858337402,0.3097567558288574,-1.2143194675445557,0.12637576460838318,1.3868752717971802
134,46695,46694,0.002343748463317752,0.01173255406320095,1.0085325241088867,2.3747894763946533,-11.882109642028809,-0.9399231672286987,1.9948288202285767,4.002516269683838,0.3099402189254761,-0.9316836595535278,0.09938818216323853,1.3786535263061523
135,46705,46704,0.0509008951485157,-0.12831434607505798,0.9848560094833374,2.274787664413452,-10.58885669708252,-1.0817605257034302,1.9966411590576172,4.002355575561523,0.3126872479915619,-0.9503515362739563,0.1486007124185562,1.3701164722442627
136,46715,46714,-0.012172741815447807,-0.07167312502861023,1.015188455581665,1.2499322891235352,-7.522167682647705,-1.0059621334075928,1.9969428777694702,4.00308084487915,0.31283822655677795,-0.8293812274932861,0.11626157909631729,1.3519952297210693
137,46725,46724,0.025429967790842056,-0.07844945043325424,0.9423227906227112,-0.3766590654850006,-5.562155246734619,-1.3551127910614014,1.9978545904159546,4.003528594970703,0.31301167607307434,-0.7543851137161255,0.14709700644016266,1.3503146171569824
138,46735,46734,-0.020225703716278076,-0.025773335248231888,0.9998781085014343,-0.21552801132202148,-5.077061176300049,-2.399390697479248,1.9985519647598267,4.002877235412598,0.3117314577102661,-0.7068312168121338,0.23176388442516327,1.348684549331665
139,46745,46744,0.07121023535728455,-0.030016258358955383,1.0775954723358154,1.6994825601577759,-4.089739799499512,-2.432178020477295,2.0006253719329834,4.002847194671631,0.3117171823978424,-0.7513993382453918,0.23095887899398804,1.3239152431488037
140,46755,46754,0.04343143105506897,-0.06391507387161255,0.9877977967262268,0.9849720001220703,-5.676560401916504,-3.8346285820007324,2.000150442123413,4.003141403198242,0.311948299407959,-0.5636076331138611,0.25014376640319824,1.3107274770736694
141,46765,46764,-0.04447638615965843,0.02851611003279686,1.0288623571395874,0.9051300287246704,-6.884239673614502,-3.3245887756347656,2.002479076385498,4.004510879516602,0.3142620921134949,-0.6668036580085754,0.12061075866222382,1.250788688659668
142,46775,46774,0.030652951449155807,-0.029658161103725433,0.9747151136398315,1.1097179651260376,-7.793776512145996,-3.6856794357299805,2.003035306930542,4.00307035446167,0.3145320415496826,-0.5785358548164368,0.22242996096611023,1.225643515586853
143,46785,46784,-0.027713129296898842,0.00481198076158762,1.003140926361084,2.8694868087768555,-10.911969184875488,-3.802055597305298,2.0023269653320312,4.003140926361084,0.3149525821208954,-0.32215961813926697,0.24949908256530762,1.1980069875717163
144,46795,46794,-0.0046035717241466045,-0.04583799093961716,0.9803091883659363,2.678779125213623,-11.436543464660645,-3.8505241870880127,2.004110813140869,4.002218246459961,0.3151506781578064,-0.3598650395870209,0.2963692843914032,1.1564056873321533
145,46805,46804,-0.022048095241189003,0.0076386951841413975,0.9775679707527161,1.0839637517929077,-8.95632553100586,-3.2436013221740723,2.0047926902770996,4.002389907836914,0.31317296624183655,-0.2144714742898941,0.34113723039627075,1.1197580099105835
146,46815,46814,0.0009620896889828146,-0.003791259601712227,0.9871622323989868,-1.5262126922607422,-4.1447248458862305,-1.9615873098373413,2.006924867630005,4.002658367156982,0.313228964805603,-0.19630657136440277,0.3523492217063904,1.0783846378326416
147,46825,46824,0.06758442521095276,-0.021167699247598648,0.956806480884552,-4.5004963874816895,0.4702939987182617,-0.8730329275131226,2.006601572036743,4.002739906311035,0.31344375014305115,-0.01519370824098587,0.3208531141281128,1.0623387098312378
148,46835,46834,0.11524488776922226,-0.12672865390777588,0.9473245143890381,-5.383293628692627,1.9590684175491333,0.11350824683904648,2.0061850547790527,4.001907825469971,0.3123624622821808,0.08708399534225464,0.328207403421402,1.051979899406433
149,46845,46844,-0.022539932280778885,-0.027088409289717674,1.0000282526016235,-5.756363868713379,1.1760178804397583,-0.03292537480592728,2.0098273754119873,4.000572204589844,0.3121630847454071,-0.21917343139648438,0.3125706911087036,1.0234014987945557
150,46855,46854,0.009042909368872643,-0.07546660304069519,0.9436749815940857,-5.527429103851318,0.8046467900276184,-0.42982038855552673,2.009434938430786,4.0014472007751465,0.3122008740901947,-0.12622931599617004,0.15494133532047272,1.0303866863250732
151,46865,46864,-0.030949806794524193,-0.08795225620269775,1.0141562223434448,-4.706345081329346,-1.7618458271026611,-0.530029833316803,2.009272336959839,4.002336502075195,0.31346359848976135,-0.01522277481853962,0.11276029050350189,1.0454872846603394
152,46875,46874,0.016768384724855423,-0.0951157808303833,0.9510214924812317,-2.175015449523926,-1.7386778593063354,-0.32919296622276306,2.0105319023132324,4.002908229827881,0.313410222530365,-0.030642304569482803,0.0029174736700952053,1.0339326858520508
153,46885,46884,0.007206660229712725,0.033021263778209686,1.0068714618682861,0.08998703211545944,-0.06638970971107483,-0.1270078420639038,2.011948585510254,4.001255035400391,0.3133365511894226,-0.06818044185638428,0.15004132688045502,1.0246922969818115
154,46895,46894,0.09020925313234329,0.07048691064119339,0.974276065826416,-0.2295326441526413,2.7011377811431885,0.08967649191617966,2.011568546295166,4.001101016998291,0.31344613432884216,0.055709391832351685,0.13474753499031067,1.031201958656311
155,46905,46904,0.03140898793935776,0.002008898416534066,0.9912786483764648,-2.6354551315307617,-2.3382678031921387,-0.6045615673065186,2.012169361114502,4.0011091232299805,0.31183645129203796,0.09849869459867477,0.10300440341234207,1.0320748090744019
156,46915,46914,0.013072917237877846,0.002808680757880211,1.0029101371765137,-5.994082450866699,-1.4129174947738647,-2.351590871810913,2.0141332149505615,4.0011444091796875,0.31158217787742615,0.015828657895326614,0.015528058633208275,1.015012264251709
157,46925,46924,-0.03199859336018562,-0.019078902900218964,1.0129659175872803,-8.646363258361816,-2.4456968307495117,-2.072796583175659,2.013787269592285,4.002037525177002,0.31151577830314636,0.1424335241317749,-0.04345211759209633,1.0263681411743164
158,46935,46934,0.02657533437013626,-0.06596220284700394,1.0080515146255493,-8.46764850616455,-1.4797451496124268,-1.8838529586791992,2.0164949893951416,4.001889705657959,0.3087535500526428,-0.0255910512059927,-0.1068229228258133,0.9937841296195984
159,46945,46944,-0.000757542613428086,0.024845076724886894,1.0364559888839722,-5.741540908813477,-2.9150795936584473,-1.9356275796890259,2.0172383785247803,4.00201416015625,0.3084357678890228,0.04242796078324318,-0.17816945910453796,0.9656375646591187
160,46955,46954,0.006967064458876848,0.010167771950364113,1.021146535873413,-1.76192045211792,-4.874447345733643,-1.8889538049697876,2.01672101020813,4.002725601196289,0.3082242012023926,0.20384234189987183,-0.28188982605934143,0.9641941785812378
161,46965,46964,-0.00671030068770051,-0.004285351373255253,1.0518699884414673,2.5807230472564697,-6.2909746170043945,-2.1484124660491943,2.0180819034576416,4.003599643707275,0.3102910816669464,0.15666040778160095,-0.3071131110191345,0.9519755840301514
162,46975,46974,0.008921308442950249,-0.005196896847337484,1.054721474647522,6.308516979217529,-4.019072532653809,-2.5553712844848633,2.0180137157440186,4.003285884857178,0.31028279662132263,0.282438725233078,-0.25204774737358093,0.9269981384277344
163,46985,46984,-0.04462695121765137,-0.1472989171743393,1.0435222387313843,6.4973225593566895,-2.122286319732666,-3.045907735824585,2.019317388534546,4.002521514892578,0.31022846698760986,0.2965151369571686,-0.15351589024066925,0.8912051916122437
164,46995,46994,0.0020023458637297153,-0.01616499572992325,1.0312018394470215,3.3173294067382812,-0.34770745038986206,-2.749044895172119,2.019669532775879,4.002175331115723,0.3102577328681946,0.3597627580165863,-0.05818558484315872,0.8447585701942444
165,47005,47004,-0.019646000117063522,0.007648206315934658,1.059169888496399,-0.314510315656662,-0.036341071128845215,-2.3161654472351074,2.021087169647217,4.001551151275635,0.310541570186615,0.3182806372642517,-0.017461689189076424,0.8156263828277588
166,47015,47014,0.033845968544483185,0.001655736705288291,1.015643835067749,-4.281034469604492,0.41925716400146484,-2.03062105178833,2.021436929702759,4.000960826873779,0.3106526732444763,0.3345772922039032,-0.03636999428272247,0.779082715511322
167,47025,47024,-0.01760200969874859,0.03303450718522072,1.0623897314071655,-6.832153797149658,-4.491853713989258,-1.773412823677063,2.0222108364105225,4.001324653625488,0.31081557273864746,0.3405800759792328,-0.11866077780723572,0.7640469074249268
168,47035,47034,-0.10310489684343338,-0.08967426419258118,1.0293214321136475,-8.88658332824707,-2.9985909461975098,-2.120337724685669,2.022332191467285,4.002020359039307,0.3106718361377716,0.4103933274745941,-0.2389669418334961,0.7527650594711304
169,47045,47044,-0.08730843663215637,-0.0028208617586642504,1.0470645427703857,-6.81491756439209,0.29944878816604614,-2.0500736236572266,2.0232489109039307,4.000588417053223,0.3108729422092438,0.4197145998477936,-0.2212563455104828,0.7025213837623596
170,47055,47054,-0.004305820446461439,-0.038700543344020844,1.0367584228515625,-1.8145986795425415,3.085958957672119,-1.0381461381912231,2.0246832370758057,3.9996252059936523,0.3110862374305725,0.37719082832336426,-0.2516683340072632,0.6776579022407532
171,47065,47064,-0.016192028298974037,0.0048525044694542885,1.0221997499465942,2.5114903450012207,4.105502128601074,-0.8966465592384338,2.0246329307556152,3.9983983039855957,0.30856889486312866,0.43504568934440613,-0.20779351890087128,0.6412539482116699
172,47075,47074,0.05033045634627342,-0.10475462675094604,1.0099719762802124,5.389082908630371,4.666932106018066,0.28439974784851074,2.0264689922332764,3.998105525970459,0.3086521327495575,0.28393495082855225,-0.18100979924201965,0.6315057277679443
173,47085,47084,0.03332747891545296,-0.008874470368027687,1.0117448568344116,5.505258083343506,3.901394844055176,1.3820762634277344,2.0266878604888916,3.9979913234710693,0.30887913703918457,0.2934756875038147,-0.1175636276602745,0.634875476360321
174,47095,47094,-0.05949244275689125,-0.039520494639873505,1.0395526885986328,5.197018146514893,4.884321212768555,1.9865623712539673,2.0267276763916016,3.997901201248169,0.3097613751888275,0.3191574215888977,-0.04296525940299034,0.6515152454376221
175,47105,47104,-0.08439920842647552,0.12200435996055603,1.038206934928894,2.0614922046661377,5.767864227294922,1.9160277843475342,2.0284650325775146,3.997302770614624,0.3099624216556549,0.17506380379199982,0.019430240616202354,0.6611632108688354
176,47115,47114,0.000356597505742684,-0.012155109085142612,0.9701358079910278,-2.8121280670166016,4.83846378326416,1.9933972358703613,2.0288760662078857,3.9981093406677246,0.3103432059288025,0.170221209526062,-0.057737939059734344,0.6885977387428284
177,47125,47124,-0.005340695381164551,0.17339201271533966,0.988410472869873,-5.718672752380371,2.6177690029144287,1.0871825218200684,2.0289409160614014,3.998220920562744,0.3107542395591736,0.16992343962192535,-0.11966872215270996,0.7153865694999695
178,47135,47134,0.028858959674835205,0.08970706909894943,0.917176365852356,-5.501495838165283,3.19527268409729,0.42991864681243896,2.029776096343994,3.9986026287078857,0.31060636043548584,0.03720550611615181,-0.14438843727111816,0.7355456948280334
179,47145,47144,-0.017573589459061623,0.12550823390483856,0.973689079284668,-2.860337257385254,0.9364370703697205,0.9464515447616577,2.029611587524414,3.998462200164795,0.31088852882385254,0.07072792202234268,-0.24098829925060272,0.7463510036468506
180,47155,47154,0.010890549048781395,-0.01378847286105156,0.965097963809967,0.5530656576156616,-2.2555792331695557,0.8275974988937378,2.028353214263916,3.9985954761505127,0.3111657202243805,0.1477660834789276,-0.21180017292499542,0.7673618793487549
181,47165,47164,0.028781088069081306,-0.10567720979452133,0.9508354663848877,2.645106315612793,-5.274734020233154,0.9680910110473633,2.029651641845703,3.9980690479278564,0.3139057755470276,0.10121174901723862,-0.21382814645767212,0.7736849188804626
182,47175,47174,-0.05238897353410721,-0.010770517401397228,1.0064895153045654,2.005671501159668,-9.918526649475098,1.4283785820007324,2.029635429382324,3.9982733726501465,0.314238041639328,0.22259590029716492,-0.261173278093338,0.7850875854492188
183,47185,47184,0.02053411677479744,0.02456977404654026,0.945593535900116,0.08685437589883804,-12.082719802856445,1.621198296546936,2.029862642288208,3.999082565307617,0.31443512439727783,0.25318267941474915,-0.23151247203350067,0.8239213824272156
184,47195,47194,-0.020896954461932182,0.013469208963215351,1.0028398036956787,-3.0995945930480957,-12.270184516906738,2.1417596340179443,2.029337167739868,3.998563766479492,0.31351202726364136,0.4525124430656433,-0.16554787755012512,0.8332107067108154
185,47205,47204,-0.08019568771123886,0.24614328145980835,0.977933406829834,-4.398097515106201,-6.949604511260986,3.2779300212860107,2.028750419616699,3.998866558074951,0.31368768215179443,0.7159459590911865,-0.22664543986320496,0.8642838597297668
186,47215,47214,-0.03177452087402344,0.015987753868103027,0.9796445965766907,-4.7364935874938965,0.2598267197608948,4.771801948547363,2.0311732292175293,3.9989023208618164,0.31385958194732666,0.5705999135971069,-0.2280101329088211,0.8753518462181091
187,47225,47224,0.0058678449131548405,-0.07307981699705124,0.9917245507240295,-3.0957791805267334,6.298614978790283,5.886791229248047,2.0311787128448486,3.9999520778656006,0.31400036811828613,0.6159519553184509,-0.39288827776908875,0.9449574947357178
188,47235,47234,-0.04294630140066147,-0.032375190407037735,1.0287439823150635,1.0180758237838745,5.030642509460449,6.527029037475586,2.030954599380493,4.000156879425049,0.317605584859848,0.6015812754631042,-0.3509570062160492,1.0069676637649536
189,47245,47244,-0.04014654457569122,-0.07720500975847244,1.028645634651184,4.965104579925537,5.160575866699219,7.151097774505615,2.0319082736968994,4.000216484069824,0.317935049533844,0.5064170360565186,-0.32479390501976013,1.0745837688446045
190,47255,47254,-0.020451802760362625,-0.02130533568561077,1.0099698305130005,7.000585079193115,4.7840094566345215,7.059707164764404,2.0323588848114014,3.9994916915893555,0.31831175088882446,0.4889673590660095,-0.24407333135604858,1.133636474609375
191,47265,47264,-0.13298417627811432,-0.035482197999954224,1.0089530944824219,7.700010299682617,0.38712137937545776,6.494290351867676,2.0325262546539307,3.9989616870880127,0.3170515298843384,0.4998314678668976,-0.13165012001991272,1.1968647241592407
192,47275,47274,-0.18923933804035187,0.06087331846356392,1.034816026687622,5.864021301269531,-2.553563356399536,6.409277439117432,2.0317676067352295,3.999622344970703,0.31736239790916443,0.5665733218193054,-0.09933067858219147,1.2738442420959473
193,47285,47284,-0.08290226757526398,0.12829943001270294,0.9851245880126953,0.16171246767044067,-1.5633399486541748,6.2664947509765625,2.0315842628479004,4.000410079956055,0.3177207112312317,0.651701033115387,-0.18497519195079803,1.3527268171310425
194,47295,47294,-0.02503574639558792,0.08321405947208405,1.0259487628936768,-2.74367094039917,-0.054740529507398605,6.0150275230407715,2.031827688217163,4.000363349914551,0.3200891613960266,0.6482254266738892,-0.09966640174388885,1.4053118228912354
195,47305,47304,0.10826753079891205,-0.03734149783849716,0.9335168600082397,-4.305060386657715,6.084458351135254,6.16359281539917,2.03300142288208,4.0012383460998535,0.3205068111419678,0.5042927265167236,-0.1564689725637436,1.4839016199111938
196,47315,47314,0.16744159162044525,-0.12939442694187164,0.9549322128295898,-1.6490159034729004,9.58542537689209,7.046213626861572,2.0330169200897217,4.001720428466797,0.32090604305267334,0.45775407552719116,-0.2984958291053772,1.5391846895217896
197,47325,47324,0.014598293229937553,-0.0558900348842144,0.9939408302307129,0.9844514727592468,16.81915855407715,6.771488189697266,2.0335984230041504,4.001250743865967,0.32138699293136597,0.3239095211029053,-0.23628777265548706,1.6168450117111206
198,47335,47334,-0.012798700481653214,0.036317966878414154,1.0098844766616821,5.405516624450684,19.16023826599121,7.54187536239624,2.031975507736206,4.00016450881958,0.32130661606788635,0.32137712836265564,-0.20401400327682495,1.649018406867981
199,47345,47344,-0.012477956712245941,-0.0048945993185043335,0.9699126482009888,8.914477348327637,15.936810493469238,8.323878288269043,2.032637596130371,3.9998066425323486,0.32161185145378113,0.053690019994974136,-0.09896782785654068,1.7162809371948242
200,47355,47354,-0.08901771157979965,0.07227546721696854,0.9798747897148132,7.125322341918945,13.170412063598633,8.559346199035645,2.0331220626831055,4.001099109649658,0.3218230903148651,-0.1683318167924881,-0.03735115006566048,1.8289623260498047
201,47365,47364,-0.12160467356443405,0.05693814903497696,0.9519869685173035,1.812304139137268,6.180445194244385,8.962986946105957,2.0336010456085205,4.002394676208496,0.32065442204475403,-0.31718090176582336,-0.08849500864744186,1.9264696836471558
202,47375,47374,-0.07336878776550293,0.09758222848176956,1.0049643516540527,-2.1949617862701416,1.055748462677002,8.414848327636719,2.0325398445129395,4.004467964172363,0.32080188393592834,-0.3618933856487274,-0.05985580012202263,2.058873176574707
203,47385,47384,-0.015619010664522648,0.019135480746626854,0.9710244536399841,-3.51153564453125,-6.052735805511475,7.354150772094727,2.0322885513305664,4.004820823669434,0.3209809958934784,-0.31219467520713806,-0.09255315363407135,2.14262056350708
204,47395,47394,0.013555213809013367,0.04523777961730957,1.0234800577163696,-3.3089663982391357,-9.495818138122559,7.380153656005859,2.0309813022613525,4.00519323348999,0.32416433095932007,-0.13810138404369354,-0.13346317410469055,2.2138724327087402
205,47405,47404,-0.0008762147044762969,0.008223547600209713,0.9986835718154907,-2.2748031616210938,-5.432942867279053,6.146078586578369,2.029932737350464,4.0060224533081055,0.3244720995426178,0.052255451679229736,-0.17632268369197845,2.3041515350341797
206,47415,47414,0.08411729335784912,0.014735966920852661,0.9367503523826599,2.8485143184661865,2.4087250232696533,5.061798095703125,2.0295538902282715,4.006846904754639,0.3248125910758972,0.17610935866832733,-0.18111303448677063,2.384591579437256
207,47425,47424,0.047337498515844345,-0.01820474863052368,0.9539144039154053,7.775878429412842,5.423259258270264,2.9371745586395264,2.029751777648926,4.005880355834961,0.32212939858436584,0.18117041885852814,-0.10051877796649933,2.4185359477996826
208,47435,47434,0.03589640557765961,-0.04145827144384384,0.9398542046546936,8.426554679870605,12.734275817871094,1.1452754735946655,2.031018018722534,4.006467819213867,0.3221513032913208,0.014342587441205978,-0.0313013456761837,2.4590022563934326
209,47445,47444,0.022741414606571198,-0.04254137724637985,0.9342337846755981,4.718997478485107,19.489315032958984,-1.4057743549346924,2.0320258140563965,4.006264686584473,0.3220723569393158,-0.19810663163661957,0.11027804017066956,2.474806070327759
210,47455,47454,-0.1269986927509308,0.045061249285936356,0.9717674255371094,-2.0746641159057617,24.187496185302734,-2.6130144596099854,2.032154083251953,4.007233619689941,0.3218795359134674,-0.45339423418045044,0.17448052763938904,2.4916858673095703
211,47465,47464,-0.16034890711307526,0.0651446059346199,0.9829649925231934,-7.936929225921631,22.87255096435547,-3.7165753841400146,2.0326573848724365,4.0076727867126465,0.3203389644622803,-0.7177301645278931,0.12222994863986969,2.4584038257598877
212,47475,47474,-0.011972443200647831,-0.02261515147984028,0.988003134727478,-13.681302070617676,20.2374210357666,-4.874845504760742,2.0323326587677,4.0080437660217285,0.32006701827049255,-0.8981661200523376,-0.03997431695461273,2.4318461418151855
213,47485,47484,0.08565724641084671,-0.11213437467813492,0.9640427827835083,-14.707610130310059,12.328100204467773,-6.284079074859619,2.032911539077759,4.008546829223633,0.31965067982673645,-1.1659914255142212,-0.2637298107147217,2.3564794063568115
214,47495,47494,0.08051797747612,-0.07447496801614761,0.9842536449432373,-12.6412935256958,3.805429458618164,-7.529932498931885,2.0335142612457275,4.007916450500488,0.32440295815467834,-1.2912108898162842,-0.3284234404563904,2.295401096343994
215,47505,47504,-0.02955462969839573,0.06202537193894386,1.016483187675476,-3.755409002304077,-7.44861364364624,-9.111552238464355,2.0330395698547363,4.005977630615234,0.3244655728340149,-1.2295610904693604,-0.336118221282959,2.195620059967041
216,47515,47514,-0.05245882272720337,-0.011942457407712936,0.9684548377990723,5.449799060821533,-12.82584285736084,-9.949766159057617,2.032137393951416,4.00590705871582,0.32452520728111267,-1.0211317539215088,-0.36659297347068787,2.095778465270996
217,47525,47524,-0.04818752035498619,-0.031440287828445435,0.9664214849472046,9.04072380065918,-14.722879409790039,-11.00903606414795,2.031876564025879,4.004275798797607,0.3259947597980499,-0.843479573726654,-0.2546996772289276,1.978636384010315
218,47535,47534,0.1103094071149826,0.058026451617479324,0.9377983808517456,7.925309181213379,-14.34230899810791,-12.257627487182617,2.0315961837768555,4.004226207733154,0.32597240805625916,-0.6748372912406921,-0.25359031558036804,1.8289331197738647
219,47545,47544,0.06084051355719566,0.08656520396471024,0.9800309538841248,5.0208964347839355,-3.937056064605713,-13.455608367919922,2.030907392501831,4.0041961669921875,0.32596319913864136,-0.4851403534412384,-0.13594599068164825,1.7127741575241089
220,47555,47554,0.06554985046386719,-0.11325423419475555,0.9597840309143066,2.9990057945251465,3.3211989402770996,-13.145423889160156,2.0330090522766113,4.003955364227295,0.32584667205810547,-0.657671332359314,-0.13512729108333588,1.5692768096923828
221,47565,47564,0.10303515940904617,-0.17070922255516052,0.9545004367828369,0.3964976370334625,10.720340728759766,-15.116364479064941,2.033451557159424,4.004677772521973,0.32333096861839294,-0.7189018130302429,-0.09495680034160614,1.42970871925354
222,47575,47574,-0.00139261269941926,-0.02786771021783352,0.9528799653053284,-0.8711687922477722,13.062529563903809,-15.972228050231934,2.0325725078582764,4.004992961883545,0.3230268955230713,-0.809827446937561,-0.09409968554973602,1.2963743209838867
223,47585,47584,-0.06254242360591888,0.05251840502023697,0.9807563424110413,-3.097898006439209,16.978057861328125,-17.676666259765625,2.033531904220581,4.004974365234375,0.322672039270401,-1.0213443040847778,-0.11240629851818085,1.122428059577942
224,47595,47594,-0.00876458827406168,0.0017433897592127323,0.9999623894691467,-1.0176315307617188,16.530031204223633,-18.19872283935547,2.0333199501037598,4.006027698516846,0.31892839074134827,-1.1918259859085083,-0.14245657622814178,0.9517028331756592
225,47605,47604,-0.07334933429956436,0.11730773001909256,1.0289041996002197,0.7902817130088806,5.959710597991943,-17.356754302978516,2.0335538387298584,4.005161762237549,0.31836843490600586,-1.3330153226852417,-0.06982625275850296,0.7699354290962219
226,47615,47614,-0.03724869713187218,0.1441592127084732,0.9840794205665588,5.514252185821533,5.130434036254883,-15.691957473754883,2.0337271690368652,4.005553722381592,0.3178583085536957,-1.3805468082427979,-0.10216108709573746,0.6137151122093201
227,47625,47624,0.03644176572561264,0.006641376297920942,0.9813032746315002,10.343476295471191,3.908512830734253,-13.899328231811523,2.034555673599243,4.0064311027526855,0.3182896673679352,-1.374665379524231,0.02178475633263588,0.49010932445526123
228,47635,47634,0.018204469233751297,-0.23442566394805908,0.9888265132904053,14.65788745880127,-1.0645664930343628,-12.85493278503418,2.034397840499878,4.00504207611084,0.31780970096588135,-1.3370988368988037,0.22893178462982178,0.35549256205558777
229,47645,47644,-0.006792950909584761,-0.08101661503314972,0.9714471101760864,14.24738597869873,0.7410551309585571,-11.128586769104004,2.0349700450897217,4.004701137542725,0.3172575831413269,-1.3353829383850098,0.390798419713974,0.23685339093208313
230,47655,47654,0.025223668664693832,-0.008156642317771912,0.966849148273468,10.449945449829102,3.5275280475616455,-9.826574325561523,2.0349056720733643,4.004897117614746,0.3167954087257385,-1.3055673837661743,0.44025999307632446,0.10171317309141159
231,47665,47664,0.05415919050574303,0.007253682240843773,0.9890508055686951,5.2709574699401855,5.807706832885742,-8.034991264343262,2.0348830223083496,4.004813194274902,0.3134084939956665,-1.3075048923492432,0.49859732389450073,-0.007466554641723633
232,47675,47674,0.00992722436785698,-0.018671343103051186,0.9986450672149658,0.7691882252693176,2.8662517070770264,-6.908136367797852,2.036451578140259,4.005375862121582,0.31256136298179626,-1.5023703575134277,0.5529440641403198,-0.058885619044303894
233,47685,47684,-0.11302760988473892,0.09195689857006073,0.9783732295036316,-3.2520313262939453,-1.1824337244033813,-5.60645866394043,2.03652024269104,4.005908966064453,0.31190046668052673,-1.45974862575531,0.530636191368103,-0.12835240364074707
234,47695,47694,-0.0033439721446484327,-0.008168729953467846,0.977199375629425,-3.790271520614624,-5.997974872589111,-5.4910807609558105,2.0364818572998047,4.005980491638184,0.3122602701187134,-1.3528928756713867,0.46323350071907043,-0.17103934288024902
235,47705,47704,-0.029086101800203323,0.01310715638101101,1.049971103668213,-2.8810172080993652,-10.069818496704102,-4.831307888031006,2.038851737976074,4.005465030670166,0.31141483783721924,-1.4663991928100586,0.47967445850372314,-0.230562224984169
236,47715,47714,0.027576567605137825,-0.09360363334417343,1.0271836519241333,-0.7033895254135132,-14.469537734985352,-5.121125221252441,2.0388808250427246,4.006400108337402,0.3108427822589874,-1.2595304250717163,0.4389788806438446,-0.26034435629844666
237,47725,47724,0.002946404041722417,-0.033211082220077515,1.0309890508651733,0.5855199098587036,-14.910563468933105,-4.999751091003418,2.0393013954162598,4.006575107574463,0.3119564950466156,-1.080259084701538,0.425285667181015,-0.31046128273010254
238,47735,47734,-0.026022039353847504,0.11516334861516953,1.0239533185958862,2.8149189949035645,-12.42282485961914,-4.3702802658081055,2.0408682823181152,4.006363868713379,0.31134727597236633,-1.068854570388794,0.44091176986694336,-0.36420753598213196
239,47745,47744,-0.03523281216621399,0.17403195798397064,1.009024739265442,3.7938594818115234,-6.550469875335693,-3.6103687286376953,2.0410430431365967,4.0062408447265625,0.31091710925102234,-0.8968239426612854,0.4959051012992859,-0.4007415771484375
