,timestamp_start,timestamp_end,acc.x,acc.y,acc.z,gyro.x,gyro.y,gyro.z,stateEstimate.x,stateEstimate.y,stateEstimate.z,stabilizer.pitch,stabilizer.roll,stabilizer.yaw
0,24968,24963,-0.044017042964696884,0.10639636963605881,1.0512051582336426,7.767930507659912,3.8503167629241943,2.479534864425659,1.948961853981018,3.943143129348755,0.1756061464548111,0.893317699432373,0.2243473380804062,2.171093702316284
1,24978,24973,0.0003685707342810929,0.13543085753917694,0.9935134053230286,3.617614984512329,5.23056697845459,2.63316011428833,1.948767066001892,3.943984270095825,0.17780610918998718,0.852229654788971,0.3074587285518646,2.196363925933838
2,24988,24983,0.04433712363243103,0.04687171056866646,1.037043809890747,1.73432195186615,3.077176809310913,2.185004711151123,1.94476318359375,3.9440083503723145,0.18008656799793243,0.7186716198921204,0.40402084589004517,2.217515468597412
3,24998,24993,0.05131111666560173,-0.12904438376426697,1.024276614189148,2.8568596839904785,2.1329026222229004,1.95138418674469,1.9379560947418213,3.92512845993042,0.18052414059638977,0.6771323680877686,0.46181055903434753,2.2365899085998535
4,25008,25003,0.018507128581404686,0.015793174505233765,1.125362753868103,2.8398966789245605,0.8237859606742859,1.7662619352340698,1.935850739479065,3.9333369731903076,0.1827104538679123,0.661980390548706,0.4440724551677704,2.261451482772827
5,25018,25013,0.008707944303750992,-0.010519620031118393,1.0214853286743164,3.6948535442352295,-0.3090038299560547,1.9510921239852905,1.9362404346466064,3.9324328899383545,0.1849893480539322,0.6738999485969543,0.5063361525535583,2.274477481842041
6,25028,25023,0.03028607740998268,-0.001835803734138608,1.070271372795105,4.526398181915283,-3.95011043548584,2.1400279998779297,1.9362014532089233,3.9360103607177734,0.18567800521850586,0.8351777195930481,0.8471280336380005,2.270986318588257
7,25038,25033,0.0029150238260626793,-0.009001457132399082,1.0895135402679443,4.887882232666016,-2.876523494720459,2.223179578781128,1.9368103742599487,3.938858985900879,0.1888090968132019,0.7192240953445435,0.4618448317050934,2.318918466567993
8,25048,25043,-0.03656511753797531,0.11250752955675125,1.056883692741394,0.5430467128753662,2.527916193008423,2.2076733112335205,1.9368079900741577,3.9405722618103027,0.19130994379520416,1.01658296585083,0.6122215986251831,2.347846031188965
9,25058,25053,0.005924442317336798,-0.0028870587702840567,1.01875901222229,0.8100437521934509,5.25139856338501,2.6653168201446533,1.9366405010223389,3.9422874450683594,0.19363026320934296,0.4704101085662842,1.3738651275634766,2.284468412399292
10,25068,25063,0.005636319983750582,0.0006843978771939874,1.0277122259140015,-1.0020010471343994,6.360880374908447,2.1607401371002197,1.9345520734786987,3.944303512573242,0.1970786303281784,0.6353808045387268,1.2040122747421265,2.3383429050445557
11,25078,25073,0.017597230151295662,-0.032000213861465454,0.9885956645011902,-7.26489782333374,2.597297191619873,1.4098992347717285,1.936653733253479,3.947416305541992,0.1997169554233551,0.19846758246421814,1.1718690395355225,2.328683614730835
12,25088,25083,0.011194700375199318,-0.1384878158569336,0.9928889274597168,-12.793985366821289,2.217304229736328,1.2894034385681152,1.9367492198944092,3.9462602138519287,0.20212675631046295,0.18573252856731415,1.2575193643569946,2.3439090251922607
13,25098,25093,0.015412052161991596,-0.043521229177713394,1.007880449295044,-18.27751922607422,0.3245524764060974,0.9138799905776978,1.9348927736282349,3.944385528564453,0.20250730216503143,0.27056071162223816,0.8835054039955139,2.380831003189087
14,25108,25103,0.047141533344984055,-0.11600276827812195,1.001976728439331,-18.91315460205078,-8.519847869873047,0.9208038449287415,1.932708740234375,3.9420578479766846,0.20494431257247925,0.17698892951011658,0.5316843390464783,2.3836803436279297
15,25118,25113,0.04229626804590225,-0.13915656507015228,1.0441471338272095,-13.586329460144043,-14.275740623474121,0.8392137885093689,1.9322198629379272,3.9428324699401855,0.20743142068386078,0.3480105996131897,0.25346386432647705,2.405087947845459
16,25128,25123,0.016851264983415604,-0.09535384923219681,1.026729702949524,-4.87558650970459,-13.684175491333008,1.0798158645629883,1.9410759210586548,3.9484963417053223,0.20861166715621948,-0.7276144027709961,-0.3662537634372711,2.272947311401367
17,25138,25133,0.00511197792366147,-0.008399337530136108,1.016870141029358,5.946587562561035,-16.87308120727539,2.002758264541626,1.9380956888198853,3.9487345218658447,0.21297812461853027,-0.16209247708320618,-0.3616560697555542,2.336777687072754
18,25148,25143,-0.01643012836575508,-0.007578612770885229,0.9833642244338989,17.56460189819336,-22.241121292114258,1.6637810468673706,1.9315685033798218,3.940305233001709,0.2160075306892395,-0.033925190567970276,-0.3697965145111084,2.3439853191375732
19,25158,25153,-0.01223087590187788,0.17583933472633362,0.9393637776374817,22.836915969848633,-23.73360252380371,2.6407558917999268,1.9297101497650146,3.938873052597046,0.217267245054245,0.2469426989555359,-0.17912042140960693,2.369518756866455
20,25168,25163,0.028633102774620056,0.22925721108913422,0.9837151169776917,23.86856460571289,-24.091808319091797,2.147998332977295,1.9283580780029297,3.933459758758545,0.22047331929206848,0.7640759348869324,0.255673348903656,2.410097122192383
21,25178,25173,0.023850392550230026,0.06113360449671745,0.9336480498313904,17.79579734802246,-19.82115936279297,2.1475656032562256,1.9263865947723389,3.938645124435425,0.22293981909751892,0.9622326493263245,0.5477966070175171,2.434107542037964
22,25188,25183,-0.007969813421368599,0.007575390860438347,0.9984766840934753,8.497653007507324,-13.225597381591797,1.1633994579315186,1.9230307340621948,3.9310858249664307,0.22447822988033295,1.3783875703811646,0.8908143639564514,2.458176851272583
23,25198,25193,-0.051655907183885574,0.008186564780771732,0.9923423528671265,-2.507265090942383,-3.9323172569274902,0.17562532424926758,1.9210560321807861,3.9343624114990234,0.22701434791088104,1.518977403640747,0.7858263254165649,2.4780290126800537
24,25208,25203,-0.12836535274982452,0.13003972172737122,0.9433990716934204,-11.467606544494629,2.4705984592437744,0.2909584939479828,1.9213134050369263,3.9366278648376465,0.22936804592609406,1.5262959003448486,0.6691107153892517,2.489640951156616
25,25218,25213,-0.056061938405036926,0.04871327430009842,0.9069761633872986,-13.815627098083496,5.997694492340088,0.4288283884525299,1.918294072151184,3.934072732925415,0.23149369657039642,1.570105791091919,0.4926150441169739,2.5013465881347656
26,25228,25223,0.06208407133817673,-0.09487402439117432,0.945344865322113,-10.08484172821045,8.335692405700684,0.48003122210502625,1.9165613651275635,3.9376220703125,0.23231859505176544,1.5931826829910278,0.2721516788005829,2.5188639163970947
27,25238,25233,0.08710472285747528,-0.09074641019105911,0.9316131472587585,-2.6094868183135986,9.785750389099121,0.5461442470550537,1.9114551544189453,3.9343984127044678,0.23450163006782532,1.4853787422180176,0.2512492835521698,2.512847900390625
28,25248,25243,0.03408518433570862,0.050707776099443436,0.982822060585022,7.238330364227295,7.148411273956299,0.209281325340271,1.911316156387329,3.9344217777252197,0.23657087981700897,1.4424843788146973,0.2648266553878784,2.5109658241271973
29,25258,25253,0.02483666129410267,-0.002902381122112274,0.9439011216163635,12.64394474029541,2.2545206546783447,0.7973289489746094,1.9109004735946655,3.9335968494415283,0.2390197366476059,1.5632414817810059,0.3483124077320099,2.5191826820373535
30,25268,25263,-0.023297537118196487,-0.009009230881929398,1.0255441665649414,15.564949035644531,2.1124649047851562,0.7293685078620911,1.909003734588623,3.930335521697998,0.24108511209487915,1.4962143898010254,0.5225017666816711,2.5147416591644287
31,25278,25273,0.003990925382822752,-0.0046661123633384705,0.9641160368919373,12.944483757019043,2.3349382877349854,0.7067232728004456,1.910571575164795,3.932673215866089,0.24307800829410553,1.4276014566421509,0.8804090619087219,2.519016981124878
32,25288,25283,0.0229201503098011,-0.01938525028526783,0.9257616996765137,7.6484293937683105,1.3932304382324219,0.17354027926921844,1.9092719554901123,3.9330801963806152,0.24765217304229736,1.5471006631851196,0.8452885150909424,2.5299222469329834
33,25298,25293,-0.036329660564661026,0.08549235016107559,0.941715657711029,-1.0888452529907227,6.402553081512451,0.16093474626541138,1.9094042778015137,3.932781934738159,0.24976059794425964,1.434562087059021,1.030234456062317,2.5330536365509033
34,25308,25303,0.014201943762600422,-0.09348948299884796,0.9345510601997375,-7.482422828674316,8.856524467468262,-0.080564945936203,1.9070405960083008,3.9355628490448,0.2517783045768738,1.4459391832351685,1.0392640829086304,2.5324769020080566
35,25318,25313,0.03253208473324776,0.011968716979026794,0.9476280808448792,-11.371694564819336,9.244693756103516,-0.23513898253440857,1.9071881771087646,3.936964511871338,0.2539132237434387,1.2010332345962524,0.7137970924377441,2.552001476287842
36,25328,25323,0.009245182387530804,0.09478051215410233,1.0172077417373657,-11.836899757385254,11.578648567199707,-0.5400742292404175,1.9049283266067505,3.937358856201172,0.2561371624469757,1.3377512693405151,0.6799129247665405,2.567837953567505
37,25338,25333,0.011284839361906052,0.06892848014831543,1.018546223640442,-8.701912879943848,11.743735313415527,-0.23261399567127228,1.9028362035751343,3.9399123191833496,0.25796744227409363,1.2311979532241821,0.43550071120262146,2.576861619949341
38,25348,25343,0.01143402699381113,0.0464683398604393,1.027961254119873,-3.346945285797119,12.241945266723633,-0.4025154113769531,1.9002383947372437,3.943565845489502,0.26010000705718994,1.1798545122146606,0.5062578320503235,2.5632259845733643
39,25358,25353,0.00800577737390995,0.041235122829675674,1.0297167301177979,2.388009786605835,12.70305347442627,-0.99139404296875,1.8997304439544678,3.945981502532959,0.26059582829475403,1.157527208328247,0.549098551273346,2.553701877593994
40,25368,25363,-0.0009537932346574962,0.13990136981010437,1.0278961658477783,6.473465919494629,11.693702697753906,-0.3687998652458191,1.900111436843872,3.9462509155273438,0.2627202868461609,0.9592083692550659,0.6060901880264282,2.5349669456481934
41,25378,25373,0.025230305269360542,0.10245209187269211,0.921806812286377,5.683419704437256,10.898877143859863,-0.10992921143770218,1.899483561515808,3.9466235637664795,0.2645453214645386,0.9336798787117004,0.6519593000411987,2.5382378101348877
42,25388,25383,-0.005509809125214815,0.038889192044734955,0.8804861903190613,2.0610649585723877,12.799236297607422,-0.4349612891674042,1.897919774055481,3.941781759262085,0.2626328468322754,0.8318692445755005,0.7656946182250977,2.5297839641571045
43,25398,25393,0.029001891613006592,0.04871330037713051,0.8933024406433105,-1.7041627168655396,13.251605987548828,-0.0953085646033287,1.8982603549957275,3.941117763519287,0.2642025947570801,0.6321169137954712,0.8162906169891357,2.520388126373291
44,25408,25403,0.07730924338102341,0.006335389334708452,0.9119077324867249,-5.805661678314209,11.804189682006836,-0.23741216957569122,1.8972152471542358,3.9399187564849854,0.26556751132011414,0.5854174494743347,0.7959612011909485,2.5266566276550293
45,25418,25413,0.040389709174633026,-0.00904720090329647,0.9196112751960754,-9.30799388885498,11.8533935546875,-0.7254277467727661,1.8958748579025269,3.9395554065704346,0.2668617367744446,0.45134395360946655,0.7041173577308655,2.5288970470428467
46,25428,25423,0.016396058723330498,-0.01101398840546608,0.9320911765098572,-10.46290111541748,10.3534517288208,-0.23548613488674164,1.8922439813613892,3.937385320663452,0.26513200998306274,0.3983095586299896,0.5602455139160156,2.5327260494232178
47,25438,25433,0.020334843546152115,-0.012285941280424595,0.9333528876304626,-9.031753540039062,9.526212692260742,0.07171472907066345,1.8921822309494019,3.9379897117614746,0.2661266624927521,0.2067001610994339,0.39994490146636963,2.526716709136963
48,25448,25443,0.02360490709543228,-0.009295203723013401,0.9391257762908936,-6.940346717834473,9.054034233093262,0.6917964816093445,1.8917790651321411,3.9374725818634033,0.267077773809433,0.1158178448677063,0.4133821427822113,2.5227174758911133
49,25458,25453,0.06836629658937454,-0.057530682533979416,0.9473718404769897,-3.351682424545288,9.112536430358887,0.8055282235145569,1.8897032737731934,3.9370615482330322,0.26641854643821716,0.18694476783275604,0.3830935060977936,2.5357818603515625
50,25468,25463,0.05658682808279991,-0.08801721781492233,0.9634594321250916,0.14297394454479218,9.047042846679688,0.21136556565761566,1.8903173208236694,3.9364891052246094,0.26726222038269043,-0.06085478141903877,0.405365526676178,2.531560182571411
51,25478,25473,0.01957474835216999,-0.03984527289867401,0.9557123184204102,0.10918226838111877,9.498408317565918,0.5323463678359985,1.8891313076019287,3.9365174770355225,0.2679268717765808,-0.1373540610074997,0.395148903131485,2.5374763011932373
52,25488,25483,0.0175495408475399,-0.13073165714740753,0.9435204863548279,-0.2628973126411438,9.30239200592041,0.4224553406238556,1.8875435590744019,3.9364259243011475,0.27261507511138916,-0.14681093394756317,0.38783499598503113,2.5463500022888184
53,25498,25493,0.007954048924148083,-0.121558777987957,0.9437081217765808,-2.9180822372436523,10.369051933288574,0.3171257972717285,1.88593327999115,3.9391772747039795,0.2734874188899994,-0.24319495260715485,0.368766725063324,2.552748680114746
54,25508,25503,0.04653893783688545,-0.11057820916175842,0.925916850566864,-5.035112380981445,10.436010360717773,0.5452468991279602,1.886455774307251,3.941206216812134,0.2743125855922699,-0.4241848587989807,0.31339231133461,2.551875591278076
55,25518,25513,0.07783914357423782,-0.13797803223133087,0.9784943461418152,-5.677618503570557,8.279847145080566,0.5978113412857056,1.883616328239441,3.941434383392334,0.274949312210083,-0.2880256474018097,0.2277911752462387,2.561882257461548
56,25528,25523,0.09169357270002365,-0.21390047669410706,1.0127239227294922,-5.002383708953857,7.638597011566162,-0.28539717197418213,1.8845053911209106,3.94339656829834,0.27468010783195496,-0.5386096239089966,0.13780932128429413,2.5566818714141846
57,25538,25533,0.0028672157786786556,-0.03865085169672966,1.0183072090148926,-4.382811546325684,7.804152488708496,-0.4888705015182495,1.8835208415985107,3.943344831466675,0.2752804458141327,-0.600570559501648,0.05772250518202782,2.552896738052368
58,25548,25543,0.031215518712997437,-0.006227266043424606,0.9867956638336182,-1.5484840869903564,8.574246406555176,-1.0503857135772705,1.8809462785720825,3.9437472820281982,0.27595531940460205,-0.6639342308044434,0.14915546774864197,2.562319278717041
59,25558,25553,0.0049067395739257336,0.04463744908571243,0.9623982310295105,-2.337796211242676,4.623101711273193,-0.40808987617492676,1.8784432411193848,3.944340705871582,0.2741298973560333,-0.7253088355064392,0.10115689784288406,2.5565245151519775
60,25568,25563,0.028401559218764305,-0.04113912954926491,0.9966567158699036,-0.3832145035266876,5.250805854797363,-0.5111514329910278,1.8790714740753174,3.9447410106658936,0.27461352944374084,-0.8354699015617371,0.062115125358104706,2.546694040298462
61,25578,25573,-0.007776019163429737,0.03558668494224548,1.0760222673416138,-0.40358105301856995,5.602618217468262,-0.4673299193382263,1.87492835521698,3.9438657760620117,0.27505600452423096,-0.7717168927192688,-0.0313001424074173,2.529202938079834
62,25588,25583,0.032913580536842346,-0.05596843361854553,0.9644802808761597,-1.5616711378097534,5.433496475219727,-0.5047302842140198,1.874576449394226,3.944068670272827,0.2775382697582245,-0.9524505138397217,0.042761847376823425,2.5359954833984375
63,25598,25593,-0.009641652926802635,0.0037268390879034996,1.0389182567596436,-0.9172742962837219,1.4485678672790527,-0.751774251461029,1.8744243383407593,3.9444353580474854,0.27819934487342834,-1.1149274110794067,0.015963662415742874,2.530078172683716
64,25608,25603,-0.044334083795547485,0.014641804620623589,1.0511863231658936,-0.9135858416557312,0.18114593625068665,-0.6183018088340759,1.873137354850769,3.945157051086426,0.2788483202457428,-1.068339467048645,-0.0866437777876854,2.508052110671997
65,25618,25613,-0.06855052709579468,0.06755921989679337,1.0241219997406006,-1.4796242713928223,1.3393861055374146,-0.17557458579540253,1.8723649978637695,3.9467339515686035,0.2797022759914398,-1.162657380104065,-0.10187477618455887,2.50276517868042
66,25628,25623,-0.015196463093161583,0.045768532902002335,1.0032613277435303,-0.794888973236084,1.76504647731781,-1.018810510635376,1.8699814081192017,3.946488857269287,0.2804209887981415,-1.0953549146652222,-0.11770065128803253,2.496117115020752
67,25638,25633,0.03729991987347603,0.033632997423410416,1.0264486074447632,0.27343252301216125,1.065911889076233,-0.6778247356414795,1.8694223165512085,3.946518659591675,0.2811722755432129,-1.113865852355957,-0.12673881649971008,2.4882452487945557
68,25648,25643,0.04398370906710625,-0.0704183429479599,1.0115492343902588,1.2171461582183838,2.1814846992492676,-0.5194437503814697,1.8684897422790527,3.948392868041992,0.28194373846054077,-1.1988734006881714,-0.1154899150133133,2.4864001274108887
69,25658,25653,0.017965558916330338,0.025024689733982086,1.05242919921875,1.8647092580795288,8.708210945129395,-0.38227468729019165,1.8649992942810059,3.9465086460113525,0.2844066321849823,-1.0410141944885254,-0.08437387645244598,2.4800190925598145
70,25668,25663,0.021801680326461792,0.13154466450214386,1.0558594465255737,1.588096022605896,16.54247283935547,-0.6433226466178894,1.8646632432937622,3.9453976154327393,0.2853797674179077,-1.246006965637207,-0.04726705700159073,2.486881732940674
71,25678,25673,0.022781122475862503,0.004996966570615768,0.9797375202178955,0.8546822667121887,21.42040252685547,-1.0741326808929443,1.861329436302185,3.9453060626983643,0.28629398345947266,-1.4133622646331787,-0.01919875666499138,2.4847726821899414
72,25688,25683,0.008907197043299675,-0.01940164528787136,0.9996869564056396,0.5772888660430908,23.548206329345703,-1.0187486410140991,1.8613160848617554,3.9452521800994873,0.2871193587779999,-1.66201913356781,-0.0023107435554265976,2.4779202938079834
73,25698,25693,0.05968840792775154,0.004111934453248978,1.0227469205856323,-0.4559175372123718,19.924362182617188,-1.5661418437957764,1.8583590984344482,3.949714183807373,0.2880477011203766,-1.9309872388839722,-0.0723935142159462,2.4484870433807373
74,25708,25703,0.0308819729834795,0.008881154470145702,1.005520224571228,0.44830021262168884,13.185352325439453,-1.508689045906067,1.857676386833191,3.949190616607666,0.2889389395713806,-2.2201406955718994,-0.07002914696931839,2.4381203651428223
75,25718,25713,0.02307099848985672,-0.03763371706008911,0.9554576873779297,0.24947577714920044,6.399628639221191,-1.0737597942352295,1.8564667701721191,3.9505069255828857,0.2899574935436249,-2.238199234008789,-0.05971432477235794,2.418846368789673
76,25728,25723,-0.0012326241703704,-0.07945225387811661,0.978188693523407,1.3533291816711426,-0.039484359323978424,-1.8649795055389404,1.8565025329589844,3.948542833328247,0.29086679220199585,-2.378854990005493,-0.04578046128153801,2.4113214015960693
77,25738,25733,0.03671461343765259,-0.13421739637851715,0.9869934916496277,2.883645534515381,-3.4498586654663086,-2.0491373538970947,1.855725884437561,3.949322462081909,0.2918529510498047,-2.315791606903076,-0.022868096828460693,2.3945724964141846
78,25748,25743,0.003998128231614828,0.09383083134889603,0.9963396191596985,2.9507393836975098,-6.414195537567139,-1.5772608518600464,1.8562310934066772,3.95068359375,0.29272133111953735,-2.3459458351135254,-0.054539382457733154,2.3620026111602783
79,25758,25753,-0.001556646660901606,0.029766615480184555,1.0020380020141602,2.8198587894439697,-4.29137659072876,-1.8260385990142822,1.8565829992294312,3.951218366622925,0.29392892122268677,-2.3324387073516846,-0.07119517028331757,2.3300271034240723
80,25768,25763,0.03634792938828468,-0.06117355078458786,0.940946102142334,2.17146372795105,-4.11714506149292,-1.9065948724746704,1.8549515008926392,3.950700521469116,0.2948685586452484,-2.2502634525299072,-0.0887964740395546,2.2968087196350098
81,25778,25773,-0.04539959132671356,-0.06675102561712265,1.0421866178512573,3.0834052562713623,0.5909637808799744,-2.231024742126465,1.8544247150421143,3.950603723526001,0.29579025506973267,-2.1805312633514404,-0.0347970649600029,2.2900357246398926
82,25788,25783,-0.01670461893081665,0.00626272102817893,1.01344633102417,3.553187608718872,-1.9432191848754883,-2.451281785964966,1.8508257865905762,3.948258638381958,0.2952754497528076,-2.2557904720306396,0.03260504826903343,2.287203550338745
83,25798,25793,-0.09245981276035309,-0.005224879831075668,1.071232557296753,3.037569761276245,-0.5763698220252991,-2.1357405185699463,1.8507378101348877,3.9480607509613037,0.2961059808731079,-2.233553171157837,0.09812493622303009,2.2739155292510986
84,25808,25803,-0.07005508989095688,-0.006862202659249306,1.0184470415115356,2.170917510986328,0.6673241853713989,-2.2564051151275635,1.8507170677185059,3.9485950469970703,0.2969914972782135,-2.225783586502075,0.07848256081342697,2.2356131076812744
85,25818,25813,-0.03878580033779144,0.02150147780776024,0.9625750780105591,0.6463691592216492,0.6075142621994019,-1.6862421035766602,1.8506969213485718,3.9484944343566895,0.294768363237381,-2.2349114418029785,0.12280021607875824,2.2212040424346924
86,25828,25823,-0.009569837711751461,0.020926479250192642,0.9636573791503906,-0.20056979358196259,1.4141948223114014,-2.047262668609619,1.8495129346847534,3.9500443935394287,0.29548734426498413,-2.2392780780792236,0.14562219381332397,2.207113027572632
87,25838,25833,0.01635420136153698,-0.03358469903469086,0.9464053511619568,-0.6438505053520203,-1.2075614929199219,-2.0821728706359863,1.8487766981124878,3.9499475955963135,0.2962172329425812,-2.1586742401123047,0.15331314504146576,2.1878957748413086
88,25848,25843,0.03189374879002571,-0.04999424144625664,0.9396445751190186,0.5644338130950928,-5.6883463859558105,-1.2164045572280884,1.8495173454284668,3.9500114917755127,0.29947200417518616,-2.201289415359497,0.15297247469425201,2.171224594116211
89,25858,25853,0.029176145792007446,-0.09478884935379028,0.9968472719192505,0.6763023138046265,-5.947395324707031,-1.4930901527404785,1.8489736318588257,3.9506032466888428,0.30026930570602417,-2.106656551361084,0.0893055871129036,2.12959361076355
90,25868,25863,0.01821221224963665,-0.11270423233509064,1.0043354034423828,1.74992036819458,-4.734546661376953,-2.0435919761657715,1.8489465713500977,3.95178484916687,0.301031231880188,-2.074193000793457,0.11588151752948761,2.120271921157837
91,25878,25873,0.03172151744365692,-0.06961744278669357,0.9431411027908325,2.340579032897949,-3.5698721408843994,-2.4933624267578125,1.8469510078430176,3.954897403717041,0.3017163574695587,-2.04710054397583,0.15160363912582397,2.110889196395874
92,25888,25883,0.021056631579995155,-0.025828048586845398,0.9525263905525208,2.302683115005493,-2.009361505508423,-2.6286399364471436,1.8470686674118042,3.953594207763672,0.3034884035587311,-2.0313005447387695,0.19787870347499847,2.0963222980499268
93,25898,25893,0.03816243261098862,-0.048734426498413086,0.9126666188240051,3.052985906600952,-2.1600112915039062,-2.8490254878997803,1.8470613956451416,3.9542272090911865,0.30419716238975525,-2.0327203273773193,0.24502414464950562,2.080420970916748
94,25908,25903,-0.027735507115721703,0.01798958331346512,0.9877293109893799,2.76267671585083,-3.2966666221618652,-2.9606809616088867,1.8473973274230957,3.9549827575683594,0.3047330677509308,-2.145535469055176,0.15337525308132172,2.01212739944458
95,25918,25913,-0.006550519727170467,0.016463682055473328,1.0014649629592896,1.449305772781372,-2.578770637512207,-2.6481566429138184,1.849334478378296,3.955824375152588,0.30291318893432617,-2.1669843196868896,0.14209295809268951,1.9701813459396362
96,25928,25923,0.07905339449644089,-0.10935057699680328,0.9468870162963867,3.14650297164917,-9.16164493560791,-2.7107930183410645,1.8505141735076904,3.9557559490203857,0.3032953441143036,-2.1766867637634277,0.19356465339660645,1.954383373260498
97,25938,25933,0.039487600326538086,-0.06995891034603119,0.9513510465621948,3.458787441253662,-12.526976585388184,-2.159940004348755,1.849194884300232,3.9563467502593994,0.30389899015426636,-1.9498133659362793,0.11051040887832642,1.8895046710968018
98,25948,25943,-0.00013422973279375583,-0.0024847453460097313,0.993882417678833,3.2133476734161377,-13.128762245178223,-1.7344272136688232,1.8471912145614624,3.955533266067505,0.3018494248390198,-1.677011251449585,0.19577588140964508,1.8798555135726929
99,25958,25953,0.005019382108002901,0.01260007731616497,0.9890443086624146,3.989765167236328,-11.825592041015625,-1.8556641340255737,1.8493151664733887,3.956862449645996,0.3019878566265106,-1.7013543844223022,0.1978747546672821,1.8534517288208008
100,25968,25963,0.009921993128955364,-0.13958843052387238,0.9818227291107178,5.207286834716797,-9.077635765075684,-1.9807130098342896,1.8524609804153442,3.9583828449249268,0.3019775152206421,-1.8039201498031616,0.21413671970367432,1.8306301832199097
101,25978,25973,-0.0012603697832673788,-0.0704520121216774,0.9969092607498169,4.989379405975342,-7.369792461395264,-2.2522995471954346,1.852657675743103,3.9580795764923096,0.3022782802581787,-1.6248728036880493,0.3203919529914856,1.8283557891845703
102,25988,25983,-0.0044771237298846245,0.06356262415647507,0.9763432145118713,4.163776874542236,-7.956506252288818,-2.487637996673584,1.8530256748199463,3.9572434425354004,0.30230432748794556,-1.5498608350753784,0.418661504983902,1.8206558227539062
103,25998,25993,0.019641347229480743,0.0174667090177536,0.9993948936462402,2.299346923828125,-9.999272346496582,-2.466790199279785,1.852429747581482,3.958941698074341,0.30243638157844543,-1.4670137166976929,0.42588603496551514,1.7852649688720703
104,26008,26003,-0.02517884410917759,-0.10075727105140686,0.9944830536842346,1.0311959981918335,-9.989998817443848,-2.1825544834136963,1.852770209312439,3.957343339920044,0.302659809589386,-1.2857606410980225,0.4788331687450409,1.766334056854248
105,26018,26013,0.011842364445328712,-0.06767267733812332,0.9674480557441711,0.1190652847290039,-10.2980318069458,-2.0600061416625977,1.8527015447616577,3.9580233097076416,0.30118969082832336,-1.10165536403656,0.43488216400146484,1.7293658256530762
106,26028,26023,-0.00019127728592138737,-0.024424616247415543,0.9871572256088257,-0.5600162744522095,-9.346760749816895,-2.5407092571258545,1.8523547649383545,3.952625036239624,0.3010731637477875,-1.1429734230041504,0.4546181559562683,1.7093703746795654
107,26038,26033,-0.03211509436368942,0.08649864792823792,1.0049035549163818,-1.2883787155151367,-6.054864406585693,-2.1544742584228516,1.8552439212799072,3.952204704284668,0.300921767950058,-1.1854878664016724,0.5270510315895081,1.7002546787261963
108,26048,26043,-0.006796432193368673,0.02761431783437729,1.023940920829773,0.2736176550388336,-6.431060314178467,-2.277191400527954,1.8528507947921753,3.949249505996704,0.30059123039245605,-1.0350096225738525,0.5076926946640015,1.67791748046875
109,26058,26053,0.029451506212353706,-0.0440099872648716,0.98516446352005,-0.04930035397410393,-8.391748428344727,-2.013976573944092,1.8553967475891113,3.9474925994873047,0.3004094958305359,-1.1103349924087524,0.5134613513946533,1.654331922531128
110,26068,26063,0.002396192867308855,-0.04792245477437973,1.0314140319824219,-1.2552144527435303,-10.597325325012207,-2.021773099899292,1.8550264835357666,3.9477522373199463,0.30055534839630127,-0.9208847880363464,0.442686527967453,1.622754693031311
111,26078,26073,0.02723248116672039,-0.16107341647148132,1.072614073753357,-2.441000461578369,-12.024344444274902,-2.410067558288574,1.853164553642273,3.9453985691070557,0.3006719648838043,-0.7123401761054993,0.43576866388320923,1.6028846502304077
112,26088,26083,0.006684033665806055,-0.24036942422389984,1.074598789215088,-0.2938864231109619,-9.807377815246582,-2.8533854484558105,1.8541736602783203,3.942498207092285,0.30254966020584106,-0.7140974998474121,0.41832613945007324,1.5748059749603271
113,26098,26093,0.013417895883321762,-0.0763767659664154,1.0086175203323364,1.23455011844635,-8.205495834350586,-2.518979787826538,1.848927617073059,3.937248706817627,0.3027738332748413,-0.5730255842208862,0.42308756709098816,1.5482908487319946
114,26108,26103,0.0012769524473696947,0.05153317749500275,0.9489976763725281,1.3533092737197876,-5.05333137512207,-2.7407708168029785,1.8467000722885132,3.9346542358398438,0.30285993218421936,-0.6136204600334167,0.44392070174217224,1.5253673791885376
115,26118,26113,0.043879617005586624,0.14823117852210999,0.923717200756073,0.872747004032135,-6.583838939666748,-2.098583221435547,1.844724178314209,3.9370577335357666,0.3029473125934601,-0.3785242736339569,0.46930423378944397,1.5058802366256714
116,26128,26123,0.008316180668771267,0.18239854276180267,1.042122483253479,-0.6817987561225891,-6.598993301391602,-2.258599042892456,1.843412160873413,3.9346249103546143,0.30303412675857544,-0.3747745156288147,0.4110191762447357,1.4750381708145142
117,26138,26133,0.022035831585526466,0.021989133208990097,1.041518211364746,-1.4196337461471558,-8.83597469329834,-1.9848893880844116,1.8446770906448364,3.936276912689209,0.3031232953071594,-0.4279235899448395,0.40646785497665405,1.4498709440231323
118,26148,26143,-0.029917022213339806,-0.03408915922045708,1.0823605060577393,-0.6144230365753174,-9.48094654083252,-1.5517055988311768,1.845607876777649,3.936790704727173,0.3018413186073303,-0.30220523476600647,0.3960961103439331,1.429877758026123
119,26158,26153,-0.04233384504914284,-0.08513779193162918,1.0276156663894653,-1.5281002521514893,-8.125240325927734,-1.689967393875122,1.84580397605896,3.936880588531494,0.30212846398353577,-0.10174250602722168,0.39029282331466675,1.4157735109329224
120,26168,26163,-0.03281164914369583,-0.0826663076877594,0.9889376759529114,0.13450564444065094,-7.570677280426025,-1.2573668956756592,1.8482118844985962,3.9369916915893555,0.3022472858428955,-0.1497674435377121,0.37813475728034973,1.3959764242172241
121,26178,26173,0.04299243912100792,-0.08235549181699753,0.9907416701316833,0.3328512907028198,-6.194119930267334,-1.3946832418441772,1.8491965532302856,3.9370005130767822,0.3016453981399536,-0.04397421330213547,0.3871646523475647,1.3804620504379272
122,26188,26183,0.001829828484915197,0.013074974529445171,1.015119194984436,-0.444219708442688,-5.217524528503418,-0.8679114580154419,1.8497568368911743,3.9382827281951904,0.3018925189971924,0.11324698477983475,0.399755597114563,1.3694912195205688
123,26198,26193,0.014404204674065113,0.00935874693095684,1.07928466796875,0.5552058219909668,-5.298659324645996,-1.1363812685012817,1.850484848022461,3.938647508621216,0.30205947160720825,0.1658245325088501,0.39904263615608215,1.35672128200531
124,26208,26203,0.03229176253080368,-0.0692102387547493,0.9839614629745483,0.7989370822906494,-2.96781063079834,-1.978178858757019,1.8518489599227905,3.938722848892212,0.30228477716445923,0.22217632830142975,0.4108774960041046,1.3442341089248657
125,26218,26213,-0.014844764955341816,0.11300812661647797,0.9877747893333435,-0.8388714790344238,-0.9776240587234497,-1.3297028541564941,1.8519413471221924,3.9375922679901123,0.30170518159866333,0.251840204000473,0.4159072935581207,1.3280432224273682
126,26228,26223,0.017241332679986954,0.17023077607154846,0.9382883906364441,-1.1187998056411743,-1.3745243549346924,-1.3387527465820312,1.853762149810791,3.9374239444732666,0.30179890990257263,0.184113547205925,0.40147921442985535,1.3126938343048096
127,26238,26233,0.007433098740875721,0.1350560486316681,0.9833853840827942,-1.5212937593460083,-3.346118211746216,-0.9346820116043091,1.8538457155227661,3.93733549118042,0.3021300733089447,0.34937724471092224,0.38021647930145264,1.3057119846343994
128,26248,26243,0.04559430107474327,0.08445432037115097,0.9242106676101685,-1.6659131050109863,-3.0847034454345703,-0.5944032073020935,1.8567657470703125,3.936429738998413,0.3063128888607025,0.25648295879364014,0.3623872697353363,1.2920817136764526
129,26258,26253,0.02481733448803425,0.20757395029067993,0.9796043634414673,-1.680452823638916,-1.8920485973358154,-0.2236151099205017,1.8599578142166138,3.936532497406006,0.30646005272865295,0.08927826583385468,0.3455037772655487,1.2791317701339722
130,26268,26263,0.0519724003970623,0.0034809433855116367,0.9386646747589111,-2.5901999473571777,-2.583383798599243,-0.7060131430625916,1.8600168228149414,3.9356894493103027,0.30698904395103455,0.26090744137763977,0.3167308270931244,1.2806257009506226
131,26278,26273,-0.005434103775769472,-0.0008426769636571407,1.050047755241394,-0.1102164089679718,-4.640789031982422,-0.991107702255249,1.8626821041107178,3.9358701705932617,0.30561840534210205,0.13327093422412872,0.282074511051178,1.2729599475860596
132,26288,26283,0.038463294506073,-0.010966514237225056,0.9445648789405823,0.3588950037956238,-4.39645528793335,-0.6885818839073181,1.863246202468872,3.9360909461975098,0.3059439957141876,0.2813560962677002,0.27851027250289917,1.264108657836914
133,26298,26293,0.07555883377790451,0.04453611746430397,0.9711880683898926,-0.3441619277000427,-6.399650573730469,-0.8643984794616699,1.861611247062683,3.9376392364501953,0.30627602338790894,0.5033944845199585,0.2822783291339874,1.2787322998046875
134,26308,26303,0.07461204379796982,0.04667949676513672,1.0341205596923828,0.7341442704200745,-9.811461448669434,-0.9842309951782227,1.8634932041168213,3.9390976428985596,0.30632519721984863,0.36225154995918274,0.2787017226219177,1.2633872032165527
135,26318,26313,-0.012825905345380306,0.04405313357710838,1.0173087120056152,0.7411394715309143,-6.4228034019470215,-0.47825005650520325,1.8646249771118164,3.938599109649658,0.3076825439929962,0.6395969390869141,0.289943128824234,1.2694685459136963
136,26328,26323,-0.01574316807091236,0.03469139337539673,1.038973331451416,-0.27092817425727844,-1.376521348953247,-0.5787027478218079,1.8663105964660645,3.9399991035461426,0.3079685866832733,0.7018898725509644,0.29904836416244507,1.254557728767395
137,26338,26333,0.030808020383119583,-0.03250863775610924,0.9801235198974609,-0.9795767664909363,1.885732650756836,-0.36666369438171387,1.868519902229309,3.9400501251220703,0.3081417679786682,0.6165640354156494,0.2971363961696625,1.2411004304885864
138,26348,26343,-0.007744484581053257,-0.0008440144592896104,1.0180162191390991,-1.0412734746932983,4.655812740325928,-0.46470293402671814,1.8709007501602173,3.937507390975952,0.310545414686203,0.6221291422843933,0.28294837474823,1.2296950817108154
139,26358,26353,0.010282049886882305,-0.0173671692609787,1.0038983821868896,-2.8150618076324463,3.276493787765503,0.4275210201740265,1.8712695837020874,3.9376070499420166,0.31100645661354065,0.6577975153923035,0.2576616704463959,1.2373217344284058
140,26368,26363,0.013334380462765694,-0.11740752309560776,1.0812422037124634,-2.0020856857299805,1.6061985492706299,0.1565413624048233,1.8727492094039917,3.939979314804077,0.3113650679588318,0.5493844151496887,0.21497742831707,1.241442084312439
141,26378,26373,0.017516138032078743,-0.2232479751110077,1.0439139604568481,-0.6777127981185913,0.6044849753379822,-0.6427478194236755,1.8730697631835938,3.9385666847229004,0.30929678678512573,0.6173171997070312,0.18805767595767975,1.2346996068954468
142,26388,26383,-0.005196401849389076,-0.13939620554447174,1.047737956047058,0.9884464144706726,2.7087178230285645,-1.0076446533203125,1.8739069700241089,3.938399076461792,0.30968689918518066,0.6160618662834167,0.18306595087051392,1.22742760181427
143,26398,26393,-0.01781807839870453,0.003064837073907256,1.031556248664856,2.362232208251953,2.8918583393096924,-1.116241216659546,1.8739107847213745,3.936298131942749,0.31015366315841675,0.6795077919960022,0.20584821701049805,1.2079612016677856
144,26408,26403,0.050634291023015976,0.055616285651922226,0.9264532923698425,2.679525852203369,4.061577796936035,-0.7497646808624268,1.8746165037155151,3.9360339641571045,0.31056299805641174,0.6558993458747864,0.320407509803772,1.189179539680481
145,26418,26413,0.07624510675668716,0.10858369618654251,0.9630579948425293,1.0561845302581787,1.4737492799758911,-0.4179651141166687,1.8763550519943237,3.938607692718506,0.31225308775901794,0.6172513365745544,0.35201647877693176,1.186663269996643
146,26428,26423,0.03681936860084534,0.013648368418216705,0.9897226691246033,-1.8869990110397339,2.821725845336914,-0.7499663233757019,1.877151370048523,3.9386353492736816,0.31265103816986084,0.5248682498931885,0.3436323404312134,1.1847563982009888
147,26438,26433,0.024293571710586548,0.019027797505259514,1.0068122148513794,-5.000937461853027,2.7705976963043213,-0.5782890915870667,1.8788689374923706,3.9388465881347656,0.31298497319221497,0.41774511337280273,0.2881041467189789,1.1835119724273682
148,26448,26443,-0.018958119675517082,0.013884900137782097,1.0301647186279297,-5.431775093078613,4.940374851226807,-1.4847491979599,1.8778470754623413,3.9391396045684814,0.3137357831001282,0.4672313928604126,0.1933826357126236,1.1856499910354614
149,26458,26453,-0.020306140184402466,0.1659761369228363,0.9653753042221069,-5.033127307891846,0.9022652506828308,-0.5357241034507751,1.8780481815338135,3.939392328262329,0.3142596483230591,0.4184664189815521,0.16560061275959015,1.1683251857757568
150,26468,26463,-0.0066463882103562355,0.11515982449054718,0.9509847164154053,-3.960876226425171,1.1200729608535767,-0.24308651685714722,1.8789913654327393,3.9396655559539795,0.31476035714149475,0.41473740339279175,0.08017699420452118,1.1707683801651
151,26478,26473,-0.006120307371020317,0.04523662105202675,0.9521050453186035,-1.35840904712677,1.3717213869094849,-0.1308681070804596,1.8778780698776245,3.939391613006592,0.3151954412460327,0.46555542945861816,0.10159841924905777,1.156402349472046
152,26488,26483,0.018107149749994278,-0.01370615977793932,0.9626085162162781,0.39002153277397156,2.463043689727783,-0.08850221335887909,1.8794718980789185,3.9385998249053955,0.3156360685825348,0.5338056683540344,0.0742785781621933,1.1582859754562378
153,26498,26493,0.022641824558377266,-0.049624912440776825,0.9646362066268921,1.7389589548110962,3.2720587253570557,-0.21872353553771973,1.8815233707427979,3.9368937015533447,0.3159676790237427,0.392991304397583,0.08254895359277725,1.146929144859314
154,26508,26503,-0.03614991158246994,-0.12224098294973373,1.0431461334228516,2.0289807319641113,5.942693710327148,-0.33837300539016724,1.880799412727356,3.936781167984009,0.31624409556388855,0.41262614727020264,0.18468952178955078,1.12578284740448
155,26518,26513,0.04569090157747269,-0.06642774492502213,0.9249250888824463,1.0269825458526611,8.381070137023926,0.05540124326944351,1.8802403211593628,3.935680627822876,0.3165363371372223,0.35972073674201965,0.20571276545524597,1.1323362588882446
156,26528,26523,0.03225981816649437,-0.019359726458787918,0.9376431703567505,-0.2398139387369156,8.167466163635254,0.009415389969944954,1.8801817893981934,3.935609817504883,0.3168424963951111,0.29687899351119995,0.19383740425109863,1.13407301902771
157,26538,26533,0.002733098343014717,-0.0038344040513038635,0.9872048497200012,-3.5822031497955322,7.512497901916504,-0.28772351145744324,1.8813056945800781,3.9356067180633545,0.317037969827652,0.15684929490089417,0.1453506499528885,1.1388018131256104
158,26548,26543,0.02174709178507328,-0.007603218778967857,0.9772988557815552,-5.00649881362915,6.220081329345703,-0.16765068471431732,1.8816580772399902,3.9360709190368652,0.31892669200897217,0.11877477914094925,0.05805472284555435,1.1491628885269165
159,26558,26553,0.03522563725709915,-0.10538024455308914,0.9678723216056824,-5.156136512756348,4.021711349487305,-0.1307690590620041,1.8811922073364258,3.9375009536743164,0.3192284107208252,0.10745890438556671,-0.05475502461194992,1.1519849300384521
160,26568,26563,-0.0016905699158087373,-0.06876948475837708,1.013582468032837,-4.592021465301514,3.539280414581299,-0.7724581956863403,1.8824968338012695,3.9371306896209717,0.3194691836833954,0.03921295329928398,-0.14574937522411346,1.1550357341766357
161,26578,26573,0.009229174815118313,-0.015614280477166176,0.9849031567573547,-0.5823483467102051,2.0556182861328125,-0.48628413677215576,1.8832370042800903,3.935898542404175,0.31885966658592224,0.06681380420923233,-0.0398174449801445,1.1238758563995361
162,26588,26583,0.030189460143446922,-0.006798782851547003,0.9868155121803284,0.4465128183364868,2.702310085296631,-0.10693870484828949,1.882774829864502,3.934619188308716,0.3190997540950775,0.10553927719593048,-0.056812334805727005,1.121563196182251
163,26598,26593,-0.0035545630380511284,0.004774413537234068,0.9929286241531372,1.62931489944458,3.474714517593384,0.309295117855072,1.8842136859893799,3.9346964359283447,0.31924667954444885,0.04491056874394417,-0.05149240791797638,1.1223864555358887
164,26608,26603,0.02386585995554924,-0.052855245769023895,0.9294428825378418,2.38130259513855,5.692423343658447,-0.2639356851577759,1.8854622840881348,3.934734582901001,0.3169804811477661,-0.032396137714385986,-0.033092863857746124,1.1235311031341553
165,26618,26613,0.05060030519962311,0.11898905783891678,0.9250235557556152,1.5671346187591553,5.432432651519775,-0.07770220190286636,1.8858857154846191,3.934555768966675,0.31696557998657227,-0.07842158526182175,-0.004907018970698118,1.119551420211792
166,26628,26623,-0.0015728221042081714,0.07786508649587631,1.0028421878814697,0.5481913089752197,8.625890731811523,-0.544217586517334,1.88579261302948,3.934460163116455,0.3169235289096832,-0.1178002804517746,-0.00440464960411191,1.118460774421692
167,26638,26633,0.05414159223437309,0.07837142050266266,0.9538737535476685,-2.0479958057403564,3.6204845905303955,0.06423613429069519,1.8838196992874146,3.933783531188965,0.31683439016342163,-0.15359370410442352,-0.023530442267656326,1.1173583269119263
168,26648,26643,-0.02381259761750698,-0.019113833084702492,1.0003645420074463,-2.2067153453826904,3.7536234855651855,-0.1970713585615158,1.8854520320892334,3.933917760848999,0.31498923897743225,-0.3153013288974762,-0.07667310535907745,1.123237133026123
169,26658,26653,-0.043719951063394547,0.007940808311104774,1.0117427110671997,-3.124728202819824,2.7894442081451416,-0.39823952317237854,1.8852750062942505,3.9337055683135986,0.31474798917770386,-0.2904789447784424,-0.13253788650035858,1.1196353435516357
170,26668,26663,-0.048962805420160294,0.03269902616739273,0.9527798891067505,-2.5568809509277344,2.191124200820923,-0.1259949654340744,1.8845505714416504,3.933523654937744,0.3145049810409546,-0.25218477845191956,-0.02383396402001381,1.1214475631713867
171,26678,26673,-0.044988807290792465,0.07629866153001785,0.9964337944984436,-1.5198092460632324,1.7715041637420654,0.40649110078811646,1.8853034973144531,3.9331672191619873,0.3164192736148834,-0.379320353269577,-0.08276063203811646,1.1382291316986084
172,26688,26683,0.007720154710114002,0.011317652650177479,0.9901251196861267,-1.6814736127853394,0.3656141459941864,0.30488577485084534,1.88569974899292,3.9346230030059814,0.31631726026535034,-0.3264482319355011,-0.11833163350820541,1.144756555557251
173,26698,26693,0.02338314987719059,-0.16150116920471191,1.0561105012893677,-1.9078319072723389,-0.4738941192626953,-0.2457895278930664,1.8858642578125,3.932610034942627,0.3161783814430237,-0.2511116862297058,-0.16495098173618317,1.1477478742599487
174,26708,26703,0.013622334226965904,-0.08708450198173523,1.0200486183166504,-2.408500909805298,0.22331173717975616,-0.326835036277771,1.885573387145996,3.9357879161834717,0.3170146346092224,-0.17887546122074127,-0.20847874879837036,1.152787446975708
175,26718,26713,0.0038208740297704935,0.030604949221014977,1.0542800426483154,-1.612288236618042,1.992265224456787,-0.21475371718406677,1.8860825300216675,3.933953285217285,0.3168974220752716,-0.28568461537361145,-0.25949573516845703,1.145946741104126
176,26728,26723,0.014760928228497505,-0.05377844721078873,1.0173171758651733,0.8038148880004883,6.952122211456299,-0.8345366716384888,1.8865212202072144,3.9325201511383057,0.31687697768211365,-0.3621152639389038,-0.11835623532533646,1.1394613981246948
177,26738,26733,0.028543774038553238,0.15142759680747986,0.9765264987945557,2.8817825317382812,7.219908237457275,-0.8325992226600647,1.886553406715393,3.9322357177734375,0.31690239906311035,-0.44285398721694946,-0.10034482181072235,1.129457950592041
178,26748,26743,0.009568548761308193,0.08048566430807114,1.0021170377731323,3.8290655612945557,6.80171012878418,-0.5643957853317261,1.8885104656219482,3.932027816772461,0.3178861737251282,-0.6454142332077026,-0.053093310445547104,1.12618088722229
179,26758,26753,0.027535755187273026,-0.037317875772714615,0.9831864833831787,1.7105207443237305,5.567112445831299,-0.8942862749099731,1.8882428407669067,3.931748390197754,0.31800365447998047,-0.6757604479789734,-0.02635275572538376,1.1174523830413818
180,26768,26763,-0.020383551716804504,-0.08902387320995331,1.0271353721618652,1.6659760475158691,1.6650184392929077,-0.6166181564331055,1.8877718448638916,3.9324567317962646,0.31813523173332214,-0.6381961107254028,-0.018310708925127983,1.1129473447799683
181,26778,26773,-0.05018069967627525,-0.08191321790218353,1.0013654232025146,-2.2464962005615234,-0.6447584629058838,-0.2678426206111908,1.8875473737716675,3.9325578212738037,0.3192306458950043,-0.5657719969749451,-0.03524186462163925,1.1098984479904175
182,26788,26783,0.007808574475347996,-0.1060839369893074,0.9474635124206543,-4.1248393058776855,-4.542306900024414,0.45144379138946533,1.8886529207229614,3.9329891204833984,0.3193281888961792,-0.6354642510414124,-0.07435418665409088,1.1180897951126099
183,26798,26793,0.011235385201871395,-0.021978458389639854,1.0073301792144775,-5.347220420837402,-5.820358753204346,0.05812903493642807,1.8881266117095947,3.933293104171753,0.31953877210617065,-0.5565084218978882,-0.15268398821353912,1.1172791719436646
184,26808,26803,0.0012218346819281578,0.03127122297883034,1.0376451015472412,-4.192843437194824,-4.506678581237793,0.06458856910467148,1.8891806602478027,3.9334280490875244,0.3204055726528168,-0.5362801551818848,-0.24499063193798065,1.118893027305603
185,26818,26813,0.029033705592155457,-0.026508253067731857,0.9947614073753357,-1.3703489303588867,-4.677001953125,-0.03718411549925804,1.8897511959075928,3.9335877895355225,0.3205999732017517,-0.45462003350257874,-0.320121705532074,1.127406120300293
186,26828,26823,-0.01848236471414566,0.04715975746512413,1.0243301391601562,1.4225332736968994,-2.9464948177337646,0.24842673540115356,1.8923238515853882,3.934952735900879,0.3207097053527832,-0.5314882397651672,-0.3426128029823303,1.135201096534729
187,26838,26833,-0.015603451058268547,0.144801065325737,0.9668264985084534,3.3944642543792725,-1.6720523834228516,0.6968947649002075,1.893053412437439,3.934755563735962,0.32356321811676025,-0.4657139182090759,-0.3129579722881317,1.1357200145721436
188,26848,26843,0.02359885722398758,0.02217908948659897,0.9769330620765686,5.312460899353027,-2.8096442222595215,0.9512243270874023,1.893640160560608,3.9338929653167725,0.32400962710380554,-0.3470187783241272,-0.17655791342258453,1.1300702095031738
189,26858,26853,-0.013349195010960102,0.03537975996732712,1.046265959739685,3.9151389598846436,-2.611154794692993,1.466414451599121,1.8952027559280396,3.9327423572540283,0.32431885600090027,-0.3787152171134949,-0.10250270366668701,1.143104910850525
190,26868,26863,0.02591707743704319,-0.015787597745656967,0.9674519300460815,0.7348973751068115,-1.8729315996170044,1.4649931192398071,1.895068883895874,3.9314143657684326,0.32474860548973083,-0.2564125061035156,-0.12538890540599823,1.127954363822937
191,26878,26873,0.01554564293473959,-0.03149476274847984,0.9664062857627869,-0.839242696762085,-1.6776258945465088,1.4244928359985352,1.8982053995132446,3.931232452392578,0.32408690452575684,-0.4539596438407898,-0.11142592877149582,1.1440932750701904
192,26888,26883,0.002639312297105789,-0.0020294836722314358,0.9914302229881287,-0.7151141166687012,-2.679373025894165,0.7690384387969971,1.8996813297271729,3.931126594543457,0.32440048456192017,-0.4061005413532257,-0.2004772424697876,1.1530622243881226
193,26898,26893,0.014873911626636982,-0.01002733875066042,0.9764642119407654,-2.1304585933685303,-3.8471264839172363,0.3610091507434845,1.8994001150131226,3.931931734085083,0.3247661888599396,-0.2715272307395935,-0.20998148620128632,1.1569774150848389
194,26908,26903,-0.042416203767061234,-0.01842302829027176,0.9500119686126709,0.13881485164165497,-4.827115058898926,0.5551242828369141,1.900732159614563,3.9310243129730225,0.3236441910266876,-0.27340826392173767,-0.15796618163585663,1.167170763015747
195,26918,26913,-0.039866283535957336,-0.015046871267259121,0.9498109817504883,1.1327794790267944,-3.050577163696289,0.3077335059642792,1.9008471965789795,3.9321091175079346,0.32379740476608276,-0.18242324888706207,-0.23955146968364716,1.1689982414245605
196,26928,26923,-0.0236143060028553,-0.018697207793593407,0.9773507714271545,2.3167381286621094,1.7564603090286255,-0.012259232811629772,1.90070641040802,3.9320015907287598,0.3239370584487915,-0.04549940675497055,-0.2160124033689499,1.1681489944458008
197,26938,26933,0.017210030928254128,-0.028814220800995827,0.9498059749603271,2.8822643756866455,4.4632978439331055,-0.44957298040390015,1.903198480606079,3.9319238662719727,0.32292068004608154,-0.21160027384757996,-0.17117135226726532,1.1823545694351196
198,26948,26943,0.0229133740067482,-0.0927690714597702,0.9908023476600647,4.394461154937744,7.032800674438477,-1.3576939105987549,1.9039020538330078,3.9320249557495117,0.3228873014450073,-0.19871583580970764,-0.11466075479984283,1.1614176034927368
199,26958,26953,-0.0019222229020670056,-0.11345276981592178,1.0471575260162354,6.2279558181762695,9.88542652130127,-1.738714337348938,1.9049261808395386,3.9312942028045654,0.32284578680992126,-0.21844349801540375,-0.03981423377990723,1.1613011360168457
200,26968,26963,-0.00026452005840837955,-0.05639418214559555,0.9779999852180481,8.364828109741211,7.488160610198975,-1.5336533784866333,1.9067987203598022,3.931610107421875,0.3227333128452301,-0.36724767088890076,-0.012559499591588974,1.147781491279602
201,26978,26973,-0.014280152507126331,-0.052251651883125305,0.9803231358528137,8.688881874084473,3.9149723052978516,-1.2494854927062988,1.9071296453475952,3.9313321113586426,0.32175785303115845,-0.41199517250061035,0.12452546507120132,1.1301486492156982
202,26988,26983,0.010110538452863693,-0.023292643949389458,0.9311020374298096,4.798614978790283,1.1971255540847778,-1.3022840023040771,1.908161997795105,3.9315905570983887,0.32160475850105286,-0.4805335998535156,0.18125028908252716,1.134534239768982
203,26998,26993,0.031629081815481186,-0.028116295114159584,0.9347289800643921,-0.9340219497680664,-2.288811445236206,-1.43487548828125,1.9085522890090942,3.934317111968994,0.3214413523674011,-0.5620172023773193,0.1090027466416359,1.1284267902374268
204,27008,27003,-0.0002163846220355481,-0.014749434776604176,0.9770277738571167,-3.6332387924194336,-4.200247287750244,-0.9598661065101624,1.9078540802001953,3.935142993927002,0.32155752182006836,-0.43557748198509216,0.11231294274330139,1.1106748580932617
205,27018,27013,0.010409346781671047,-0.036130934953689575,0.9679759740829468,-4.27078914642334,-6.079592704772949,-0.6879185438156128,1.9078446626663208,3.933138132095337,0.3212963938713074,-0.43590831756591797,0.1384175419807434,1.086354374885559
206,27028,27023,-0.034790877252817154,0.10976500064134598,0.9781421422958374,-2.6897480487823486,-1.8294739723205566,-1.2439067363739014,1.908631443977356,3.9330387115478516,0.3210979700088501,-0.33246034383773804,0.07579925656318665,1.0635327100753784
207,27038,27033,-0.013049528002738953,0.28632792830467224,0.8672484159469604,-0.6408759355545044,-4.17475700378418,0.49988627433776855,1.9095364809036255,3.930696964263916,0.3211376368999481,-0.35038888454437256,0.034312471747398376,1.0535475015640259
208,27048,27043,0.016882365569472313,0.05413920059800148,0.9687011241912842,3.3965516090393066,-1.7068089246749878,1.2764582633972168,1.909529685974121,3.9315571784973145,0.32079368829727173,-0.35339635610580444,0.10264565795660019,1.0480329990386963
209,27058,27053,-0.03344051167368889,-0.10670388489961624,1.0635886192321777,7.3060302734375,1.553315281867981,2.1745026111602783,1.910189151763916,3.9304840564727783,0.3203076124191284,-0.34454068541526794,0.14045792818069458,1.0600225925445557
210,27068,27063,0.01525038667023182,-0.09785745292901993,0.9897315502166748,7.711287975311279,5.1093621253967285,2.744264841079712,1.9108299016952515,3.9303126335144043,0.3200264573097229,-0.258049875497818,0.16945809125900269,1.082411766052246
211,27078,27073,-0.020529475063085556,-0.006502966862171888,1.0097196102142334,6.869950294494629,2.8745901584625244,2.939073085784912,1.912872552871704,3.9310712814331055,0.32162660360336304,-0.3996898829936981,0.2960652709007263,1.1097066402435303
212,27088,27083,-0.08228868991136551,-0.01946522668004036,0.961702287197113,0.6992341876029968,3.446232557296753,3.5313727855682373,1.9125365018844604,3.9308414459228516,0.32143741846084595,-0.3498121201992035,0.32090991735458374,1.1407867670059204
213,27098,27093,-0.009610673412680626,-0.06557070463895798,1.0088210105895996,-4.780673027038574,-1.477730631828308,4.406343936920166,1.9124841690063477,3.9311935901641846,0.3212156891822815,-0.30562466382980347,0.34232190251350403,1.1666228771209717
214,27108,27103,0.040990423411130905,-0.10403086245059967,1.0268783569335938,-9.557867050170898,-5.4350457191467285,4.784043312072754,1.9139366149902344,3.931036949157715,0.31935542821884155,-0.43609553575515747,0.265188604593277,1.2151107788085938
215,27118,27113,0.03938543424010277,-0.19039957225322723,1.0169777870178223,-11.932381629943848,-4.878081321716309,5.072676181793213,1.9132529497146606,3.9318010807037354,0.3190450370311737,-0.33391430974006653,0.11146961897611618,1.2503747940063477
216,27128,27123,-0.016454089432954788,0.015088376589119434,1.0761563777923584,-10.471546173095703,-6.387265682220459,6.16111421585083,1.912936806678772,3.931821584701538,0.3188137412071228,-0.14256314933300018,0.0029005343094468117,1.3023618459701538
217,27138,27133,0.056439030915498734,-0.0009555320721119642,0.9170131683349609,-6.087465763092041,-9.50157642364502,6.901256084442139,1.9164031744003296,3.9309029579162598,0.31863006949424744,-0.19746312499046326,-0.09068416804075241,1.424446702003479
218,27148,27143,-0.00466293515637517,0.0077087231911718845,1.0049536228179932,-2.5828282833099365,-7.979547023773193,7.421465873718262,1.9166617393493652,3.931058168411255,0.31846749782562256,-0.033991098403930664,-0.12286486476659775,1.424896001815796
219,27158,27153,0.03651953488588333,-0.04881696030497551,1.026676893234253,0.5904715061187744,-7.844649791717529,6.84066915512085,1.9178133010864258,3.931766986846924,0.3181364834308624,0.03715059161186218,-0.16620251536369324,1.5074347257614136
220,27168,27163,-0.026061948388814926,-0.035937994718551636,1.0142239332199097,4.042786598205566,-6.207223415374756,6.731938362121582,1.920492172241211,3.9307944774627686,0.31781265139579773,-0.04403696954250336,-0.07924537360668182,1.6017746925354004
221,27178,27173,-0.010301691479980946,-0.006971767637878656,1.0141335725784302,3.4219677448272705,-3.763645887374878,6.462666034698486,1.9201593399047852,3.9321999549865723,0.3175632655620575,0.083238385617733,-0.1054425984621048,1.6667956113815308
222,27188,27183,0.0013170975726097822,-0.020804548636078835,0.9960536360740662,0.151651531457901,-0.693164050579071,6.181641578674316,1.9217628240585327,3.932523012161255,0.317312628030777,0.0907045304775238,0.021718375384807587,1.747567057609558
223,27198,27193,-0.010436364449560642,0.047082580626010895,1.0437953472137451,-5.800541400909424,3.1234169006347656,5.367871284484863,1.9235210418701172,3.932905912399292,0.31700581312179565,0.053407300263643265,0.010020752437412739,1.8111697435379028
224,27208,27203,-0.030682124197483063,0.05808764323592186,1.0234726667404175,-9.875520706176758,4.6367034912109375,4.65664005279541,1.923711895942688,3.933887481689453,0.31472381949424744,0.10870068520307541,-0.09709809720516205,1.8762876987457275
225,27218,27213,-0.07052601128816605,0.11356876790523529,0.977016031742096,-11.994527816772461,7.7488908767700195,3.750748634338379,1.9256843328475952,3.9339730739593506,0.31431451439857483,-0.03483240678906441,-0.19247694313526154,1.9168280363082886
226,27228,27223,-0.018576383590698242,0.09409934282302856,0.9992652535438538,-10.451704978942871,7.607499599456787,3.2696104049682617,1.9262136220932007,3.9342727661132812,0.3138968348503113,-0.12857359647750854,-0.4078297019004822,1.9596399068832397
227,27238,27233,-0.012662081979215145,0.05583714321255684,1.0690337419509888,-5.826112747192383,3.359764814376831,2.697894811630249,1.9267431497573853,3.9341235160827637,0.31329548358917236,-0.14381271600723267,-0.4911186993122101,1.9997614622116089
228,27248,27243,0.027323778718709946,-0.08428993076086044,0.9592931270599365,1.0280650854110718,-0.895488977432251,2.9433865547180176,1.92694091796875,3.9352028369903564,0.31306084990501404,-0.1013975664973259,-0.5697200298309326,2.0314178466796875
229,27258,27253,0.00961310788989067,-0.04130975902080536,0.9497394561767578,7.411281108856201,-3.2052576541900635,3.9615845680236816,1.9276729822158813,3.934978723526001,0.31277036666870117,-0.07991696894168854,-0.5342828035354614,2.058504819869995
230,27268,27263,0.004625346045941114,-0.09202490001916885,0.8797879219055176,10.038463592529297,-0.8222518563270569,5.876972198486328,1.9287723302841187,3.934617280960083,0.31506848335266113,-0.09565425664186478,-0.39770030975341797,2.099226951599121
231,27278,27273,0.06345368921756744,-0.16290391981601715,0.9975710511207581,14.403539657592773,-4.815207004547119,5.452296257019043,1.9300806522369385,3.9338831901550293,0.314733624458313,-0.10855606943368912,-0.2135179191827774,2.156297445297241
232,27288,27283,0.002915003802627325,0.03189561143517494,1.0542465448379517,8.766159057617188,0.30759453773498535,5.4848737716674805,1.929542064666748,3.9335055351257324,0.31451883912086487,0.043051160871982574,-0.15201763808727264,2.203406810760498
233,27298,27293,0.018973566591739655,0.04278784617781639,0.96482914686203,3.019536018371582,10.479808807373047,3.746561288833618,1.9313325881958008,3.93408203125,0.3141608238220215,-0.05240315571427345,-0.08469253033399582,2.2635810375213623
234,27308,27303,-0.01037976797670126,0.25182005763053894,0.9526203870773315,-3.0738065242767334,4.711266040802002,3.0507497787475586,1.930733561515808,3.932615041732788,0.3167102038860321,-0.10056626051664352,-0.03490603715181351,2.2913246154785156
235,27318,27313,-0.019876381382346153,0.08387311547994614,1.0311460494995117,-4.241797924041748,2.512972831726074,2.4945383071899414,1.931087613105774,3.9318065643310547,0.3165440559387207,-0.16524814069271088,-0.08205316960811615,2.311906099319458
236,27328,27323,-0.005047328770160675,0.014188896864652634,0.97330242395401,-2.773545026779175,0.3595935106277466,1.8203048706054688,1.9321167469024658,3.9328582286834717,0.31641635298728943,-0.16667543351650238,-0.13844436407089233,2.3486826419830322
237,27338,27333,0.015059414319694042,-0.02278546243906021,0.9629775285720825,-0.502199649810791,-2.449429750442505,1.240215539932251,1.9342050552368164,3.933511257171631,0.3160730302333832,-0.2269136756658554,-0.2484254091978073,2.369994878768921
238,27348,27343,-0.00465831533074379,-0.003066978882998228,1.082384705543518,2.1775784492492676,-4.41018009185791,0.2396698296070099,1.9358246326446533,3.933518409729004,0.31585952639579773,-0.23639990389347076,-0.24358387291431427,2.3837218284606934
239,27358,27353,0.016154274344444275,-0.031696222722530365,1.0267846584320068,4.286994457244873,-7.735368728637695,-0.0349525511264801,1.9363611936569214,3.9338572025299072,0.3158661425113678,-0.051837846636772156,-0.26322105526924133,2.384739875793457
