,timestamp_start,timestamp_end,acc.x,acc.y,acc.z,gyro.x,gyro.y,gyro.z,stateEstimate.x,stateEstimate.y,stateEstimate.z,stabilizer.pitch,stabilizer.roll,stabilizer.yaw
0,32881,32880,0.02655716985464096,0.046534594148397446,0.973871111869812,13.930559158325195,10.287556648254395,-1.8386404514312744,2.018197774887085,3.9894726276397705,0.1588936746120453,0.7273706197738647,-0.9113588333129883,2.140207290649414
1,32891,32890,0.020889777690172195,0.17865130305290222,0.9812376499176025,14.400093078613281,14.388826370239258,-1.5318371057510376,2.018129587173462,3.9886844158172607,0.1603507548570633,0.5739608407020569,-0.74598228931427,2.122117757797241
2,32901,32900,0.09109688550233841,0.10272783786058426,0.9103028774261475,11.814571380615234,14.723867416381836,-1.2590138912200928,2.017988443374634,3.9886178970336914,0.16173966228961945,0.44355612993240356,-0.8001184463500977,2.115004062652588
3,32911,32910,0.021248728036880493,0.0995333194732666,1.0298004150390625,5.570753574371338,8.818312644958496,-0.6367266774177551,2.01749587059021,3.9877967834472656,0.1603837013244629,0.41662439703941345,-0.5894802212715149,2.0937280654907227
4,32921,32920,-0.005374073516577482,-0.03803231567144394,1.0059163570404053,-0.7835612297058105,1.5269556045532227,-1.1150872707366943,2.0170111656188965,3.9889614582061768,0.1614857316017151,0.36347219347953796,-0.7071306705474854,2.0877139568328857
5,32931,32930,-0.06796449422836304,0.017608601599931717,1.017233967781067,-5.593027114868164,-1.787723422050476,-0.4071728587150574,2.0165929794311523,3.9860446453094482,0.16323918104171753,0.3833261728286743,-0.31187090277671814,2.071139097213745
6,32941,32940,-0.03148332238197327,-0.017062775790691376,1.0071269273757935,-6.642425060272217,-2.254765033721924,-0.30917179584503174,2.015395164489746,3.986335515975952,0.16483144462108612,0.37466010451316833,-0.47925257682800293,2.0661823749542236
7,32951,32950,-0.025944575667381287,0.06826265156269073,1.002647876739502,-7.5520830154418945,-3.9281435012817383,0.4901314377784729,2.014492988586426,3.9866721630096436,0.16604161262512207,0.46785223484039307,-0.6435989141464233,2.059274911880493
8,32961,32960,-0.03130955621600151,0.10534419864416122,1.0484206676483154,-5.504816055297852,-2.156475067138672,0.5886292457580566,2.0138206481933594,3.986140251159668,0.16724447906017303,0.5511163473129272,-0.640784502029419,2.0585379600524902
9,32971,32970,-0.0014106981689110398,-0.0034098990727216005,1.0379244089126587,-2.7648732662200928,2.349600315093994,-0.2592991292476654,2.0134541988372803,3.986947536468506,0.16973283886909485,0.5195955634117126,-0.833138644695282,2.0671842098236084
10,32981,32980,0.00979945994913578,0.08901260793209076,0.9944970607757568,1.700333833694458,2.812437057495117,2.022017002105713,2.0131709575653076,3.9853789806365967,0.17124934494495392,0.43968233466148376,-0.7276714444160461,2.0704782009124756
11,32991,32990,-0.0034245671704411507,0.05306434631347656,1.0844159126281738,4.681405544281006,6.797110557556152,1.6414642333984375,2.012422561645508,3.977123737335205,0.17223556339740753,0.5425018072128296,0.7009998559951782,2.0773160457611084
12,33001,33000,-0.006655525416135788,0.01804092898964882,1.103231430053711,5.248915672302246,7.909371852874756,1.3910092115402222,2.009174346923828,3.977328300476074,0.17637567222118378,0.3739718794822693,0.5067537426948547,2.0803463459014893
13,33011,33010,-0.03022940456867218,-0.10340993106365204,0.9771307110786438,-5.337080001831055,14.266518592834473,2.024069309234619,2.008774995803833,3.9772496223449707,0.1796433925628662,0.3239193856716156,0.31485629081726074,2.092952013015747
14,33021,33020,0.028632406145334244,-0.055899836122989655,1.0374726057052612,-16.38087272644043,10.59973430633545,2.06436824798584,2.008315324783325,3.981459856033325,0.18287594616413116,0.07894767075777054,-0.013137212023139,2.1196370124816895
15,33031,33030,0.011837759986519814,0.004984457977116108,1.0588926076889038,-24.749736785888672,9.584526062011719,1.6863409280776978,2.0088815689086914,3.9822375774383545,0.18509387969970703,-0.11313324421644211,-0.32836881279945374,2.134843349456787
16,33041,33040,-0.03964446485042572,0.17613841593265533,1.0408722162246704,-26.857492446899414,4.808543682098389,1.640557050704956,2.0090413093566895,3.9841649532318115,0.18431279063224792,-0.2623433768749237,-0.7305300831794739,2.147041082382202
17,33051,33050,-5.529719783226028e-05,0.06395179778337479,1.0800747871398926,-24.642854690551758,0.4193982183933258,1.9037935733795166,2.0087063312530518,3.9842021465301514,0.18604210019111633,-0.3313329517841339,-1.1882858276367188,2.149498462677002
18,33061,33060,0.034728821367025375,-0.1650751531124115,1.084909200668335,-15.275378227233887,-8.75148868560791,2.020573377609253,2.0076358318328857,3.985116958618164,0.18783219158649445,-0.14660760760307312,-1.5959103107452393,2.1518819332122803
19,33071,33070,0.018287835642695427,-0.2678122818470001,1.1018040180206299,0.47603222727775574,-6.820248126983643,1.552477478981018,2.0081048011779785,3.9847569465637207,0.18942885100841522,-0.1652689278125763,-1.7938944101333618,2.175724744796753
20,33081,33080,0.01380723062902689,0.058564625680446625,1.0950069427490234,11.352338790893555,-6.816485404968262,1.5992097854614258,2.0079970359802246,3.9840712547302246,0.19070202112197876,-0.39197996258735657,-2.117027521133423,2.173537254333496
21,33091,33090,0.004816741682589054,0.06066872924566269,1.051944613456726,21.02756690979004,-10.77836799621582,2.4952385425567627,2.000283718109131,3.9814705848693848,0.19713960587978363,0.8116973042488098,-1.3807373046875,2.1136066913604736
22,33101,33100,0.015603956766426563,-0.046128809452056885,1.0260604619979858,27.668079376220703,-5.796966552734375,2.677327871322632,2.002587080001831,3.9815003871917725,0.2019268274307251,0.47915104031562805,-1.0384210348129272,2.206517219543457
23,33111,33110,0.043652065098285675,-0.069834403693676,1.0352059602737427,25.16100311279297,2.4148452281951904,2.680586338043213,2.01015567779541,3.968733310699463,0.20409101247787476,-0.6792411208152771,1.1702349185943604,2.5227134227752686
24,33121,33120,0.029685357585549355,0.038116902112960815,1.0261489152908325,14.921623229980469,7.674313545227051,1.4381965398788452,2.009873867034912,3.9685349464416504,0.21124112606048584,-0.5756440758705139,1.0470455884933472,2.505281448364258
25,33131,33130,-0.019946301355957985,0.13272903859615326,0.9904868006706238,-7.320145130157471,5.1548333168029785,-1.004173994064331,2.009767532348633,3.9687743186950684,0.2173042595386505,-0.6049333214759827,0.834906280040741,2.482377529144287
26,33141,33140,-0.016891390085220337,-0.04316658526659012,0.9173803925514221,-27.596731185913086,-1.2662378549575806,-1.38668954372406,2.0098648071289062,3.9702513217926025,0.21571984887123108,-0.6474437117576599,0.3487432897090912,2.429689407348633
27,33151,33150,-0.0223807655274868,0.009235801175236702,0.88630610704422,-48.546546936035156,-9.135601997375488,-0.6508483290672302,2.009005546569824,3.9723968505859375,0.21984869241714478,-0.42320966720581055,-0.3679693639278412,2.3758246898651123
28,33161,33160,0.0028576813638210297,-0.04949064925312996,0.965090811252594,-55.289772033691406,-16.40842628479004,-0.48723533749580383,2.0100600719451904,3.9720606803894043,0.22253046929836273,-0.4636259973049164,-0.8978310823440552,2.3623452186584473
29,33171,33170,-0.011701059527695179,0.029960952699184418,0.9954794049263,-50.471683502197266,-22.34539794921875,-0.7277166247367859,2.0086379051208496,3.972322463989258,0.22223041951656342,-0.14756740629673004,-1.6198123693466187,2.339367389678955
30,33181,33180,-0.055545590817928314,-0.0695740357041359,0.9546117186546326,-31.335538864135742,-26.786540985107422,-0.5340469479560852,2.007894277572632,3.9736697673797607,0.22448836266994476,0.22600939869880676,-2.3630220890045166,2.3041746616363525
31,33191,33190,-0.106196828186512,-0.04558752477169037,1.0105550289154053,-12.335172653198242,-25.899669647216797,0.21107186377048492,2.006518602371216,3.9727888107299805,0.2270473688840866,0.6749488711357117,-2.6144866943359375,2.3042712211608887
32,33201,33200,-0.16719385981559753,-0.059381697326898575,1.0721842050552368,13.118510246276855,-14.870176315307617,0.6189009547233582,2.0051157474517822,3.9721226692199707,0.2296610176563263,1.0442811250686646,-2.575493574142456,2.3176777362823486
33,33211,33210,-0.04277978092432022,-0.009506401605904102,0.9820534586906433,28.38904571533203,-6.27820348739624,0.907252848148346,2.00518798828125,3.97106671333313,0.22926291823387146,1.1030372381210327,-2.449354648590088,2.345050573348999
34,33221,33220,-0.03724974766373634,0.054403651505708694,0.9371169209480286,33.82347106933594,6.474966526031494,0.11099516600370407,2.0049493312835693,3.972154378890991,0.23148444294929504,1.136098861694336,-2.4698879718780518,2.3515498638153076
35,33231,33230,-0.04540923237800598,0.05017244070768356,0.9282044172286987,30.218828201293945,15.863855361938477,-0.3474721908569336,2.0053956508636475,3.970970869064331,0.2339366376399994,0.9760984182357788,-2.104574203491211,2.3703041076660156
36,33241,33240,-0.023371290415525436,0.009822974912822247,0.95356285572052,24.24849510192871,19.29546546936035,-1.3048776388168335,2.006101608276367,3.972644805908203,0.23530514538288116,0.7109771370887756,-1.946696400642395,2.3848013877868652
37,33251,33250,-0.045139558613300323,-0.03369901329278946,0.9228107929229736,14.931917190551758,21.978206634521484,-2.325357437133789,2.0055365562438965,3.9733011722564697,0.23726141452789307,0.5632762312889099,-1.8819020986557007,2.360661268234253
38,33261,33260,-0.02960016205906868,0.023148072883486748,0.9326260089874268,7.245298385620117,16.798654556274414,-2.2841732501983643,2.005439043045044,3.9744582176208496,0.23926706612110138,0.35877910256385803,-1.7927732467651367,2.331721067428589
39,33271,33270,0.008244331926107407,-0.020356230437755585,0.9437776803970337,4.023695945739746,4.496686935424805,-1.5566226243972778,2.0054774284362793,3.9761197566986084,0.23903441429138184,0.19797377288341522,-1.7964084148406982,2.309920310974121
40,33281,33280,0.018980994820594788,0.00786641426384449,0.9404120445251465,5.319521903991699,-4.001211643218994,-1.6124939918518066,2.0045104026794434,3.976787567138672,0.24081777036190033,0.2541119456291199,-1.8154754638671875,2.270223617553711
41,33291,33290,0.08493959903717041,-0.12684093415737152,0.9349055886268616,9.060041427612305,-8.568977355957031,-1.8247605562210083,2.0032153129577637,3.977492094039917,0.2425372153520584,0.34141871333122253,-1.790401577949524,2.241824150085449
42,33301,33300,0.09088686108589172,-0.21587535738945007,0.9148982763290405,15.172137260437012,-13.661455154418945,-1.7536029815673828,2.0023183822631836,3.978618621826172,0.2441311925649643,0.51471346616745,-1.7505791187286377,2.2081491947174072
43,33311,33310,0.037197597324848175,-0.06718514114618301,0.9437323808670044,21.746109008789062,-14.381450653076172,-1.2020165920257568,2.0017905235290527,3.980609178543091,0.24588318169116974,0.5843339562416077,-1.740325689315796,2.2247040271759033
44,33321,33320,0.055130720138549805,0.040611494332551956,0.944035530090332,27.330909729003906,-9.02275562286377,-0.7839555740356445,2.004507064819336,3.9830074310302734,0.24782021343708038,0.48522546887397766,-1.3860182762145996,2.2643327713012695
45,33331,33330,0.05307001993060112,0.0062582907266914845,0.935067355632782,29.46573257446289,-3.82685923576355,-1.5727238655090332,2.003789186477661,3.9860870838165283,0.24906857311725616,0.6258932948112488,-1.3477786779403687,2.249945640563965
46,33341,33340,0.06766046583652496,-0.026567958295345306,0.9385872483253479,27.99060821533203,1.6135361194610596,-1.7700402736663818,2.0038039684295654,3.986538887023926,0.24942375719547272,0.6601738929748535,-1.038448691368103,2.2325239181518555
47,33351,33350,0.07718057930469513,-0.06266006827354431,0.9447445869445801,24.867656707763672,4.74161958694458,-1.8970956802368164,2.0039989948272705,3.9861032962799072,0.25089776515960693,0.6106382012367249,-0.6156832575798035,2.212980270385742
48,33361,33360,0.08046520501375198,-0.0961453914642334,0.9336228966712952,21.618511199951172,8.593941688537598,-2.356215476989746,2.0028367042541504,3.9885900020599365,0.252047061920166,0.6602664589881897,-0.5579186081886292,2.179466724395752
49,33371,33370,-0.008858965709805489,0.0026024647522717714,0.9931477308273315,19.758955001831055,4.565950870513916,-2.3990297317504883,2.003725290298462,3.9912760257720947,0.2531382739543915,0.5352592468261719,-0.37414681911468506,2.1702187061309814
50,33381,33380,-0.00044943575630895793,-0.008787707425653934,0.9903746843338013,18.12205696105957,2.8254337310791016,-2.394012451171875,2.003804922103882,3.9908154010772705,0.25447288155555725,0.4522651731967926,0.006762488279491663,2.1443746089935303
51,33391,33390,0.022514572367072105,0.00540644396096468,0.965957760810852,18.123830795288086,-0.182841494679451,-1.871024489402771,2.00388765335083,3.993725299835205,0.2555590569972992,0.41409409046173096,-0.029168881475925446,2.127821683883667
52,33401,33400,0.02048661932349205,-0.040827129036188126,0.9616304039955139,17.985179901123047,-3.4816253185272217,-1.820236086845398,2.003506660461426,3.994072198867798,0.2581488788127899,0.42930999398231506,0.18728023767471313,2.106926679611206
53,33411,33410,-0.048288505524396896,0.13484540581703186,1.0126091241836548,17.313583374023438,-3.2781646251678467,-1.8690791130065918,2.0027518272399902,3.9931018352508545,0.2595127522945404,0.48416802287101746,0.6229898929595947,2.081285238265991
54,33421,33420,0.014042103663086891,-0.05094701796770096,0.9515843987464905,16.774803161621094,-4.365196704864502,-1.4615622758865356,2.0024051666259766,3.9964728355407715,0.26067543029785156,0.5448238849639893,0.48779720067977905,2.067817449569702
55,33431,33430,0.007182052358984947,-0.21133534610271454,0.9518228769302368,14.31967544555664,-4.271957874298096,-1.3388460874557495,2.002795457839966,3.996647596359253,0.26189130544662476,0.5241865515708923,0.7434661984443665,2.049320936203003
56,33441,33440,-0.06682579219341278,-0.12112979590892792,1.0356409549713135,13.473121643066406,-3.0819993019104004,-1.2260292768478394,2.0015485286712646,3.9964349269866943,0.26068544387817383,0.644864559173584,1.1111891269683838,2.0303115844726562
57,33451,33450,-0.03820258006453514,-0.06783106178045273,0.9904969334602356,11.043069839477539,2.6330313682556152,-0.8375108242034912,2.001542806625366,3.997715950012207,0.261678010225296,0.640008270740509,1.1195894479751587,2.0188355445861816
58,33461,33460,0.09365137666463852,-0.014378263615071774,0.9676496982574463,8.855242729187012,1.8476895093917847,-0.8115677237510681,2.001399278640747,3.9998977184295654,0.26264622807502747,0.5875684022903442,1.1774636507034302,2.0077221393585205
59,33471,33470,0.018382787704467773,0.040269650518894196,0.9981849193572998,5.839407920837402,5.568758487701416,-0.7456777095794678,2.0005135536193848,4.002499103546143,0.2633495032787323,0.5865501761436462,1.2706409692764282,2.0029890537261963
60,33481,33480,0.013354741036891937,-0.010558675974607468,0.9728840589523315,4.601914405822754,3.61173939704895,-0.6685426831245422,2.000614643096924,4.004651069641113,0.2642485499382019,0.4893178641796112,1.2443978786468506,1.9933160543441772
61,33491,33490,0.0087031414732337,-0.03882456198334694,1.0043083429336548,4.55757474899292,3.230276107788086,-0.8375217318534851,2.0006279945373535,4.005086898803711,0.2651999592781067,0.4114856719970703,1.3627190589904785,1.9781934022903442
62,33501,33500,-0.02698896825313568,0.0041588484309613705,1.0023185014724731,5.87003231048584,1.4931185245513916,-1.0403274297714233,1.999758005142212,4.004731178283691,0.2676917612552643,0.3644391894340515,1.4042710065841675,1.9670348167419434
63,33511,33510,-0.005061991512775421,-0.03663187474012375,0.9522657990455627,7.1172380447387695,1.6255654096603394,-0.2677685618400574,1.998651385307312,4.00547456741333,0.26870936155319214,0.4123745560646057,1.542079210281372,1.9701731204986572
64,33521,33520,0.02877085655927658,-0.05229055508971214,0.879641056060791,8.044330596923828,-0.003358574816957116,0.4537586569786072,1.998268961906433,4.00416374206543,0.2696417272090912,0.3838699460029602,1.6867808103561401,1.9633198976516724
65,33531,33530,-0.004102292936295271,0.009932764805853367,0.9420691728591919,8.289502143859863,-1.6805691719055176,0.04307742416858673,1.9969794750213623,4.005500316619873,0.27052006125450134,0.45824915170669556,1.6772699356079102,1.9835385084152222
66,33541,33540,0.009224049746990204,-0.013329294510185719,0.9642701148986816,4.768361568450928,-0.1560267060995102,0.38321882486343384,1.9965406656265259,4.005904197692871,0.2714288532733917,0.4550778567790985,1.7322585582733154,1.9796817302703857
67,33551,33550,-0.0051483470015227795,-0.033963896334171295,1.0116345882415771,2.674290418624878,0.11159069836139679,0.2042066901922226,1.9962869882583618,4.003962516784668,0.2722097933292389,0.36954817175865173,1.8942946195602417,1.9563217163085938
68,33561,33560,0.008888416923582554,-0.0438833087682724,0.9900490045547485,-0.16931679844856262,2.407806158065796,0.06558868288993835,1.9948983192443848,4.005708694458008,0.27296870946884155,0.48995211720466614,1.835964322090149,1.993459939956665
69,33571,33570,-0.012930519878864288,0.015265843831002712,1.0195461511611938,-2.299420118331909,2.750631809234619,-0.07347775995731354,1.994178056716919,4.005580425262451,0.2746962308883667,0.49610042572021484,1.8981715440750122,2.0029492378234863
70,33581,33580,0.007459005806595087,-0.04127446934580803,0.9643721580505371,-3.5208325386047363,3.443843364715576,0.7461057901382446,1.9944671392440796,4.006861209869385,0.2756190896034241,0.3453381657600403,1.8464301824569702,1.9684431552886963
71,33591,33590,0.029228312894701958,-0.08495374023914337,0.9779660105705261,-4.159783840179443,3.5249648094177246,1.1625747680664062,1.9944700002670288,4.0071892738342285,0.2764396667480469,0.2776450216770172,1.8524035215377808,1.964403748512268
72,33601,33600,0.06565484404563904,-0.1728992909193039,0.9585685133934021,-4.466127872467041,1.8119903802871704,1.3113144636154175,1.9944043159484863,4.008220195770264,0.27885758876800537,0.22038349509239197,1.7635180950164795,1.9655697345733643
73,33611,33610,-0.014935493469238281,-0.021541111171245575,1.004239797592163,-4.248922348022461,1.5801032781600952,1.2271647453308105,1.994552493095398,4.007932662963867,0.27976885437965393,0.18569786846637726,1.8276805877685547,1.9736812114715576
74,33621,33620,0.02983875758945942,0.05566004291176796,0.9714935421943665,-3.8890461921691895,-0.9770470857620239,0.937330961227417,1.9940881729125977,4.008433818817139,0.2806147634983063,0.16696099936962128,1.7288269996643066,1.9844003915786743
75,33631,33630,0.06538223475217819,0.0015190449776127934,0.9869371652603149,-4.187265396118164,-0.43085506558418274,1.2583494186401367,1.9937357902526855,4.008766174316406,0.2814735472202301,0.16635224223136902,1.707841157913208,1.992541790008545
76,33641,33640,-0.06300850212574005,0.017208408564329147,0.9797226786613464,-3.9031596183776855,-2.915961742401123,0.9642919898033142,1.9927793741226196,4.007399082183838,0.28454074263572693,0.19227588176727295,1.6838079690933228,2.0031418800354004
77,33651,33650,0.00612768204882741,-0.06490542739629745,0.958275318145752,-4.11147928237915,-2.280622959136963,0.445643812417984,1.991429328918457,4.007437229156494,0.28546199202537537,0.30429333448410034,1.6524379253387451,2.0357859134674072
78,33661,33660,0.03466078266501427,-0.09711100906133652,1.0057295560836792,-5.041138172149658,-1.246976613998413,-0.3112034499645233,1.9912835359573364,4.009294033050537,0.28642207384109497,0.3171307444572449,1.6059980392456055,2.037435531616211
79,33671,33670,0.0337890163064003,-0.21590177714824677,0.9623834490776062,-5.456279754638672,0.7821038961410522,-1.3431638479232788,1.990522861480713,4.007441520690918,0.2871153652667999,0.38376033306121826,1.623471975326538,2.0519802570343018
80,33681,33680,0.007317631971091032,-0.16895753145217896,0.919845700263977,-5.2145795822143555,2.892575740814209,-1.3845351934432983,1.9905507564544678,4.006367206573486,0.28799915313720703,0.3300606906414032,1.7040221691131592,2.027294874191284
81,33691,33690,0.001338303554803133,-0.08395237475633621,0.9264838695526123,-5.671871662139893,5.775498390197754,-1.1073371171951294,1.9904935359954834,4.007092475891113,0.28878650069236755,0.3103290796279907,1.6907377243041992,2.01948881149292
82,33701,33700,0.0009918097639456391,-0.07157518714666367,0.9649763107299805,-7.773711204528809,8.912026405334473,-1.04487943649292,1.9900707006454468,4.007365703582764,0.2896738052368164,0.2431574910879135,1.57663893699646,2.008200168609619
83,33711,33710,0.052985187619924545,-0.15502683818340302,0.9671337008476257,-8.808457374572754,6.2463812828063965,0.24740497767925262,1.988987684249878,4.008221626281738,0.2903406620025635,0.23485340178012848,1.5138633251190186,2.0243489742279053
84,33721,33720,0.07758620381355286,-0.22779174149036407,0.9674228429794312,-11.565743446350098,8.155608177185059,-1.3713394403457642,1.9897141456604004,4.007145404815674,0.2910483181476593,0.07121601700782776,1.4137192964553833,1.9986001253128052
85,33731,33730,-0.0165623240172863,-0.019660623744130135,0.9953927397727966,-10.737448692321777,4.960223197937012,-0.7124894261360168,1.9895585775375366,4.007748126983643,0.2941712737083435,-0.07447802275419235,1.2148829698562622,1.9688992500305176
86,33741,33740,0.0176189336925745,-0.058124128729104996,0.9528316855430603,-9.621586799621582,3.008709192276001,-0.9657109379768372,1.9897562265396118,4.007586479187012,0.294943243265152,-0.18164528906345367,1.0353949069976807,1.9466240406036377
87,33751,33750,0.002341789659112692,-0.030112719163298607,0.9486494064331055,-8.053848266601562,2.4700815677642822,-0.4989088475704193,1.9898650646209717,4.006026268005371,0.2957359850406647,-0.24053552746772766,1.1115020513534546,1.9389780759811401
88,33761,33760,0.08539994806051254,-0.057988494634628296,0.9296659827232361,-6.394144535064697,-0.906786322593689,0.1459643393754959,1.9865496158599854,4.005715847015381,0.2965574264526367,0.05132455378770828,1.1222366094589233,2.016284942626953
89,33771,33770,0.11196541041135788,-0.24570277333259583,0.9679431915283203,-5.195011615753174,-3.1124424934387207,0.492402046918869,1.9863481521606445,4.0038838386535645,0.29421570897102356,0.050571560859680176,1.1464790105819702,2.0167224407196045
90,33781,33780,0.08457133919000626,-0.26010316610336304,0.9468616843223572,-5.218299388885498,-2.093055248260498,0.42272546887397766,1.985195279121399,4.003891468048096,0.2946707606315613,0.13799013197422028,1.094450831413269,2.032780647277832
91,33791,33790,-0.03737526386976242,-0.024075929075479507,1.0088648796081543,-7.7602996826171875,0.5835625529289246,0.5347937941551208,1.9848228693008423,4.003106117248535,0.2950313091278076,0.17586001753807068,1.0950818061828613,2.0437490940093994
92,33801,33800,-0.007188033778220415,-0.13591496646404266,0.9654895067214966,-10.754504203796387,5.717872142791748,0.41387149691581726,1.9848192930221558,4.003188133239746,0.29465213418006897,0.06460777670145035,0.9681280255317688,2.0274133682250977
93,33811,33810,-0.004603146575391293,-0.11813753843307495,0.9243513941764832,-14.99439525604248,12.010234832763672,0.7475854158401489,1.9850497245788574,4.004115104675293,0.2950148284435272,-0.051234178245067596,0.7863930463790894,2.02125883102417
94,33821,33820,-0.024654461070895195,-0.021118909120559692,0.9590373039245605,-18.890275955200195,15.197251319885254,0.5783032178878784,1.9839332103729248,4.002323627471924,0.29524344205856323,-0.0850040540099144,0.6978596448898315,2.0475995540618896
95,33831,33830,0.024792687967419624,-0.021344788372516632,0.9469080567359924,-20.286684036254883,13.506399154663086,1.4104413986206055,1.984056830406189,4.0022735595703125,0.3000299036502838,-0.30089256167411804,0.4736950993537903,2.0407795906066895
96,33841,33840,0.012314344756305218,-0.03770725801587105,1.0193928480148315,-18.102312088012695,9.107950210571289,1.7184529304504395,1.9837100505828857,4.001760959625244,0.3004828989505768,-0.3825986087322235,0.32730820775032043,2.069810152053833
97,33851,33850,0.04760287329554558,-0.13702745735645294,0.9522597193717957,-14.395918846130371,5.6236677169799805,2.3075754642486572,1.9830656051635742,4.002246379852295,0.3009687662124634,-0.4841938018798828,0.06791294366121292,2.080880880355835
98,33861,33860,0.0272890143096447,-0.03993094339966774,0.9628178477287292,-9.597101211547852,3.3476407527923584,2.4557950496673584,1.9819806814193726,4.000365734100342,0.3013966679573059,-0.5417589545249939,0.10813597589731216,2.116529703140259
99,33871,33870,0.06938345730304718,-0.06140701100230217,0.9192032217979431,-4.957647800445557,2.2962849140167236,3.394362688064575,1.9811383485794067,3.998816967010498,0.30163416266441345,-0.5710382461547852,-0.09538590908050537,2.132026433944702
100,33881,33880,-0.0033607559744268656,0.041367191821336746,0.9196857810020447,-3.239131450653076,0.4512503147125244,4.311017036437988,1.9803504943847656,3.9971282482147217,0.30191946029663086,-0.5705840587615967,-0.07494737207889557,2.1741955280303955
101,33891,33890,-0.038574520498514175,-0.03327286243438721,0.975613534450531,-2.0573973655700684,0.5447380542755127,4.524794101715088,1.9794212579727173,3.9939067363739014,0.30207380652427673,-0.6226065754890442,-0.02732068859040737,2.2204744815826416
102,33901,33900,0.008364434354007244,0.017262833192944527,1.0063673257827759,-2.9376649856567383,0.19662532210350037,5.169698238372803,1.9791792631149292,3.9936814308166504,0.30335405468940735,-0.673099160194397,-0.13846063613891602,2.2570130825042725
103,33911,33910,0.01276671513915062,0.025814367458224297,0.9917010068893433,-4.80297327041626,-0.4308553636074066,4.4536261558532715,1.979017734527588,3.993978500366211,0.3036264181137085,-0.7091242074966431,-0.18196460604667664,2.302910089492798
104,33921,33920,-0.051258888095617294,-0.061016760766506195,0.9932781457901001,-9.400483131408691,1.5725756883621216,5.2675957679748535,1.9789246320724487,3.9939587116241455,0.30391764640808105,-0.7192147970199585,-0.34425419569015503,2.3344619274139404
105,33931,33930,0.01074594259262085,-0.059415750205516815,0.9947117567062378,-12.568086624145508,1.9813562631607056,4.611200332641602,1.977783441543579,3.995544195175171,0.3062416911125183,-0.7529640793800354,-0.49049437046051025,2.3796451091766357
106,33941,33940,-0.007893215864896774,-8.043114212341607e-05,0.9898894429206848,-14.375724792480469,1.932513952255249,5.258861064910889,1.977676272392273,3.9939887523651123,0.3066123127937317,-0.803938627243042,-0.601709246635437,2.4297549724578857
107,33951,33950,0.0103367380797863,-0.040484990924596786,0.9414089322090149,-14.144759178161621,0.7652573585510254,5.838135719299316,1.9771497249603271,3.9944674968719482,0.3069746494293213,-0.7697919011116028,-0.8077937364578247,2.4719457626342773
108,33961,33960,-0.017957070842385292,0.00839906558394432,1.0017163753509521,-9.211098670959473,-1.9515540599822998,5.808324337005615,1.9756871461868286,3.9930667877197266,0.3038187623023987,-0.7065492272377014,-0.8121397495269775,2.5457959175109863
109,33971,33970,0.046278733760118484,-0.04845574498176575,0.9735947251319885,-3.775653123855591,-5.14556360244751,5.494110107421875,1.975217580795288,3.9916934967041016,0.30390992760658264,-0.6821377873420715,-0.8981645703315735,2.603555679321289
110,33981,33980,0.03548546880483627,-0.02661694958806038,0.9495523571968079,0.47114723920822144,-5.652221202850342,4.147600173950195,1.974853754043579,3.9895401000976562,0.30398568511009216,-0.6090796589851379,-0.8208391666412354,2.672441244125366
111,33991,33990,-0.04823648929595947,0.14237549901008606,0.9813697934150696,1.9204233884811401,-7.277993202209473,4.619053840637207,1.973252773284912,3.987178087234497,0.3039514422416687,-0.5167096853256226,-0.8532766699790955,2.7050013542175293
112,34001,34000,-0.006319267209619284,0.07335647940635681,0.9706350564956665,1.7105762958526611,-8.024911880493164,4.357783794403076,1.973119854927063,3.9861502647399902,0.30361416935920715,-0.493276447057724,-0.795240581035614,2.760685443878174
113,34011,34010,0.008735149167478085,0.01526794396340847,1.013466715812683,-0.8711440563201904,-5.60042667388916,4.272285461425781,1.9736512899398804,3.9886744022369385,0.3036097586154938,-0.408667653799057,-0.8354279398918152,2.7955095767974854
114,34021,34020,-0.006105637177824974,0.06350693106651306,1.044470191001892,-2.1518330574035645,0.29308682680130005,3.2413458824157715,1.9748033285140991,3.988135576248169,0.3036189377307892,-0.45506420731544495,-0.8257996439933777,2.8515706062316895
115,34031,34030,-0.033345431089401245,0.1168142631649971,0.9920435547828674,-3.5625200271606445,6.206332683563232,2.7550926208496094,1.974871039390564,3.9885165691375732,0.3048153817653656,-0.49439024925231934,-0.9161999225616455,2.8811540603637695
116,34041,34040,0.05395408347249031,0.07829315215349197,0.9105322360992432,-4.481948375701904,6.70395040512085,2.9390945434570312,1.9749385118484497,3.9883460998535156,0.3048606216907501,-0.6045348644256592,-1.014085292816162,2.9046671390533447
117,34051,34050,0.04567750543355942,-0.06464883685112,0.9941008687019348,-2.555995464324951,-0.33251920342445374,2.7287285327911377,1.9739248752593994,3.9882242679595947,0.30493906140327454,-0.586127758026123,-1.023188591003418,2.926557779312134
118,34061,34060,0.006563296541571617,-0.06240278109908104,1.0427582263946533,1.342894434928894,-2.3289451599121094,1.725963830947876,1.9737434387207031,3.9871578216552734,0.3052745461463928,-0.5802583694458008,-1.0651928186416626,2.948796510696411
119,34071,34070,-0.06708326935768127,0.23181195557117462,0.9998128414154053,4.016331195831299,-3.2521204948425293,2.1187689304351807,1.972956895828247,3.9867005348205566,0.3053508400917053,-0.5635620355606079,-1.048924207687378,2.965921401977539
120,34081,34080,0.0018779452657327056,0.02476671151816845,0.983689546585083,6.135336875915527,-3.0316672325134277,1.975516438484192,1.9743982553482056,3.9852688312530518,0.3054242432117462,-0.5934528708457947,-0.9848573803901672,2.9995226860046387
121,34091,34090,0.07727119326591492,-0.06853954493999481,1.0349688529968262,5.499363899230957,-5.668893337249756,0.7736591100692749,1.9729869365692139,3.985114812850952,0.3054216206073761,-0.5455012917518616,-0.911954402923584,3.014763593673706
122,34101,34100,-0.02186257764697075,-0.05270547792315483,1.0503735542297363,5.6815690994262695,-6.998402118682861,1.2121150493621826,1.972476840019226,3.985090732574463,0.3039471209049225,-0.4404662251472473,-0.8373555541038513,3.0197808742523193
123,34111,34110,-0.019374463707208633,0.08174151927232742,1.0015839338302612,2.7052719593048096,-5.863921165466309,1.1721245050430298,1.9733390808105469,3.98534893989563,0.3040134310722351,-0.4132955074310303,-0.7895089387893677,3.038907766342163
124,34121,34120,0.019474564120173454,0.08488467335700989,1.035393238067627,-0.8247097134590149,-5.825838565826416,0.8083522915840149,1.9728672504425049,3.9852349758148193,0.30406513810157776,-0.3166496753692627,-0.7979740500450134,3.0420331954956055
125,34131,34130,0.026187337934970856,0.030289532616734505,1.0252915620803833,-3.11523175239563,-5.178243637084961,-0.506720781326294,1.9736106395721436,3.985025405883789,0.3048384487628937,-0.37045010924339294,-0.8488122224807739,3.06381893157959
126,34141,34140,-0.042274359613657,0.11427164822816849,1.0096285343170166,-4.039135932922363,-6.655514717102051,-0.22561192512512207,1.9729386568069458,3.9847564697265625,0.3049823045730591,-0.2539820373058319,-0.9192789793014526,3.048969268798828
127,34151,34150,0.007913876324892044,0.009221144951879978,1.0263253450393677,-2.316246509552002,-7.9852681159973145,-0.5140407085418701,1.9722837209701538,3.984818696975708,0.3051479458808899,-0.13417506217956543,-0.9814357161521912,3.037119150161743
128,34161,34160,-0.02145264483988285,0.018121907487511635,1.0046292543411255,0.7006540894508362,-3.8992702960968018,0.1942564845085144,1.9730298519134521,3.98508358001709,0.3062554895877838,-0.1014387309551239,-0.9979398846626282,3.040968179702759
129,34171,34170,0.01755853183567524,-0.008871477097272873,0.9922366738319397,2.2043673992156982,4.229204177856445,0.7082465887069702,1.9727637767791748,3.9847958087921143,0.30651289224624634,-0.09434369951486588,-0.9750192761421204,3.0497958660125732
130,34181,34180,-0.050320181995630264,0.05050463601946831,1.0481584072113037,4.400285243988037,13.984145164489746,0.9943421483039856,1.9734045267105103,3.9844911098480225,0.3067599833011627,-0.2328319102525711,-0.9191904664039612,3.0764708518981934
131,34191,34190,-0.005013491492718458,0.011010718531906605,0.9846386313438416,6.449317455291748,20.250856399536133,0.8097292184829712,1.9731743335723877,3.9836089611053467,0.30702686309814453,-0.3578024208545685,-0.8268219232559204,3.080686092376709
132,34201,34200,0.0010561824310570955,-0.006256437394768,0.9990678429603577,6.2519989013671875,21.223508834838867,0.4123139977455139,1.9726080894470215,3.9853262901306152,0.3072842061519623,-0.6221700310707092,-0.8019654750823975,3.091606616973877
133,34211,34210,0.0030916284304112196,-0.02653696946799755,0.9806400537490845,4.698660373687744,18.840126037597656,0.3700544238090515,1.9736372232437134,3.9834249019622803,0.30752137303352356,-0.8644212484359741,-0.7079312205314636,3.100933790206909
134,34221,34220,-0.012280126102268696,-0.006350764539092779,0.9752053022384644,3.3242924213409424,14.889239311218262,-0.1259072870016098,1.9730503559112549,3.9857282638549805,0.3079872131347656,-0.8907455801963806,-0.795279860496521,3.068596839904785
135,34231,34230,-0.004388740286231041,0.007860567420721054,0.9464094638824463,2.3216588497161865,7.851715087890625,-0.818936288356781,1.973530650138855,3.986121416091919,0.3085286021232605,-1.0690867900848389,-0.7354686260223389,3.0712924003601074
136,34241,34240,-0.005905717611312866,0.03907817229628563,1.0352147817611694,2.9903314113616943,0.352415531873703,-0.40486252307891846,1.973596453666687,3.9853835105895996,0.3087559938430786,-1.1331965923309326,-0.6793631315231323,3.06712007522583
137,34251,34250,0.0010586123680695891,0.028927035629749298,1.0705925226211548,5.591686725616455,-2.466881275177002,-1.2417452335357666,1.9737069606781006,3.9855525493621826,0.30901452898979187,-1.10611891746521,-0.6038486957550049,3.0609524250030518
138,34261,34260,0.013022092171013355,0.055121537297964096,0.984863817691803,5.70469856262207,-0.2063518464565277,-1.1654690504074097,1.9737097024917603,3.9858169555664062,0.3092047870159149,-1.044297456741333,-0.580480694770813,3.041376829147339
139,34271,34270,-0.030208462849259377,0.11268305033445358,0.9806793928146362,5.533863067626953,-2.7255589962005615,-0.40943750739097595,1.9736074209213257,3.9855778217315674,0.309508353471756,-1.0025631189346313,-0.47526875138282776,3.035721778869629
140,34281,34280,-0.006956897675991058,-0.024072643369436264,0.9722407460212708,4.20736026763916,1.7335331439971924,-0.5069988369941711,1.973727822303772,3.98622989654541,0.3097955882549286,-0.9554206728935242,-0.526020348072052,3.012207508087158
141,34291,34290,0.13294097781181335,-0.20060712099075317,1.0457844734191895,3.4522275924682617,4.216477394104004,-0.9958384037017822,1.9739923477172852,3.98526668548584,0.3100667893886566,-0.991131603717804,-0.4436012804508209,3.0154600143432617
142,34301,34300,0.026776883751153946,-0.03453794866800308,1.020269513130188,3.075709819793701,8.30050277709961,-0.7241814136505127,1.973123550415039,3.987732172012329,0.3117575943470001,-1.0650485754013062,-0.5288064479827881,2.9958415031433105
143,34311,34310,0.06907869130373001,-0.025386765599250793,0.945784330368042,2.4378488063812256,11.525588989257812,-0.9275543093681335,1.9738305807113647,3.987391710281372,0.3121533691883087,-1.181512713432312,-0.4544734060764313,2.9989078044891357
144,34321,34320,0.07598984986543655,0.02506641484797001,0.9850510954856873,3.0278749465942383,10.784514427185059,-0.6359108090400696,1.9744901657104492,3.987541675567627,0.3125125467777252,-1.3168245553970337,-0.38203173875808716,3.001354455947876
145,34331,34330,0.09125940501689911,-0.058690689504146576,1.004739761352539,4.685427665710449,7.252624988555908,-0.19859492778778076,1.975217580795288,3.987147092819214,0.31230178475379944,-1.438973069190979,-0.2907885015010834,3.0039725303649902
146,34341,34340,0.07834720611572266,-0.13488110899925232,1.0181183815002441,6.897463798522949,2.0163731575012207,-0.2388310432434082,1.9744709730148315,3.9867043495178223,0.3126617670059204,-1.4143606424331665,-0.2572246193885803,2.990015745162964
147,34351,34350,0.0396001972258091,-0.0746842548251152,1.0009104013442993,6.945652484893799,0.5769608020782471,-0.6525220274925232,1.9730958938598633,3.989147186279297,0.3130159378051758,-1.4101825952529907,-0.19804276525974274,2.980335235595703
148,34361,34360,0.011077329516410828,-0.00589642021805048,0.9895006418228149,5.788919925689697,-1.4746408462524414,-0.9555702209472656,1.9727953672409058,3.9893553256988525,0.31248635053634644,-1.3673285245895386,-0.22158658504486084,2.9546775817871094
149,34371,34370,0.029546307399868965,-0.007089365739375353,0.9841926693916321,4.513186454772949,1.3330633640289307,-0.7304052114486694,1.9725816249847412,3.989140033721924,0.312792032957077,-1.3082953691482544,-0.09750058501958847,2.9533333778381348
150,34381,34380,0.11174502968788147,-0.10829847306013107,0.9939780235290527,4.172420024871826,-2.4349112510681152,0.30325448513031006,1.9732815027236938,3.9875385761260986,0.3130294382572174,-1.3457518815994263,0.001583506935276091,2.9588160514831543
151,34391,34390,0.07853121310472488,-0.16545890271663666,1.0473359823226929,3.621077299118042,-2.3780946731567383,0.02007582224905491,1.9742321968078613,3.988754987716675,0.3135046064853668,-1.3604011535644531,-0.07312704622745514,2.9399142265319824
152,34401,34400,0.03576411306858063,-0.16167664527893066,0.9853266477584839,3.649059534072876,-1.564483642578125,-0.5706948637962341,1.9745830297470093,3.9885711669921875,0.31379422545433044,-1.3802995681762695,0.009233744814991951,2.948237657546997
153,34411,34410,0.012244061566889286,-0.048157885670661926,0.9452376961708069,3.22086501121521,3.5807716846466064,-1.1107443571090698,1.974342703819275,3.988739490509033,0.3140798509120941,-1.354231834411621,0.005274588707834482,2.9336345195770264
154,34421,34420,0.05340317636728287,-0.003170189680531621,0.9059600830078125,1.3533607721328735,4.84583044052124,-0.6522818803787231,1.9747334718704224,3.989468574523926,0.3143080174922943,-1.4480029344558716,-0.005162061657756567,2.918752431869507
155,34431,34430,0.048961106687784195,-0.07126743346452713,0.9483178853988647,2.2562332153320312,-0.14235907793045044,-0.0849982276558876,1.9749387502670288,3.990250587463379,0.3139903247356415,-1.445363998413086,-0.023431848734617233,2.9047465324401855
156,34441,34440,0.02336268126964569,-0.17905248701572418,0.9986023902893066,4.153351783752441,-5.274385929107666,0.006601100321859121,1.9755825996398926,3.9896745681762695,0.314079612493515,-1.463112473487854,0.059100549668073654,2.9137325286865234
157,34451,34450,-0.030366448685526848,-0.10179434716701508,1.0291801691055298,5.132443904876709,-1.1915299892425537,-0.6164663434028625,1.9753271341323853,3.9903101921081543,0.31412774324417114,-1.4361263513565063,0.16491006314754486,2.924696445465088
158,34461,34460,0.007221279665827751,0.006738817319273949,1.0114089250564575,5.344895839691162,-2.5020222663879395,-0.340557336807251,1.9767000675201416,3.991501569747925,0.311646431684494,-1.4951502084732056,0.12175298482179642,2.9006142616271973
159,34471,34470,0.0025854369159787893,-0.06562427431344986,0.9935470223426819,4.113610744476318,-3.8524539470672607,-0.6252064108848572,1.9762446880340576,3.9911465644836426,0.31167933344841003,-1.3609908819198608,0.23643459379673004,2.9088172912597656
160,34481,34480,0.01411261036992073,0.029599204659461975,1.0083221197128296,3.1229090690612793,-6.914090156555176,-0.5549616813659668,1.976597547531128,3.991034746170044,0.31161636114120483,-1.29750394821167,0.24096055328845978,2.8968448638916016
161,34491,34490,0.01183155458420515,-0.1325356811285019,0.989619255065918,2.406981945037842,-6.2563557624816895,-0.8297848701477051,1.977144479751587,3.990593433380127,0.31134232878685,-1.2145973443984985,0.3169759213924408,2.899733543395996
162,34501,34500,-0.05198665335774422,-0.07863382250070572,1.0006794929504395,1.9514707326889038,-5.455780982971191,-0.6405982375144958,1.9776341915130615,3.9912126064300537,0.31127363443374634,-1.2824479341506958,0.297071248292923,2.8803277015686035
163,34511,34510,-0.06831321865320206,0.08995804190635681,0.9770534634590149,0.3152677118778229,-1.8209707736968994,-0.7499100565910339,1.9788126945495605,3.991713762283325,0.31120815873146057,-1.1309783458709717,0.3442460894584656,2.8814828395843506
164,34521,34520,-0.026846868917346,0.12394033372402191,0.9834595918655396,-0.9838231801986694,-0.41301050782203674,-0.6693410873413086,1.9795432090759277,3.993274211883545,0.3110552430152893,-1.1919255256652832,0.36274102330207825,2.875298500061035
165,34531,34530,0.0029843298252671957,0.026330651715397835,0.9837703704833984,-1.3868377208709717,-2.9845640659332275,-0.5479114651679993,1.9803493022918701,3.9938876628875732,0.3086692988872528,-1.2482141256332397,0.27924564480781555,2.85469913482666
166,34541,34540,-0.050917454063892365,-0.00017686162027530372,1.040984869003296,-0.6399092674255371,-4.1409831047058105,-0.547154426574707,1.9808061122894287,3.9943668842315674,0.30844759941101074,-1.183283805847168,0.2843247354030609,2.8526759147644043
167,34551,34550,0.04373256117105484,-0.1273486167192459,1.026248574256897,0.10376705229282379,-4.220744609832764,-1.020997166633606,1.9807201623916626,3.994654893875122,0.30832353234291077,-1.0363380908966064,0.2188550978899002,2.841668128967285
168,34561,34560,-0.007311658468097448,0.010496718809008598,0.984653890132904,2.7199301719665527,-6.879034519195557,-0.8829290270805359,1.981960415840149,3.9945530891418457,0.3069446086883545,-1.0097858905792236,0.2777574062347412,2.83886456489563
169,34571,34570,-0.0022297019604593515,0.09814884513616562,1.0196126699447632,3.7424609661102295,-7.754757404327393,-1.223270058631897,1.9829778671264648,3.9947712421417236,0.30664652585983276,-0.9579905271530151,0.3590530455112457,2.836225748062134
170,34581,34580,-0.033574026077985764,-0.05195494741201401,1.0203710794448853,4.1682448387146,-6.638113498687744,-1.271539568901062,1.9831024408340454,3.9963059425354004,0.3063662052154541,-0.8955437541007996,0.4427356421947479,2.839951276779175
171,34591,34590,0.032420892268419266,-0.04828031361103058,1.0309245586395264,2.6586666107177734,-5.165668964385986,-1.1467411518096924,1.9841022491455078,3.9955735206604004,0.31024450063705444,-0.8738865256309509,0.509883463382721,2.8283302783966064
172,34601,34600,-0.041812218725681305,0.12613049149513245,1.0164315700531006,1.0928499698638916,-5.801636219024658,-1.0574599504470825,1.983873724937439,3.995478391647339,0.310404509305954,-0.6784718036651611,0.4750072956085205,2.816997528076172
173,34611,34610,-0.03584733232855797,0.05543386563658714,1.0160243511199951,-1.848501443862915,-3.3245599269866943,-1.0481443405151367,1.983486533164978,3.99633526802063,0.3104586601257324,-0.601214587688446,0.47830185294151306,2.8150429725646973
174,34621,34620,0.0022021725308150053,-0.07760102301836014,1.0268222093582153,-3.669597625732422,-2.54022479057312,-1.520158290863037,1.9851996898651123,3.996825933456421,0.3104749321937561,-0.6983582377433777,0.4378764033317566,2.7924587726593018
175,34631,34630,-0.03405565768480301,-0.11966191232204437,0.9963950514793396,-3.6741538047790527,-3.8887598514556885,-1.8991056680679321,1.9858795404434204,3.9962031841278076,0.3121788799762726,-0.6191564798355103,0.38464051485061646,2.77641224861145
176,34641,34640,-0.02234095148742199,-3.0110424631857313e-05,1.001573085784912,-3.5071637630462646,-0.18525820970535278,-2.357083320617676,1.9871407747268677,3.9963812828063965,0.3123129904270172,-0.6470189690589905,0.3416433036327362,2.752180337905884
177,34651,34650,0.018908198922872543,0.06512691080570221,1.0123313665390015,-0.5065078139305115,-1.453650951385498,-1.8621927499771118,1.9888463020324707,3.995983600616455,0.3124362528324127,-0.6923201084136963,0.32126325368881226,2.7272815704345703
178,34661,34660,-0.01216319389641285,-0.001081168418750167,1.025111436843872,3.062319755554199,-3.790221691131592,-2.0507454872131348,1.9884625673294067,3.9949593544006348,0.31114813685417175,-0.5445011854171753,0.35278764367103577,2.7153148651123047
179,34671,34670,0.009167594835162163,0.022825898602604866,1.0020962953567505,3.8946030139923096,-4.912353992462158,-2.4581072330474854,1.9894448518753052,3.9948434829711914,0.31125545501708984,-0.5376163721084595,0.42010360956192017,2.6944713592529297
180,34681,34680,-0.08584488928318024,0.017921634018421173,1.0567848682403564,3.5208959579467773,-5.573378562927246,-3.119826316833496,1.9897652864456177,3.9940342903137207,0.31142908334732056,-0.4140591323375702,0.4911060631275177,2.6741771697998047
181,34691,34690,-0.021949367597699165,-0.06482221186161041,0.9922345280647278,1.6162564754486084,-4.80402135848999,-2.649923086166382,1.9920473098754883,3.9949862957000732,0.3075058162212372,-0.4632031321525574,0.5415420532226562,2.642486810684204
182,34701,34700,0.024216465651988983,0.0017936889780685306,0.9997407793998718,-0.9677773714065552,-3.49186372756958,-2.8674838542938232,1.9932430982589722,3.996185302734375,0.30743128061294556,-0.4452221095561981,0.47057780623435974,2.615971565246582
183,34711,34710,0.02481045387685299,0.0030240516643971205,1.004892110824585,-3.991621494293213,-2.027402877807617,-2.7431554794311523,1.9937784671783447,3.9955976009368896,0.3074033856391907,-0.3647288978099823,0.43487080931663513,2.580312490463257
184,34721,34720,-0.014886036515235901,-0.022839296609163284,1.0036137104034424,-5.3318610191345215,-2.4390904903411865,-2.046931266784668,1.9940265417099,3.996347427368164,0.30622345209121704,-0.301596999168396,0.36169928312301636,2.5566890239715576
185,34731,34730,0.06405851989984512,-0.021184779703617096,0.9614925384521484,-5.54664945602417,-2.4317455291748047,-2.3819847106933594,1.9948372840881348,3.996439218521118,0.3060336112976074,-0.3220851421356201,0.27395880222320557,2.5225391387939453
186,34741,34740,0.015711558982729912,-0.10012714564800262,1.0172735452651978,-4.117648601531982,-2.8907766342163086,-2.940129280090332,1.9944206476211548,3.9954254627227783,0.30599892139434814,-0.16755962371826172,0.35517793893814087,2.506880760192871
187,34751,34750,0.01135911513119936,0.022478701546788216,1.0326147079467773,-1.1989506483078003,-3.660327672958374,-2.286133289337158,1.9963243007659912,3.994771957397461,0.30576780438423157,-0.2528890073299408,0.3929389715194702,2.463092088699341
188,34761,34760,0.04458555206656456,0.1072637140750885,0.971052348613739,-0.027574066072702408,-4.001430511474609,-2.386751651763916,1.9978665113449097,3.9950673580169678,0.30456748604774475,-0.32313990592956543,0.3700209856033325,2.4215004444122314
189,34771,34770,0.02397182397544384,0.08713509142398834,0.9971615672111511,0.8540001511573792,-1.9480915069580078,-2.1707358360290527,1.9980788230895996,3.994954824447632,0.30435922741889954,-0.30418962240219116,0.3726649880409241,2.4059934616088867
190,34781,34780,0.09167242795228958,0.016044845804572105,1.0080859661102295,-2.621426820755005,-2.7352778911590576,-2.533536911010742,1.9977325201034546,3.994544744491577,0.3042911887168884,-0.15722547471523285,0.3432796597480774,2.387622117996216
191,34791,34790,-0.004413379356265068,-0.040191177278757095,1.0063813924789429,-5.513734817504883,-4.3837456703186035,-2.978743314743042,1.9990200996398926,3.9952735900878906,0.3081151247024536,-0.1422562301158905,0.26962506771087646,2.3600831031799316
192,34801,34800,-0.009435774758458138,0.10170444846153259,0.9808220863342285,-7.921943664550781,-3.9765427112579346,-3.3156681060791016,2.0000507831573486,3.995208501815796,0.30812373757362366,-0.12132356315851212,0.1543450951576233,2.3207995891571045
193,34811,34810,-0.021674269810318947,0.15368615090847015,1.0107232332229614,-9.724068641662598,-2.146509885787964,-4.027613639831543,2.001267194747925,3.9943172931671143,0.30812689661979675,-0.11611621081829071,0.1566387116909027,2.279325246810913
194,34821,34820,0.038645654916763306,0.10514897853136063,0.9848676919937134,-8.620386123657227,-1.3908835649490356,-3.845487117767334,2.0016653537750244,3.9948818683624268,0.30813392996788025,-0.0748366117477417,0.0730019137263298,2.253857135772705
195,34831,34830,0.07296617329120636,0.06047748029232025,0.9875686168670654,-6.9733405113220215,-0.8105480670928955,-4.307267189025879,2.0014350414276123,3.99458909034729,0.3082173764705658,0.019170187413692474,0.012943112291395664,2.2189435958862305
196,34841,34840,-0.08230599761009216,-0.005970288068056107,1.0806195735931396,-4.496802806854248,-2.766512632369995,-4.328437328338623,2.003216505050659,3.9947896003723145,0.3081628680229187,-0.07118723541498184,-0.09353972971439362,2.1714372634887695
197,34851,34850,0.02619558945298195,-0.011920399963855743,1.0387064218521118,-3.817152261734009,-0.46221262216567993,-4.687971115112305,2.0040128231048584,3.9943783283233643,0.308289110660553,0.010143021121621132,-0.16709277033805847,2.1178958415985107
198,34861,34860,0.06855599582195282,-0.09929900616407394,1.011724829673767,-0.41748207807540894,-3.239454507827759,-4.368988513946533,2.0057249069213867,3.9944045543670654,0.3082217872142792,-0.07230173796415329,-0.19430366158485413,2.0598604679107666
199,34871,34870,0.010835266672074795,-0.15767867863178253,1.049930453300476,2.053464651107788,-3.2583041191101074,-3.975142002105713,2.0069565773010254,3.9927990436553955,0.30835479497909546,-0.05665254220366478,-0.09407994896173477,2.0104057788848877
200,34881,34880,0.040502745658159256,-0.15637609362602234,1.0615203380584717,3.52618670463562,-2.225302219390869,-4.5333099365234375,2.00765061378479,3.993417739868164,0.3086525797843933,0.035720765590667725,-0.1335642784833908,1.9714635610580444
201,34891,34890,-0.0020186975598335266,-0.007210000418126583,0.9981791377067566,2.5764544010162354,-2.6797728538513184,-4.557126522064209,2.006375789642334,3.9931530952453613,0.31086981296539307,0.18179187178611755,-0.08582799881696701,1.9216947555541992
202,34901,34900,-0.02777455374598503,-0.0146050825715065,1.0697565078735352,0.026874486356973648,-2.5999915599823,-5.404250621795654,2.009049415588379,3.9924678802490234,0.3112068772315979,0.05756663158535957,-0.07431414723396301,1.861290693283081
203,34911,34910,0.005406344309449196,-0.024301500990986824,1.0074189901351929,-2.3170270919799805,0.2922670245170593,-5.084211826324463,2.0088276863098145,3.9926254749298096,0.3117274045944214,0.17967535555362701,-0.10259542614221573,1.8063119649887085
204,34921,34920,-0.04639100655913353,-0.01911909691989422,1.022534728050232,-4.5115861892700195,1.7615309953689575,-5.090950965881348,2.0104622840881348,3.992608070373535,0.31374770402908325,0.12729841470718384,-0.168251171708107,1.7637203931808472
205,34931,34930,-0.062121808528900146,0.07075967639684677,1.0379045009613037,-4.087121486663818,1.7072056531906128,-4.613972187042236,2.0116944313049316,3.9922826290130615,0.31426572799682617,0.0617162324488163,-0.23798559606075287,1.7089412212371826
206,34941,34940,0.0039180549792945385,-0.0366235189139843,0.9844467043876648,-2.349010705947876,4.318357944488525,-4.442966938018799,2.0125627517700195,3.9925954341888428,0.31488120555877686,0.025664348155260086,-0.28809744119644165,1.6664421558380127
207,34951,34950,0.01900431513786316,-0.05348830297589302,0.9202935099601746,2.088637590408325,1.8645871877670288,-4.537886142730713,2.013275623321533,3.9920706748962402,0.3155396282672882,0.015402689576148987,-0.19405597448349,1.618842601776123
208,34961,34960,-0.006355597171932459,-0.0496024414896965,0.9797093868255615,4.758728504180908,-0.14181958138942719,-4.507973670959473,2.0144827365875244,3.9916293621063232,0.3167567551136017,-0.030341915786266327,-0.1311894953250885,1.573503017425537
209,34971,34970,0.023887531831860542,-0.11770696938037872,0.9689940214157104,5.328025817871094,-3.0395891666412354,-4.319588661193848,2.0154566764831543,3.9921226501464844,0.3173976242542267,0.04421121999621391,-0.12192512303590775,1.5369443893432617
210,34981,34980,-0.0013824098277837038,0.029842104762792587,0.9701769351959229,3.528580904006958,-3.201061964035034,-5.34512996673584,2.0158753395080566,3.990743398666382,0.31795668601989746,0.10291134566068649,-0.054415300488471985,1.4611790180206299
211,34991,34990,0.027411475777626038,-0.09612450003623962,0.956902027130127,1.496261715888977,-5.376529693603516,-5.023610591888428,2.017122268676758,3.9914071559906006,0.3196486234664917,0.06498376280069351,-0.09108661115169525,1.421423077583313
212,35001,35000,0.040260158479213715,-0.09163295477628708,0.9533591270446777,-0.27574479579925537,-5.675893783569336,-5.6351165771484375,2.0178568363189697,3.9912455081939697,0.32025644183158875,0.16361235082149506,-0.08923365920782089,1.3619939088821411
213,35011,35010,-0.026299813762307167,-0.0003771275805775076,1.011311411857605,-2.85783314704895,-3.988403797149658,-6.670372486114502,2.0183589458465576,3.9917147159576416,0.3208352327346802,0.2696141302585602,-0.1222635805606842,1.306066632270813
214,35021,35020,0.00719030387699604,-0.011247246526181698,0.9544326663017273,-3.676222562789917,0.4557896554470062,-5.636203765869141,2.0185110569000244,3.9911766052246094,0.3225451111793518,0.31869885325431824,-0.09379478543996811,1.2422871589660645
215,35031,35030,0.0967596173286438,-0.10573635250329971,0.9288933277130127,-0.5028616189956665,0.04402562603354454,-5.417705535888672,2.021121025085449,3.9931795597076416,0.3230682611465454,0.17293384671211243,-0.12211041152477264,1.2208657264709473
216,35041,35040,0.04448641836643219,-0.0576263926923275,0.9123976826667786,1.4448926448822021,0.25484275817871094,-4.837806701660156,2.020965099334717,3.993303060531616,0.32368484139442444,0.27411773800849915,-0.10764562338590622,1.1689143180847168
217,35051,35050,0.031093670055270195,-0.07384682446718216,0.9051501154899597,3.7967188358306885,-0.8068080544471741,-4.015495300292969,2.0226664543151855,3.992933511734009,0.3227671682834625,0.2241787165403366,-0.055519480258226395,1.1185920238494873
218,35061,35060,0.022106902673840523,-0.08388334512710571,0.9512726068496704,3.882028818130493,-0.6102151870727539,-3.776663303375244,2.0238263607025146,3.9934122562408447,0.3230198621749878,0.18306031823158264,-0.06888110935688019,1.0822089910507202
219,35071,35070,0.01906060427427292,-0.013688413426280022,0.9902693033218384,3.9173200130462646,-0.849669337272644,-3.4046292304992676,2.02439284324646,3.993375301361084,0.32322609424591064,0.21876023709774017,-0.07462972402572632,1.0383902788162231
220,35081,35080,0.03845386207103729,-0.012067331932485104,0.9501775503158569,3.943620443344116,-2.2401530742645264,-3.6064326763153076,2.0247714519500732,3.9942421913146973,0.32350876927375793,0.3358297646045685,-0.004040535539388657,1.0214061737060547
221,35091,35090,0.051564738154411316,-0.14530716836452484,0.9576321840286255,3.0376734733581543,-1.2904353141784668,-3.7142715454101562,2.0252575874328613,3.9949891567230225,0.31995755434036255,0.3766728937625885,-0.019672121852636337,0.9930030703544617
222,35101,35100,0.01675025187432766,-0.11946643143892288,0.9976006150245667,2.594569444656372,1.2585787773132324,-4.437697887420654,2.026637077331543,3.9949891567230225,0.31974565982818604,0.23198695480823517,0.036374758929014206,0.9698559641838074
223,35111,35110,0.0008426318527199328,0.023021897301077843,0.951391339302063,2.582531213760376,5.044614791870117,-4.809572696685791,2.027053117752075,3.9950413703918457,0.319668173789978,0.2587548494338989,0.08034685999155045,0.9180461168289185
224,35121,35120,0.04868432879447937,-0.0735325813293457,0.9217332005500793,3.2575762271881104,7.41330099105835,-4.194178581237793,2.0283117294311523,3.9943082332611084,0.31695109605789185,0.161149263381958,0.1426561176776886,0.8598814010620117
225,35131,35130,-0.005551902577280998,0.004153021145612001,0.9960887432098389,2.1886093616485596,9.02155876159668,-4.200449466705322,2.0293726921081543,3.9933900833129883,0.31651240587234497,0.043837860226631165,0.19034385681152344,0.7966055274009705
226,35141,35140,0.03751147910952568,-0.03851193189620972,0.9473528861999512,1.6676418781280518,8.719579696655273,-4.40247917175293,2.029433488845825,3.9938621520996094,0.3161199390888214,-0.002290532924234867,0.22150562703609467,0.7705347537994385
227,35151,35150,0.03054874762892723,-0.05863857641816139,0.9571810364723206,0.22051814198493958,6.415314674377441,-4.4846954345703125,2.0295519828796387,3.9943556785583496,0.3171057403087616,-0.031489405781030655,0.15179400146007538,0.7354980111122131
228,35161,35160,-0.010441436432301998,0.04371467977762222,0.989732563495636,1.0070991516113281,3.9556853771209717,-4.027495861053467,2.0303735733032227,3.994535446166992,0.3166721761226654,-0.08893851190805435,0.17442651093006134,0.6917076706886292
229,35171,35170,-0.05400477722287178,0.10459534823894501,0.9748863577842712,2.1346354484558105,1.9607220888137817,-3.9100093841552734,2.0307376384735107,3.9934141635894775,0.3161953091621399,-0.031142769381403923,0.2088458091020584,0.6256949305534363
230,35181,35180,-0.051421307027339935,0.10399937629699707,0.9838144183158875,1.6405112743377686,2.0502829551696777,-3.7431480884552,2.0307912826538086,3.993232250213623,0.31579965353012085,-0.13767613470554352,0.24354100227355957,0.5799705386161804
231,35191,35190,-0.01638401858508587,0.04943035915493965,0.989845871925354,0.37278494238853455,1.8475313186645508,-3.9486522674560547,2.032482624053955,3.9927258491516113,0.3141039311885834,-0.06832578033208847,0.2551373541355133,0.5425856709480286
232,35201,35200,0.0012281833915039897,0.006463206373155117,1.000752568244934,-0.8347365260124207,2.4708807468414307,-4.244820594787598,2.0321741104125977,3.9929003715515137,0.3135829269886017,-0.1047283411026001,0.24308131635189056,0.5080833435058594
233,35211,35210,0.06476201862096786,-0.12242904305458069,0.9964110255241394,0.7740886807441711,0.5000972747802734,-5.064319610595703,2.0326831340789795,3.992805004119873,0.3129943013191223,-0.19436025619506836,0.24769146740436554,0.46011966466903687
234,35221,35220,-0.016321390867233276,-0.1464308202266693,1.0622352361679077,2.987210273742676,0.8498291969299316,-6.331674575805664,2.034309148788452,3.993467330932617,0.3142431080341339,-0.18285873532295227,0.20435255765914917,0.4266158938407898
235,35231,35230,0.02443973533809185,-0.1274091899394989,1.0382040739059448,4.350919246673584,0.3231767416000366,-6.863076210021973,2.034980535507202,3.9939827919006348,0.3138032853603363,-0.09740863740444183,0.2728646993637085,0.3439824879169464
236,35241,35240,0.029709000140428543,0.03766527399420738,0.992950975894928,4.857589244842529,-1.2993590831756592,-6.926846504211426,2.0356926918029785,3.992838144302368,0.3134397268295288,-0.16472530364990234,0.43025264143943787,0.2818607687950134
237,35251,35250,-0.018083985894918442,-0.142081156373024,1.074871301651001,4.619134426116943,0.5219584703445435,-6.757668495178223,2.036344051361084,3.9917685985565186,0.313352108001709,-0.14141885936260223,0.4161432981491089,0.1939893513917923
238,35261,35260,0.012506083585321903,-0.05587884783744812,1.0171722173690796,1.679067850112915,2.7468411922454834,-6.197587966918945,2.0371344089508057,3.9920578002929688,0.31304723024368286,-0.08672188222408295,0.37216073274612427,0.1362573504447937
239,35271,35270,-0.019006824120879173,-0.051361843943595886,1.0344254970550537,0.3390551805496216,5.030416965484619,-6.287458419799805,2.037116050720215,3.9919703006744385,0.3128334879875183,-0.15218700468540192,0.38202178478240967,0.04696803167462349
