,timestamp_start,timestamp_end,acc.x,acc.y,acc.z,gyro.x,gyro.y,gyro.z,stateEstimate.x,stateEstimate.y,stateEstimate.z,stabilizer.pitch,stabilizer.roll,stabilizer.yaw
0,39922,39921,0.0075782486237585545,-0.030396567657589912,1.059971809387207,-3.8875584602355957,2.441277503967285,-1.634592890739441,2.0843000411987305,4.007049560546875,0.16518859565258026,1.1182678937911987,-0.37339556217193604,2.1027324199676514
1,39932,39931,0.0026864123065024614,0.001861294498667121,1.0781092643737793,-6.850044250488281,-0.17169605195522308,-1.7372092008590698,2.0836775302886963,4.008602142333984,0.16800923645496368,1.1732350587844849,-0.5805273056030273,2.1139557361602783
2,39942,39941,0.014805720187723637,-0.089566171169281,1.0741183757781982,-8.911916732788086,-1.399923324584961,-2.4491846561431885,2.0831775665283203,4.00823450088501,0.17030490934848785,1.162153959274292,-0.6936224699020386,2.097597360610962
3,39952,39951,0.010107286274433136,-0.0009018278797157109,1.099732756614685,-8.486215591430664,-1.8537369966506958,-2.41705322265625,2.082628011703491,4.009192943572998,0.1728331595659256,1.31781005859375,-0.8511539697647095,2.076967239379883
4,39962,39961,0.007228590082377195,-0.031926944851875305,1.0463435649871826,-4.428861618041992,-2.70721697807312,-2.8195087909698486,2.082507371902466,4.00616979598999,0.17422963678836823,1.3033242225646973,-0.39679741859436035,1.9649686813354492
5,39972,39971,0.029890550300478935,-0.007467364892363548,1.072904348373413,-2.6778297424316406,-0.6203840970993042,-2.0040180683135986,2.0827205181121826,4.005466938018799,0.17985950410366058,1.2864664793014526,-0.6120672225952148,1.9749890565872192
6,39982,39981,0.010940947569906712,-0.023451654240489006,1.0407981872558594,-4.626939296722412,2.6443982124328613,-2.108252763748169,2.08274507522583,4.005439758300781,0.17986202239990234,1.3012292385101318,-0.649013340473175,1.9545142650604248
7,39992,39991,0.01605554111301899,-0.01906394027173519,1.0306081771850586,-6.844213962554932,4.701634407043457,-2.349015235900879,2.082667827606201,4.005661487579346,0.18182291090488434,1.2536869049072266,-0.8699080348014832,1.9538675546646118
8,40002,40001,0.007619976531714201,-0.024434253573417664,1.0035455226898193,-7.736453533172607,6.477846145629883,-2.678004741668701,2.0829477310180664,4.005889892578125,0.18478016555309296,1.2342817783355713,-1.0182839632034302,1.978659987449646
9,40012,40011,-0.006285686511546373,-0.00298879062756896,1.0397011041641235,-7.257157325744629,6.278049945831299,-3.0971999168395996,2.082803726196289,4.005736827850342,0.1878020018339157,1.1455353498458862,-1.0035287141799927,1.9366400241851807
10,40022,40021,0.03741680458188057,-0.05191005766391754,0.9557874202728271,-3.7773733139038086,6.573329448699951,-3.0944550037384033,2.083075523376465,4.007460117340088,0.18896636366844177,1.0599323511123657,-1.1979373693466187,1.9245606660842896
11,40032,40031,-0.024963228031992912,-0.02174774371087551,1.0018079280853271,-0.15371978282928467,5.203631401062012,-3.543382406234741,2.0841867923736572,4.009044647216797,0.19142909348011017,0.7025531530380249,-1.4694777727127075,1.9511181116104126
12,40042,40041,0.010685455985367298,-0.15898540616035461,0.9943240284919739,3.3119242191314697,1.5501108169555664,-3.6801023483276367,2.082731008529663,4.009931564331055,0.19414514303207397,0.9213991761207581,-1.6439242362976074,1.9040350914001465
13,40052,40051,0.0025390225928276777,-0.013728262856602669,1.020861029624939,8.315592765808105,0.6400967240333557,-3.338639974594116,2.091702461242676,4.020025730133057,0.19413146376609802,-0.5354383587837219,-2.6699471473693848,2.1633105278015137
14,40062,40061,0.008550937287509441,0.011197448708117008,1.0155991315841675,18.966327667236328,-3.250643730163574,-5.18315315246582,2.090285301208496,4.019104957580566,0.1998898983001709,-0.27078789472579956,-2.4064884185791016,2.0664100646972656
15,40072,40071,0.028194576501846313,-0.0071685644797980785,0.9860236048698425,30.53280258178711,-13.250057220458984,-4.643020153045654,2.090282440185547,4.020383358001709,0.20498184859752655,-0.03478223830461502,-1.947052001953125,1.9677503108978271
16,40082,40081,0.016329841688275337,0.012796768918633461,1.0305758714675903,38.416839599609375,-21.83979606628418,-3.7456154823303223,2.08857798576355,4.021007537841797,0.20872783660888672,0.33547016978263855,-1.6317487955093384,1.8642421960830688
17,40092,40091,0.021391626447439194,-0.06702744960784912,0.9197455048561096,38.56747055053711,-27.29796028137207,-3.1189210414886475,2.0876986980438232,4.0207839012146,0.20873017609119415,0.73085618019104,-0.8970295190811157,1.7920771837234497
18,40102,40101,-0.003959169611334801,-0.05564531683921814,0.9393467307090759,32.685977935791016,-25.834186553955078,-2.88843035697937,2.0892598628997803,4.022373676300049,0.21141697466373444,0.8725293278694153,-0.4977743923664093,1.7833459377288818
19,40112,40111,-0.005831011570990086,-0.03581930696964264,0.9731893539428711,20.100656509399414,-18.351886749267578,-2.9110219478607178,2.0879321098327637,4.0240092277526855,0.2140665054321289,1.3027396202087402,-0.2111274003982544,1.7278685569763184
20,40122,40121,0.014797686599195004,-0.0267729964107275,0.9509087204933167,9.350720405578613,-10.968485832214355,-3.0962750911712646,2.087693929672241,4.026550769805908,0.21533861756324768,1.6765574216842651,-0.031617097556591034,1.6789472103118896
21,40132,40131,-0.062472425401210785,-0.2074717879295349,0.979393482208252,-2.094028949737549,0.2190687358379364,-3.389993190765381,2.087026357650757,4.025662422180176,0.21776463091373444,1.8254969120025635,0.1861267387866974,1.6407023668289185
22,40142,40141,-0.0028812135569751263,0.0850883349776268,0.9744314551353455,-7.338054656982422,10.872282028198242,-3.318103075027466,2.086858034133911,4.02863883972168,0.22013209760189056,1.9258335828781128,0.0695214793086052,1.6161019802093506
23,40152,40151,0.03270978108048439,0.028083637356758118,0.9093835353851318,-9.007323265075684,15.990490913391113,-4.113129615783691,2.0857975482940674,4.029567718505859,0.22234439849853516,1.99515962600708,0.03144203498959541,1.5687164068222046
24,40162,40161,0.05338742211461067,-0.016286367550492287,0.9113109111785889,-4.820854187011719,17.28294563293457,-3.8279991149902344,2.084995746612549,4.030575752258301,0.2236720621585846,1.878746509552002,0.05246734246611595,1.51951265335083
25,40172,40171,0.023145273327827454,0.002815737621858716,0.9597586393356323,1.0322322845458984,16.128097534179688,-3.435575246810913,2.082876205444336,4.029491901397705,0.2258678376674652,1.7337571382522583,0.12082196772098541,1.4631656408309937
26,40182,40181,0.03920650854706764,-0.029783092439174652,0.9575072526931763,6.589000701904297,14.26607894897461,-2.8568155765533447,2.083510160446167,4.02976655960083,0.22824163734912872,1.3676841259002686,0.1897556632757187,1.4224598407745361
27,40192,40191,0.020682379603385925,-0.03783116862177849,0.9536304473876953,10.272706985473633,9.924707412719727,-3.069042921066284,2.0826237201690674,4.031466007232666,0.22918272018432617,1.2848042249679565,0.18731985986232758,1.3995025157928467
28,40202,40201,0.02096213959157467,-0.04296722635626793,0.8990263342857361,10.820749282836914,4.758652687072754,-3.2716164588928223,2.080508232116699,4.0319504737854,0.23125487565994263,1.09442937374115,-0.06099442020058632,1.4110652208328247
29,40212,40211,0.037683404982089996,-0.0122184157371521,0.9420132040977478,9.230271339416504,5.438772201538086,-2.9573652744293213,2.093625783920288,4.036236763000488,0.2330608367919922,-0.7490833401679993,-0.2540498673915863,1.394570231437683
30,40222,40221,0.05380889028310776,-0.04116077348589897,0.9647029042243958,9.576066970825195,-4.627504348754883,-2.12965726852417,2.092989206314087,4.0359625816345215,0.23832327127456665,-0.5744703412055969,-0.0465708002448082,1.3587706089019775
31,40232,40231,-0.0008084973087534308,-0.029218481853604317,0.9509382247924805,11.439509391784668,-17.556049346923828,-1.7466598749160767,2.0917367935180664,4.035887718200684,0.2413598895072937,-0.2946590781211853,0.15305638313293457,1.3361175060272217
32,40242,40241,0.00877371896058321,-0.0246063731610775,0.9522867798805237,12.056686401367188,-30.540042877197266,-1.571746587753296,2.0880110263824463,4.035419464111328,0.24458152055740356,0.253069132566452,0.4413745105266571,1.32308828830719
33,40252,40251,-0.0021454899106174707,-0.03094739280641079,0.9680580496788025,11.444918632507324,-37.633880615234375,-1.2614786624908447,2.085954427719116,4.03513765335083,0.2469877153635025,0.8027465343475342,0.6397918462753296,1.3166528940200806
34,40262,40261,-0.00919625535607338,0.0004369255038909614,0.9786365032196045,8.195510864257812,-35.54004669189453,-1.237100601196289,2.0850603580474854,4.036226749420166,0.24792633950710297,1.3503191471099854,0.8093549609184265,1.3128677606582642
35,40272,40271,0.0276592206209898,-0.1329062283039093,0.9664392471313477,4.445066452026367,-27.2677001953125,-1.418665885925293,2.0852885246276855,4.038572311401367,0.24971535801887512,1.8345940113067627,1.0005897283554077,1.3130921125411987
36,40282,40281,0.051393043249845505,-0.19642049074172974,0.9519808292388916,-0.7673614025115967,-8.565330505371094,-2.1208620071411133,2.0842998027801514,4.040463924407959,0.25133320689201355,2.282804250717163,1.1082178354263306,1.311388611793518
37,40292,40291,0.019243840128183365,-0.029681354761123657,0.9625464081764221,-5.330896854400635,5.692142963409424,-2.7568917274475098,2.0847837924957275,4.042509078979492,0.25262773036956787,2.4265544414520264,1.1208492517471313,1.2962443828582764
38,40302,40301,0.026623118668794632,0.0163666233420372,0.9396530389785767,-8.594938278198242,23.340421676635742,-3.3933072090148926,2.0858521461486816,4.043735980987549,0.25447264313697815,2.307786464691162,1.1334435939788818,1.2531014680862427
39,40312,40311,0.06689069420099258,-0.07442724704742432,0.8467870950698853,-9.54415225982666,27.816913604736328,-2.6801328659057617,2.082129955291748,4.043935775756836,0.2556276023387909,2.5727479457855225,1.161774754524231,1.2726101875305176
40,40322,40321,0.048550501465797424,-0.06135063245892525,0.9070419669151306,-10.50008773803711,31.491615295410156,-3.015666961669922,2.084259033203125,4.0483927726745605,0.2572672963142395,2.066633462905884,0.8485749959945679,1.2543612718582153
41,40332,40331,0.015322834253311157,-0.07700061798095703,0.9941620230674744,-8.245287895202637,26.65516471862793,-2.6535496711730957,2.0853617191314697,4.045030117034912,0.25884944200515747,1.6262935400009155,1.1643000841140747,1.140069842338562
42,40342,40341,0.04358001798391342,-0.07655870169401169,0.942342221736908,-5.414259433746338,21.370223999023438,-2.2774996757507324,2.0802998542785645,4.046770095825195,0.26014605164527893,1.9204230308532715,1.0082073211669922,1.2181960344314575
43,40352,40351,0.043355368077754974,-0.03860488161444664,0.9297706484794617,-3.0493991374969482,13.326332092285156,-2.7400853633880615,2.0800883769989014,4.0463175773620605,0.2614605724811554,1.5819231271743774,0.9043231010437012,1.1891587972640991
44,40362,40361,0.004856510553508997,-0.05756266787648201,0.9850872755050659,-3.3283302783966064,5.770565032958984,-2.446361780166626,2.078557252883911,4.047353744506836,0.262531042098999,1.6062077283859253,0.9842081069946289,1.1755973100662231
45,40372,40371,0.057285431772470474,-0.025922557339072227,0.9573084115982056,-4.652505397796631,4.869278430938721,-1.976203441619873,2.077240228652954,4.0482306480407715,0.2637907862663269,1.5557861328125,0.897518515586853,1.1640065908432007
46,40382,40381,0.021751469001173973,-0.0209976676851511,0.965720534324646,-6.728240489959717,5.144025802612305,-1.5503153800964355,2.075895071029663,4.049193382263184,0.2651260197162628,1.4442652463912964,0.8701587915420532,1.135664939880371
47,40392,40391,0.04949989169836044,-0.01309243030846119,0.9676949381828308,-8.618101119995117,11.063101768493652,-2.053675413131714,2.07218599319458,4.049751281738281,0.2675665020942688,1.6764793395996094,0.8035817742347717,1.1655328273773193
48,40402,40401,-0.035730406641960144,0.049126651138067245,0.9428645968437195,-12.104410171508789,16.611005783081055,-2.3438479900360107,2.0706193447113037,4.048875331878662,0.268949955701828,1.4984358549118042,0.7718173265457153,1.1259171962738037
49,40412,40411,-0.04636196419596672,0.1038627028465271,0.950289249420166,-12.201845169067383,22.61359977722168,-1.7892874479293823,2.069648265838623,4.049138069152832,0.2703464925289154,1.2344226837158203,0.6202654242515564,1.091086745262146
50,40422,40421,-0.03395005315542221,0.143703430891037,0.9864202737808228,-11.957296371459961,26.60269546508789,-1.6395325660705566,2.0661022663116455,4.047947406768799,0.27042466402053833,1.263074517250061,0.6080487966537476,1.0963177680969238
51,40432,40431,-0.008308188058435917,0.031249938532710075,0.977878987789154,-9.890474319458008,27.114635467529297,-1.724703311920166,2.0650272369384766,4.047516822814941,0.27166301012039185,0.9018586874008179,0.4455147981643677,1.070746660232544
52,40442,40441,0.007864754647016525,0.01443304680287838,1.0067851543426514,-8.699115753173828,25.181358337402344,-1.7714612483978271,2.0621955394744873,4.047678470611572,0.2725178003311157,0.7742713093757629,0.46249523758888245,1.0613526105880737
53,40452,40451,-0.005518091376870871,0.002555395243689418,1.0388182401657104,-7.897304058074951,22.486751556396484,-1.8240517377853394,2.0610849857330322,4.048122882843018,0.27420032024383545,0.4194519519805908,0.328689843416214,1.0386883020401
54,40462,40461,-0.009192041121423244,-0.005422499030828476,0.9957275390625,-7.338143825531006,20.03896713256836,-1.792288899421692,2.059887647628784,4.050804615020752,0.2753462493419647,0.13289140164852142,0.2208031862974167,1.0175743103027344
55,40472,40471,0.008375602774322033,-0.07943831384181976,0.9842084646224976,-8.041258811950684,17.069351196289062,-1.8989431858062744,2.056338310241699,4.050594329833984,0.27641433477401733,0.1080220490694046,0.10946699231863022,1.0248820781707764
56,40482,40481,0.0029856343753635883,-0.020277855917811394,0.9885619878768921,-8.22262954711914,15.462933540344238,-1.8981443643569946,2.054521322250366,4.051648139953613,0.27753880620002747,-0.0991370677947998,0.0011019223602488637,1.003875494003296
57,40492,40491,0.03469788283109665,-0.005300549324601889,0.9199977517127991,-7.940478801727295,14.502971649169922,-1.7954599857330322,2.054457902908325,4.051729202270508,0.27995580434799194,-0.43383321166038513,-0.02925284206867218,0.967530369758606
58,40502,40501,0.03610813245177269,-0.04177701845765114,0.9336515665054321,-6.570467472076416,12.35783863067627,-1.4374343156814575,2.0507988929748535,4.051638126373291,0.280958354473114,-0.3456353545188904,-0.12766779959201813,0.9692403078079224
59,40512,40511,0.07898780703544617,0.01010780781507492,0.9149079918861389,-4.826961040496826,12.8912935256958,-1.7496678829193115,2.0507564544677734,4.052700519561768,0.2821347713470459,-0.5858427286148071,-0.20590442419052124,0.9449244737625122
60,40522,40521,0.10188800096511841,0.02346293441951275,0.9189932346343994,-4.368116855621338,13.10022258758545,-1.5413262844085693,2.051201581954956,4.052103042602539,0.2852616608142853,-0.9068149328231812,-0.260854572057724,0.914401650428772
61,40532,40531,0.05993814393877983,-0.010418635793030262,0.9446667432785034,-4.288290500640869,11.47718334197998,-1.2428942918777466,2.0479118824005127,4.051891326904297,0.28623414039611816,-0.8018834590911865,-0.2271115928888321,0.9181643724441528
62,40542,40541,0.029308484867215157,-0.030044319108128548,0.9546388387680054,-4.705397605895996,10.352746963500977,-1.0731393098831177,2.0480520725250244,4.053481578826904,0.2873621881008148,-1.0642597675323486,-0.35070669651031494,0.8887022733688354
63,40552,40551,-0.04914136603474617,-0.02927936054766178,0.994943380355835,-6.50000524520874,10.599762916564941,-0.9454583525657654,2.0470662117004395,4.053348064422607,0.2892063856124878,-1.2226284742355347,-0.3317171037197113,0.8857908844947815
64,40562,40561,-0.0053358012810349464,-0.015344258397817612,0.9834930896759033,-7.017212867736816,10.251358985900879,-0.5472455620765686,2.0436625480651855,4.056173324584961,0.29014578461647034,-1.1502472162246704,-0.4881436228752136,0.8620958924293518
65,40572,40571,-0.0020159012638032436,0.00815972127020359,0.957807719707489,-6.933444023132324,6.758395195007324,-0.9959626793861389,2.0428659915924072,4.0560302734375,0.29112473130226135,-1.2866960763931274,-0.5658780336380005,0.8515260219573975
66,40582,40581,-0.00729273771867156,-0.02151828445494175,0.9658079147338867,-4.512698173522949,6.691773414611816,-1.1987537145614624,2.0432398319244385,4.057119846343994,0.2921655774116516,-1.5337252616882324,-0.5602779388427734,0.8559296131134033
67,40592,40591,-0.013842216692864895,-0.030121473595499992,0.9816682934761047,-2.805929660797119,6.8999528884887695,-0.9408499002456665,2.04056978225708,4.056028366088867,0.2932637333869934,-1.4513895511627197,-0.5258165597915649,0.8603806495666504
68,40602,40601,0.00886104628443718,-0.027228709310293198,0.9792831540107727,-1.2273859977722168,4.749485969543457,-0.8194218873977661,2.039496421813965,4.058140754699707,0.2942051291465759,-1.5813194513320923,-0.6204151511192322,0.8363498449325562
69,40612,40611,0.03474446386098862,-0.03668181598186493,0.9655629396438599,-1.2136000394821167,2.1582753658294678,-0.27622660994529724,2.0382704734802246,4.0604047775268555,0.29504790902137756,-1.5991411209106445,-0.6133239269256592,0.8362396359443665
70,40622,40621,-0.010236609727144241,0.0380832776427269,0.9435690641403198,-1.2070971727371216,3.472132682800293,-1.158748984336853,2.036900758743286,4.060877799987793,0.29545626044273376,-1.5397257804870605,-0.6760818362236023,0.8149726390838623
71,40632,40631,-0.041803039610385895,0.055826783180236816,0.9779538512229919,-1.4046334028244019,2.6449766159057617,-1.0395405292510986,2.035663604736328,4.061575889587402,0.29627707600593567,-1.636720895767212,-0.7301406264305115,0.7922039031982422
72,40642,40641,0.0062463534995913506,-0.10977233946323395,1.0335443019866943,-1.204256296157837,3.681222438812256,-0.6956095695495605,2.035127639770508,4.06235408782959,0.29706478118896484,-1.7164355516433716,-0.711053192615509,0.7957843542098999
73,40652,40651,0.051732633262872696,-0.20375970005989075,0.9959802031517029,0.06056911125779152,5.708505153656006,-1.1537961959838867,2.0330824851989746,4.061939239501953,0.2949962019920349,-1.6661376953125,-0.6860023140907288,0.7952606678009033
74,40662,40661,0.031229129061102867,-0.08489659428596497,0.9479982852935791,0.6027283668518066,5.3282551765441895,-1.8421964645385742,2.033724546432495,4.063540458679199,0.295667439699173,-1.8675307035446167,-0.7228918671607971,0.7807218432426453
75,40672,40671,0.007034905720502138,0.006408745888620615,0.948644757270813,-0.5114462971687317,4.744534969329834,-1.6025309562683105,2.03228759765625,4.06231689453125,0.29624244570732117,-1.9084960222244263,-0.6769797801971436,0.7777283191680908
76,40682,40681,0.030693786218762398,-0.0009408970945514739,0.9075650572776794,0.31199970841407776,1.7775698900222778,-1.5447173118591309,2.0327253341674805,4.064769268035889,0.29917505383491516,-2.013768434524536,-0.7172389030456543,0.7507995367050171
77,40692,40691,0.05103755742311478,0.09238975495100021,0.8777406215667725,1.12062406539917,-0.5072370171546936,-1.3517507314682007,2.0314857959747314,4.066211700439453,0.2998519837856293,-2.065869092941284,-0.7380971312522888,0.7283768653869629
78,40702,40701,-0.0036031322088092566,0.049973201006650925,0.9581871628761292,0.24103155732154846,-5.306623458862305,-0.7037195563316345,2.0304982662200928,4.066071033477783,0.3003515303134918,-2.0954694747924805,-0.7522969841957092,0.7100301384925842
79,40712,40711,0.014293898828327656,0.09722878783941269,0.9147586226463318,0.7884505391120911,-9.445576667785645,-0.18493887782096863,2.02915096282959,4.065748691558838,0.300756573677063,-1.9886120557785034,-0.7650733590126038,0.691642701625824
80,40722,40721,0.016799848526716232,-0.09663234651088715,0.9751406311988831,1.7465770244598389,-14.205467224121094,0.6624385118484497,2.028500556945801,4.065871238708496,0.29971805214881897,-1.905195951461792,-0.6838410496711731,0.7161431312561035
81,40732,40731,-0.025255508720874786,-0.11251857131719589,1.0490152835845947,2.571499824523926,-8.325798034667969,0.31019869446754456,2.0278148651123047,4.066880226135254,0.299936443567276,-1.7856802940368652,-0.6717010140419006,0.7164974212646484
82,40742,40741,-0.050999246537685394,-0.11677908897399902,1.0542842149734497,2.169121503829956,-6.9949631690979,0.760326623916626,2.0270724296569824,4.06751012802124,0.3001580536365509,-1.688591718673706,-0.6565963625907898,0.7166222929954529
83,40752,40751,-0.02894238568842411,-0.20111699402332306,1.0263311862945557,1.8095073699951172,-5.143362045288086,1.1087491512298584,2.0258913040161133,4.068962574005127,0.29810190200805664,-1.6121585369110107,-0.6462097764015198,0.7215397357940674
84,40762,40761,-0.009507509879767895,-0.05961472541093826,1.013286828994751,2.0108730792999268,1.772512435913086,0.5269304513931274,2.0249433517456055,4.072315216064453,0.2982698082923889,-1.521618127822876,-0.6339350938796997,0.7197825908660889
85,40772,40771,-8.280673682747874e-06,0.08255273103713989,1.0307563543319702,0.5702489018440247,-0.30856838822364807,1.1504877805709839,2.0253612995147705,4.072054862976074,0.29851192235946655,-1.6439751386642456,-0.624575138092041,0.7330201268196106
86,40782,40781,0.05441471189260483,-0.003514904761686921,0.9417265057563782,0.8311084508895874,-1.0231364965438843,0.8984299302101135,2.024439573287964,4.074788570404053,0.29844745993614197,-1.5977123975753784,-0.7027422785758972,0.7093895077705383
87,40792,40791,0.01624268665909767,-0.023662755265831947,0.9789372682571411,1.1856178045272827,-4.177008152008057,1.2421897649765015,2.0242223739624023,4.073646068572998,0.29861781001091003,-1.604801893234253,-0.6176110506057739,0.7486831545829773
88,40802,40801,0.0537131167948246,0.010710479691624641,1.0062648057937622,2.533998489379883,-5.988924026489258,1.1592366695404053,2.024200201034546,4.073504447937012,0.2987934350967407,-1.587315320968628,-0.6002114415168762,0.7648330926895142
89,40812,40811,-0.0252083670347929,-0.01784265786409378,0.9964537620544434,2.777294158935547,-11.607142448425293,2.213245153427124,2.0243518352508545,4.073812484741211,0.2989250421524048,-1.578424096107483,-0.5683673620223999,0.7810179591178894
90,40822,40821,-0.03843517601490021,-0.0002688769018277526,0.9999303221702576,3.2055211067199707,-8.223386764526367,2.5032801628112793,2.0236055850982666,4.074476718902588,0.2993983328342438,-1.4466975927352905,-0.6045871376991272,0.7773139476776123
91,40832,40831,-0.030307799577713013,0.014386079274117947,0.9962658286094666,4.575227737426758,-8.552937507629395,2.891730785369873,2.0226550102233887,4.076425552368164,0.2995748519897461,-1.327039361000061,-0.5386706590652466,0.801387369632721
92,40842,40841,-0.056714653968811035,0.08445221185684204,1.008156418800354,4.122143268585205,-8.247919082641602,4.0887298583984375,2.022705078125,4.077611446380615,0.2997737526893616,-1.2027887105941772,-0.4667665660381317,0.8365627527236938
93,40852,40851,0.027848532423377037,-0.09277157485485077,0.994179904460907,3.4722464084625244,-5.7060747146606445,4.158236026763916,2.0222742557525635,4.07702112197876,0.3010076582431793,-1.176998257637024,-0.4038795232772827,0.8857347965240479
94,40862,40861,0.015212411060929298,-0.04340953752398491,1.0356628894805908,2.8650245666503906,-5.06924295425415,4.626980781555176,2.022507667541504,4.07859468460083,0.3012646436691284,-1.10347318649292,-0.3533191680908203,0.9306353330612183
95,40872,40871,0.030667493119835854,-0.18488650023937225,1.0303168296813965,1.7865229845046997,-5.041837215423584,4.8151984214782715,2.0226356983184814,4.078277111053467,0.301521897315979,-1.100965142250061,-0.32171720266342163,0.9810131788253784
96,40882,40881,0.020250843837857246,-0.11759258806705475,1.009839653968811,2.2123656272888184,-4.419312000274658,5.268420696258545,2.0236692428588867,4.080760955810547,0.30155548453330994,-1.1057122945785522,-0.2981991469860077,1.0348739624023438
97,40892,40891,-0.014738352037966251,-0.015512608923017979,1.057946801185608,2.5554938316345215,-7.396515846252441,6.057926177978516,2.0225181579589844,4.080501079559326,0.3018897771835327,-0.9558695554733276,-0.2639780640602112,1.0827263593673706
98,40902,40901,-1.4681400898552965e-05,-0.022688543424010277,1.0259196758270264,2.783597469329834,-3.1239960193634033,6.080210208892822,2.0227572917938232,4.082973003387451,0.30231305956840515,-0.9737861156463623,-0.3815653622150421,1.1150825023651123
99,40912,40911,0.04388327896595001,-0.08835246413946152,1.0391305685043335,3.109354019165039,-4.9014668464660645,6.879610061645508,2.022678852081299,4.0845842361450195,0.302738755941391,-0.9212865233421326,-0.3300418257713318,1.1836204528808594
100,40922,40921,0.019004855304956436,-0.10212906450033188,1.0753425359725952,4.051930904388428,-7.157114505767822,6.358644008636475,2.022418260574341,4.085031986236572,0.3050749897956848,-0.8878422975540161,-0.26365017890930176,1.255622386932373
101,40932,40931,-0.042089905589818954,-0.004147981759160757,1.066062569618225,6.332883834838867,-6.535701751708984,6.805128574371338,2.021454334259033,4.085801601409912,0.3056619167327881,-0.7506778836250305,-0.16579212248325348,1.3214186429977417
102,40942,40941,-0.0028744114097207785,0.09368868172168732,0.9547379016876221,6.932046890258789,-5.254739761352539,6.327517986297607,2.0212645530700684,4.085977077484131,0.30637288093566895,-0.7308565378189087,-0.13339100778102875,1.3847861289978027
103,40952,40951,-0.0008578445413149893,0.14409774541854858,0.9793869853019714,6.417324066162109,-1.465038537979126,6.138372898101807,2.0189096927642822,4.087558746337891,0.3044244050979614,-0.6367461681365967,-0.10030551254749298,1.4337350130081177
104,40962,40961,0.06452679634094238,0.10489541292190552,0.9515312910079956,3.953450918197632,-3.7433788776397705,6.167994976043701,2.0195765495300293,4.088327407836914,0.30489787459373474,-0.6924043297767639,-0.07479774206876755,1.4909396171569824
105,40972,40971,-0.01482592336833477,0.028039945289492607,1.0271281003952026,1.975102424621582,-7.737198829650879,6.542440414428711,2.0189149379730225,4.089879035949707,0.3053312599658966,-0.6068059206008911,-0.08633565902709961,1.544184684753418
106,40982,40981,-0.01647675596177578,-0.04378150776028633,0.9912394285202026,0.32211270928382874,-8.096774101257324,6.391095161437988,2.020116090774536,4.091795921325684,0.3044526278972626,-0.6310178637504578,-0.12218000739812851,1.6022275686264038
107,40992,40991,-0.03447834029793739,0.05397481098771095,0.9907525777816772,-0.22104519605636597,-8.215605735778809,6.83449649810791,2.020806074142456,4.091997146606445,0.30483824014663696,-0.6324607133865356,-0.09696543961763382,1.6717822551727295
108,41002,41001,-0.012224048376083374,0.07786872237920761,0.9966204166412354,0.7464765906333923,-8.504304885864258,7.355698585510254,2.020784378051758,4.09373140335083,0.30528756976127625,-0.46387916803359985,-0.07381288707256317,1.743031620979309
109,41012,41011,0.01530821155756712,-0.04291443154215813,0.968184769153595,2.198525905609131,-7.339057922363281,7.373950004577637,2.0213398933410645,4.094639301300049,0.306146502494812,-0.36854615807533264,-0.03010696917772293,1.8250484466552734
110,41022,41021,0.0033477486576884985,-0.013136372901499271,0.9695559144020081,4.44940185546875,-10.186254501342773,6.97252893447876,2.0197765827178955,4.097036838531494,0.3065163493156433,-0.2576165497303009,0.04403520002961159,1.8852097988128662
111,41032,41031,-0.05429510027170181,0.13583944737911224,0.9667963981628418,4.684078693389893,-7.370579242706299,6.367020130157471,2.0193490982055664,4.097622394561768,0.3068743646144867,-0.10070516914129257,0.06039544939994812,1.951764464378357
112,41042,41041,-0.013429919257760048,0.12407917529344559,0.907450258731842,3.5715830326080322,-3.637866258621216,6.559402942657471,2.019745111465454,4.0973920822143555,0.30722612142562866,-0.09142229706048965,0.14665353298187256,2.018691062927246
113,41052,41051,-0.011054863221943378,0.038736823946237564,0.9757663607597351,2.563385248184204,-3.637298583984375,6.284060478210449,2.0189595222473145,4.098033905029297,0.30601903796195984,0.002446571597829461,0.21098604798316956,2.0941710472106934
114,41062,41061,0.0333898589015007,-0.08239737898111343,1.005395770072937,-0.9099432826042175,-0.40288636088371277,6.9116010665893555,2.019822597503662,4.099060535430908,0.30617526173591614,0.00011823707609437406,0.2421208769083023,2.157188892364502
115,41072,41071,0.05815712735056877,-0.18166372179985046,1.0702080726623535,-0.25205522775650024,3.886368989944458,6.9647908210754395,2.019937038421631,4.099791049957275,0.3063090145587921,-0.06565086543560028,0.2393624484539032,2.2262582778930664
116,41082,41081,0.032568223774433136,-0.07591982930898666,0.957075297832489,-1.120334267616272,13.08810043334961,6.587987422943115,2.0204432010650635,4.100254058837891,0.30671262741088867,-0.19180350005626678,0.2356945276260376,2.2939517498016357
117,41092,41091,0.07014425098896027,-0.01912686973810196,0.8943969011306763,-2.445847988128662,20.576183319091797,6.170698642730713,2.020915985107422,4.100715637207031,0.3068801164627075,-0.39735114574432373,0.21217989921569824,2.357128143310547
118,41102,41101,0.03689555078744888,-0.055587638169527054,0.9447501301765442,-5.056617259979248,19.89166831970215,6.613357067108154,2.0213778018951416,4.1022796630859375,0.3069145381450653,-0.6883231997489929,0.1626904457807541,2.4157538414001465
119,41112,41111,0.0032503600232303143,-0.07912024110555649,1.0155518054962158,-3.5589637756347656,16.996654510498047,6.293946743011475,2.020948886871338,4.10355806350708,0.30568528175354004,-0.7337964773178101,0.0962371751666069,2.4867238998413086
120,41122,41121,-0.00863579846918583,-0.01745031028985977,1.0155620574951172,-2.3180465698242188,11.719681739807129,5.861130237579346,2.0221714973449707,4.10451602935791,0.30557262897491455,-1.0300730466842651,0.05503227189183235,2.5403966903686523
121,41132,41131,0.047517526894807816,-0.007914281450212002,0.958017110824585,-0.6026160717010498,8.96932601928711,5.043510913848877,2.0203335285186768,4.105152606964111,0.3057716190814972,-0.9564210772514343,0.045158352702856064,2.6074934005737305
122,41142,41141,-0.05136820673942566,0.020393379032611847,1.0147063732147217,0.5573747158050537,1.2837637662887573,5.096844673156738,2.02042293548584,4.105170249938965,0.30576711893081665,-0.9977899193763733,0.052535396069288254,2.6573429107666016
123,41152,41151,0.013368538580834866,-0.022503571584820747,1.0077972412109375,1.235270380973816,-1.9578748941421509,5.133566379547119,2.0209641456604004,4.105123519897461,0.3057982623577118,-1.0399271249771118,0.0752623975276947,2.7076070308685303
124,41162,41161,0.012134539894759655,-0.022524846717715263,0.9875704646110535,1.828066110610962,-2.132728099822998,5.433019638061523,2.0200793743133545,4.104862689971924,0.30587777495384216,-0.9709554314613342,0.10902068018913269,2.763421058654785
125,41172,41171,0.031505703926086426,-0.09907171875238419,0.9571771025657654,1.2639769315719604,0.26329895853996277,5.700482368469238,2.0199458599090576,4.104438304901123,0.30585744976997375,-0.9395781755447388,0.13689638674259186,2.8216259479522705
126,41182,41181,0.030220195651054382,-0.1013849526643753,1.0342328548431396,0.1514693796634674,0.7868857979774475,5.397045612335205,2.020676374435425,4.104839324951172,0.30165356397628784,-1.0001628398895264,0.15591193735599518,2.8748724460601807
127,41192,41191,0.09275300055742264,-0.21262332797050476,1.0159846544265747,-0.09610407799482346,5.046050071716309,4.044717311859131,2.0204100608825684,4.105240345001221,0.3014436364173889,-0.9885462522506714,0.16175329685211182,2.926898956298828
128,41202,41201,0.049336131662130356,-0.11182926595211029,0.9172427654266357,-0.5648602247238159,9.453526496887207,3.632751941680908,2.021324872970581,4.106818199157715,0.30120977759361267,-1.089132308959961,0.16879647970199585,2.9650704860687256
129,41212,41211,0.028169721364974976,-0.1555432826280594,0.9911924600601196,-3.4197099208831787,11.093523979187012,4.227202892303467,2.0225882530212402,4.107189655303955,0.3031900227069855,-1.2365398406982422,0.1241309866309166,3.0007998943328857
130,41222,41221,0.06472243368625641,-0.231525719165802,1.0537705421447754,-4.103098392486572,7.169388771057129,3.9048328399658203,2.0223188400268555,4.10765266418457,0.30301570892333984,-1.3249942064285278,0.05763911455869675,3.0384573936462402
131,41232,41231,0.027523355558514595,-0.045862939208745956,1.0402452945709229,-1.8177684545516968,6.951296806335449,3.16127347946167,2.023212194442749,4.108072757720947,0.3028973639011383,-1.4085475206375122,0.0814955085515976,3.077883243560791
132,41242,41241,-0.03470943868160248,-0.007861877791583538,1.042220115661621,-1.7457844018936157,4.6308674812316895,2.8471615314483643,2.0233538150787354,4.1081976890563965,0.3027702867984772,-1.536800503730774,0.048676956444978714,3.103848457336426
133,41252,41251,0.010997391305863857,-0.13419561088085175,1.0453438758850098,-0.9885984659194946,1.5968022346496582,2.4843761920928955,2.0233523845672607,4.107030391693115,0.30359992384910583,-1.4763065576553345,0.16442681849002838,3.1511666774749756
134,41262,41261,0.015351503156125546,-0.07789362221956253,1.009579062461853,1.1752179861068726,-2.9095940589904785,2.426262617111206,2.0238819122314453,4.108564376831055,0.3036547601222992,-1.480891227722168,0.002918876940384507,3.155834436416626
135,41272,41271,0.0054640742018818855,-0.019885146990418434,1.0117653608322144,0.07480727136135101,-4.563286304473877,2.3769521713256836,2.022439479827881,4.107926368713379,0.30378690361976624,-1.359513521194458,0.01577199436724186,3.185506582260132
136,41282,41281,0.010158373042941093,-0.02954067476093769,1.018470048904419,-0.18846899271011353,-5.578615665435791,1.635753870010376,2.0224523544311523,4.108002185821533,0.30812257528305054,-1.2918633222579956,0.02360815927386284,3.2091217041015625
137,41292,41291,-0.006966380402445793,0.027659444138407707,0.951957643032074,0.6014297604560852,-4.5008544921875,1.1804087162017822,2.0219454765319824,4.107074737548828,0.3085130453109741,-1.1749961376190186,0.1202935129404068,3.237182378768921
138,41302,41301,-0.01655562035739422,0.03266360983252525,1.0502550601959229,-0.9070114493370056,0.15072853863239288,0.9088168144226074,2.0230023860931396,4.107718467712402,0.30877894163131714,-1.2428410053253174,0.09990731626749039,3.245314836502075
139,41312,41311,0.008095850236713886,-0.09044862538576126,1.0056999921798706,-2.6030197143554688,4.7208428382873535,0.8391658663749695,2.0230941772460938,4.10813045501709,0.30750566720962524,-1.2007886171340942,0.07428877800703049,3.253561019897461
140,41322,41321,0.00640554865822196,0.010255713015794754,0.9689931869506836,-1.3761518001556396,2.89621639251709,0.12146081775426865,2.024203300476074,4.109477996826172,0.3076968491077423,-1.3427836894989014,0.043336495757102966,3.252366542816162
141,41332,41331,-0.012818912044167519,0.07234221696853638,1.0170364379882812,-2.664703369140625,4.861706733703613,0.261767715215683,2.0244882106781006,4.1098175048828125,0.30808061361312866,-1.2662453651428223,0.07990486174821854,3.2682931423187256
142,41342,41341,-0.00978370476514101,-0.04461926594376564,1.0091536045074463,-1.5441087484359741,2.021530866622925,0.36549410223960876,2.0241641998291016,4.110318183898926,0.30836302042007446,-1.2680790424346924,0.10555869340896606,3.280346155166626
143,41352,41351,0.025135217234492302,-0.03241858258843422,0.9231123328208923,-3.0155866146087646,0.6936656832695007,0.05726119503378868,2.0247814655303955,4.110284805297852,0.3096127212047577,-1.2424440383911133,0.056438472121953964,3.2814793586730957
144,41362,41361,0.017166852951049805,-0.014589540660381317,0.983799397945404,-3.6890392303466797,-2.040740489959717,-0.20662134885787964,2.025477409362793,4.11067533493042,0.3098611831665039,-1.25421941280365,-0.0163502786308527,3.2761287689208984
145,41372,41371,-0.01866694539785385,0.07525638490915298,1.0324866771697998,-3.8246572017669678,-3.3187780380249023,-0.08033663034439087,2.0257110595703125,4.1109538078308105,0.3101069927215576,-1.2333698272705078,-0.09049282222986221,3.2696094512939453
146,41382,41381,-0.012795895338058472,0.0369294211268425,1.0192971229553223,-2.390399217605591,-5.663914203643799,-0.6839120388031006,2.029975652694702,4.111880302429199,0.31087344884872437,-1.4748018980026245,-0.07536615431308746,3.2667038440704346
147,41392,41391,-0.021953077986836433,0.018675221130251884,0.9604249000549316,-0.33431971073150635,-6.1828837394714355,-1.049277901649475,2.0305252075195312,4.112021446228027,0.31118759512901306,-1.4177882671356201,-0.10551515221595764,3.2549774646759033
148,41402,41401,-0.07760167121887207,0.08773421496152878,1.0212551355361938,0.7640290856361389,-6.0340423583984375,-0.7710985541343689,2.0305237770080566,4.112968921661377,0.3116581439971924,-1.2275722026824951,-0.11284132301807404,3.249708652496338
149,41412,41411,-0.03325594216585159,0.029667159542441368,1.0635699033737183,2.1532440185546875,-7.831940174102783,-0.1739547848701477,2.0301997661590576,4.112466812133789,0.3110452890396118,-1.1526226997375488,-0.09819657355546951,3.2443668842315674
150,41422,41421,-0.045899439603090286,0.060771699994802475,1.056941032409668,3.6071395874023438,-7.717171669006348,-0.2670495808124542,2.0313150882720947,4.113600254058838,0.31136441230773926,-1.0717015266418457,-0.053655970841646194,3.2420129776000977
151,41432,41431,-0.06349516659975052,0.13378649950027466,0.9663823843002319,3.8787360191345215,-5.502989768981934,-0.724206268787384,2.0311710834503174,4.1142659187316895,0.3118462860584259,-0.8724523782730103,0.009532650001347065,3.242706060409546
152,41442,41441,-0.02377021126449108,0.02916058339178562,0.950917661190033,1.3403042554855347,-4.271274089813232,-0.6172882914543152,2.0324459075927734,4.113667964935303,0.3145485818386078,-0.9363811016082764,0.038922570645809174,3.2371084690093994
153,41452,41451,-0.04292299598455429,-0.009163767099380493,1.0744880437850952,-1.3352254629135132,-3.6280293464660645,-0.7518123388290405,2.0332274436950684,4.114395618438721,0.3150462210178375,-0.8624303340911865,-0.05597636476159096,3.2208242416381836
154,41462,41461,-0.03649500384926796,-0.0329747274518013,1.068485975265503,-3.072136878967285,-6.342342376708984,-1.3343095779418945,2.0320751667022705,4.114222049713135,0.3156566619873047,-0.6772043704986572,-0.0989924967288971,3.2112677097320557
155,41472,41471,-0.057496197521686554,0.08914153277873993,0.9962660670280457,-3.5410783290863037,-5.691318035125732,-1.2237612009048462,2.035001039505005,4.114918231964111,0.31612882018089294,-0.7966563105583191,-0.14658503234386444,3.194627523422241
156,41482,41481,-0.027385301887989044,0.19434499740600586,0.9939897060394287,-3.495593309402466,-4.080369472503662,-1.5056896209716797,2.0358386039733887,4.1136016845703125,0.31772300601005554,-0.786863386631012,-0.12955071032047272,3.185704469680786
157,41492,41491,0.016749592497944832,0.04135311394929886,0.9664132595062256,-2.3406739234924316,-6.799776554107666,-1.7065778970718384,2.036478042602539,4.113988876342773,0.3183486759662628,-0.7417280077934265,-0.17838123440742493,3.1661429405212402
158,41502,41501,-0.027555063366889954,0.0006804048898629844,1.0131438970565796,-1.6621699333190918,-7.663228511810303,-2.726266622543335,2.037043571472168,4.114101886749268,0.3190300762653351,-0.603754460811615,-0.14538636803627014,3.147963047027588
159,41512,41511,-0.030958134680986404,0.0105878422036767,0.9778679013252258,-0.05670546367764473,-9.255887031555176,-2.7753067016601562,2.036930561065674,4.114446640014648,0.320048451423645,-0.4476460814476013,-0.1637250781059265,3.1222004890441895
160,41522,41521,0.0019276743987575173,-0.08682281523942947,0.962174117565155,0.9437301754951477,-7.925614356994629,-2.8321497440338135,2.0390210151672363,4.115969181060791,0.3205621838569641,-0.5043787360191345,-0.15427245199680328,3.0914363861083984
161,41532,41531,0.06319613009691238,-0.04977386072278023,0.9570915102958679,2.1713759899139404,-8.541730880737305,-2.85644268989563,2.039628505706787,4.116144180297852,0.3212246596813202,-0.3378363847732544,-0.13259564340114594,3.0633530616760254
162,41542,41541,0.01776275224983692,0.002888922579586506,0.9890865087509155,1.7005338668823242,-6.3467206954956055,-3.689582109451294,2.038797378540039,4.116155624389648,0.3210183084011078,-0.18260276317596436,-0.024691786617040634,3.0279674530029297
163,41552,41551,0.06304894387722015,-0.11460825055837631,0.9503147006034851,1.036164402961731,-2.537431001663208,-3.938868284225464,2.040175199508667,4.117135524749756,0.32147952914237976,-0.17150098085403442,-0.08838969469070435,2.988753318786621
164,41562,41561,0.007743030320852995,-0.03552405536174774,0.9876728653907776,-0.7289416193962097,-0.8937981724739075,-4.354977607727051,2.041332960128784,4.116754055023193,0.3218957483768463,-0.19385339319705963,-0.0923319160938263,2.9461729526519775
165,41572,41571,0.04164533689618111,-0.09242410957813263,0.9076205492019653,-1.4136666059494019,2.2255663871765137,-4.803242206573486,2.0418508052825928,4.118003845214844,0.3224417269229889,-0.11359145492315292,-0.11431402713060379,2.9083170890808105
166,41582,41581,0.05685180798172951,-0.13106796145439148,0.8991611003875732,-1.3393834829330444,1.9356892108917236,-4.456149578094482,2.0438520908355713,4.1186418533325195,0.3206956684589386,-0.21325986087322235,-0.14113979041576385,2.862011194229126
167,41592,41591,0.041843194514513016,-0.06695245951414108,0.9296830892562866,-0.955549418926239,0.9534122347831726,-4.744913578033447,2.0436367988586426,4.120128154754639,0.32084742188453674,-0.21682342886924744,-0.15981414914131165,2.815655469894409
168,41602,41601,-0.00313883856870234,0.06263617426156998,0.9400762915611267,-0.4069047272205353,2.964935541152954,-5.4820027351379395,2.0452795028686523,4.120351314544678,0.32083186507225037,-0.2989075779914856,-0.16614636778831482,2.76636004447937
169,41612,41611,-0.05645133927464485,0.04064086824655533,0.9987092614173889,1.0682952404022217,-6.858217239379883,-4.518885135650635,2.0449283123016357,4.119697093963623,0.31992900371551514,-0.14778508245944977,-0.09323226660490036,2.7159104347229004
170,41622,41621,-0.0020620222203433514,-0.04491554573178291,0.9687867164611816,0.9063987731933594,-2.233025550842285,-4.343924522399902,2.045121431350708,4.119686603546143,0.31985005736351013,-0.08773446828126907,-0.0832318365573883,2.670095205307007
171,41632,41631,-0.026045363396406174,0.06715825200080872,0.9304890036582947,1.4901281595230103,-1.795502781867981,-4.066259860992432,2.0472803115844727,4.119635105133057,0.3196399509906769,-0.17882543802261353,-0.060816701501607895,2.626739740371704
172,41642,41641,-0.04566676914691925,0.16081584990024567,0.9299106001853943,0.1418205201625824,1.4253910779953003,-4.2974700927734375,2.0473928451538086,4.120808124542236,0.3196578025817871,-0.07696183770895004,-0.12321939319372177,2.589369297027588
173,41652,41651,0.011194773949682713,-0.006701870355755091,0.9208118915557861,-2.108353614807129,1.214123249053955,-4.906611442565918,2.0485317707061768,4.120790958404541,0.31934913992881775,-0.15833550691604614,-0.06484989821910858,2.540433168411255
174,41662,41661,-0.03452674672007561,-0.015480589121580124,1.0378081798553467,-2.8410916328430176,1.9019330739974976,-4.974707126617432,2.0485177040100098,4.120786190032959,0.3191336691379547,-0.09457235783338547,-0.11928509920835495,2.4892849922180176
175,41672,41671,-0.06095113977789879,-0.042836736887693405,1.058226227760315,-2.2406294345855713,0.530607283115387,-5.210122108459473,2.051237106323242,4.122337818145752,0.3187662959098816,-0.24362079799175262,-0.16922250390052795,2.449556827545166
176,41682,41681,0.0035121010150760412,-0.09104940295219421,1.0364545583724976,-0.40353769063949585,3.688103199005127,-4.963923454284668,2.0512683391571045,4.122502326965332,0.3187486529350281,-0.1768399477005005,-0.194431871175766,2.4000561237335205
177,41692,41691,-0.021799933165311813,0.018756123259663582,0.9820947647094727,0.901557981967926,-1.559228777885437,-4.089521408081055,2.051560878753662,4.122845649719238,0.31857743859291077,-0.14223907887935638,-0.17647685110569,2.353908061981201
178,41702,41701,-0.021626319736242294,0.06688352674245834,0.9991979598999023,1.5593738555908203,-0.740821123123169,-2.461366653442383,2.0511879920959473,4.123496055603027,0.31855612993240356,-0.04565722867846489,-0.17093193531036377,2.323242664337158
179,41712,41711,0.024370504543185234,0.0701211467385292,1.0289301872253418,1.9807872772216797,-0.9425020813941956,-2.3100435733795166,2.0525174140930176,4.123477458953857,0.3112384080886841,-0.09626089036464691,-0.14865054190158844,2.29955792427063
180,41722,41721,0.01068187691271305,-0.09061595052480698,1.012976884841919,2.500028371810913,-0.0035213360097259283,-2.022873878479004,2.0541534423828125,4.124232292175293,0.3106314539909363,-0.14172416925430298,-0.11535085737705231,2.276381731033325
181,41732,41731,-0.022166138514876366,-0.08613307774066925,0.9649374485015869,2.763826608657837,1.7277495861053467,-1.8226114511489868,2.0547423362731934,4.123693943023682,0.31006452441215515,-0.1310921609401703,-0.07305347919464111,2.254751443862915
182,41742,41741,-0.0011654595145955682,-0.04006148502230644,0.9885854721069336,2.8863561153411865,3.16349458694458,-1.4326708316802979,2.0544254779815674,4.1230034828186035,0.30811354517936707,-0.08007694780826569,-0.029765166342258453,2.2374088764190674
183,41752,41751,0.005159141030162573,-0.10847213119268417,1.0775349140167236,1.780395269393921,2.7381410598754883,-0.9924178719520569,2.0543525218963623,4.122881889343262,0.3074755370616913,-0.02585562691092491,0.0033795887138694525,2.225362539291382
184,41762,41761,0.051910750567913055,-0.15753261744976044,1.043634057044983,1.9365113973617554,2.591710090637207,-1.0685042142868042,2.0541882514953613,4.122323036193848,0.3068690001964569,-0.05430823937058449,0.0310507919639349,2.205888032913208
185,41772,41771,-0.0023551727645099163,-0.10157510638237,1.0798680782318115,0.936040461063385,0.460944801568985,-0.03381745144724846,2.056810140609741,4.124194622039795,0.31011658906936646,-0.19836144149303436,-0.019059481099247932,2.210491895675659
186,41782,41781,0.012896718457341194,-0.041425954550504684,1.0357589721679688,2.1154210567474365,9.273305892944336,-0.8814817667007446,2.0557565689086914,4.123738765716553,0.31019142270088196,-0.2438281625509262,0.016504988074302673,2.2030959129333496
187,41792,41791,-0.009794735349714756,-0.13128656148910522,1.1339677572250366,-0.1799537092447281,5.747470378875732,0.06307438760995865,2.0566272735595703,4.125072479248047,0.30995264649391174,-0.3156275153160095,0.014371921308338642,2.2035930156707764
188,41802,41801,-0.01888006553053856,-0.04020027071237564,1.0755493640899658,-0.33352234959602356,-0.14151932299137115,0.2796167731285095,2.057175397872925,4.126039505004883,0.30984851717948914,-0.2342027723789215,0.015573441050946712,2.2192163467407227
189,41812,41811,-0.0049424124881625175,-0.003272958332672715,1.0258599519729614,-2.0458731651306152,-1.1697624921798706,1.0618441104888916,2.057634115219116,4.126585960388184,0.30916261672973633,-0.24594853818416595,0.000672797323204577,2.215702533721924
190,41822,41821,0.013528578914701939,0.08709200471639633,1.0453418493270874,-1.3604985475540161,-2.4224066734313965,2.0590999126434326,2.059105396270752,4.126753330230713,0.30906233191490173,-0.3053344190120697,-0.028794748708605766,2.2243287563323975
191,41832,41831,-0.00028779637068510056,0.012274647131562233,1.0531846284866333,0.5255810618400574,-1.691282033920288,2.891353130340576,2.058699369430542,4.126526832580566,0.30915114283561707,-0.16981713473796844,-0.03874581307172775,2.2437944412231445
192,41842,41841,0.03525862097740173,-0.07878891378641129,1.0981446504592896,0.906260073184967,0.27311286330223083,3.2966012954711914,2.0594711303710938,4.127405643463135,0.3108319342136383,-0.2158837467432022,-0.028534794226288795,2.2784430980682373
193,41852,41851,-0.0034636077471077442,-0.11139331758022308,1.1215585470199585,3.5350024700164795,0.7877976894378662,2.983276605606079,2.060441493988037,4.127327919006348,0.31106412410736084,-0.2009468525648117,-0.004036116413772106,2.3102004528045654
194,41862,41861,0.026630675420165062,-0.06375173479318619,1.0404506921768188,5.302157878875732,4.974407196044922,1.9077436923980713,2.0607848167419434,4.126832962036133,0.3113415539264679,-0.22757145762443542,0.06410949677228928,2.3327579498291016
195,41872,41871,0.0019236805383116007,-0.01243133656680584,0.9721619486808777,6.767117977142334,4.8394598960876465,1.7293550968170166,2.061582326889038,4.1282172203063965,0.31377390027046204,-0.34198591113090515,0.08805238455533981,2.369370698928833
196,41882,41881,0.01490875519812107,-0.1344517469406128,0.9558879733085632,2.3645455837249756,6.771679401397705,1.9928817749023438,2.061225175857544,4.1277313232421875,0.3143977224826813,-0.2598319351673126,0.17430290579795837,2.3879830837249756
197,41892,41891,0.04520828649401665,-0.26415109634399414,0.9999545812606812,-1.465511679649353,2.1330201625823975,1.5432792901992798,2.0630064010620117,4.129220008850098,0.31485792994499207,-0.4187923073768616,0.19645127654075623,2.4158289432525635
198,41902,41901,0.01950330100953579,-0.02506193518638611,1.0490692853927612,-3.0216920375823975,2.9448022842407227,0.5729034543037415,2.063358783721924,4.129300594329834,0.31538715958595276,-0.449716717004776,0.17122013866901398,2.433184862136841
199,41912,41911,0.034030236303806305,-0.054709725081920624,1.0386627912521362,-3.3510782718658447,-2.0363845825195312,0.538794755935669,2.061783790588379,4.1312336921691895,0.31472134590148926,-0.37093690037727356,0.04183607175946236,2.454962730407715
200,41922,41921,0.10513686388731003,-0.17908532917499542,0.9743594527244568,-1.959823727607727,-5.171335220336914,-0.11207716166973114,2.062824010848999,4.131587982177734,0.31515181064605713,-0.3910970389842987,-0.0023095577489584684,2.465365171432495
201,41932,41931,0.0522751621901989,-0.09478882700204849,0.9395813941955566,0.4984871745109558,-4.428163051605225,-0.957850992679596,2.0637881755828857,4.131625175476074,0.3155955672264099,-0.3767169415950775,-0.016085729002952576,2.4658079147338867
202,41942,41941,-0.007113007362931967,-0.01137272547930479,0.9281216859817505,3.7063584327697754,-8.873865127563477,-1.3912156820297241,2.064044237136841,4.131829261779785,0.3182416558265686,-0.21562476456165314,0.003750777803361416,2.4588727951049805
203,41952,41951,-0.017642013728618622,-0.08360131084918976,0.9818812608718872,4.469256401062012,-1.9272011518478394,-0.26419979333877563,2.0653016567230225,4.131341457366943,0.31872040033340454,-0.21996566653251648,0.062364887446165085,2.4428043365478516
204,41962,41961,0.06273271143436432,-0.27659186720848083,0.974900484085083,6.095731735229492,-5.85605525970459,0.12312468886375427,2.065765380859375,4.131322383880615,0.3192218244075775,-0.1524345725774765,0.1476055383682251,2.442189931869507
205,41972,41971,0.022474201396107674,-0.21630539000034332,0.9578937888145447,6.3029255867004395,-3.151329278945923,-0.778298020362854,2.0662217140197754,4.1309380531311035,0.31538650393486023,-0.05315534025430679,0.2574194073677063,2.4393997192382812
206,41982,41981,-0.013508038595318794,-0.07274248450994492,0.945183515548706,2.079770803451538,0.996467113494873,-2.1086480617523193,2.0673859119415283,4.130695343017578,0.31550389528274536,-0.10689040273427963,0.3431585431098938,2.4229650497436523
207,41992,41991,-0.04496404528617859,0.04565002769231796,0.993431806564331,-2.123732805252075,1.3790369033813477,-1.288051724433899,2.068777322769165,4.131198883056641,0.31553420424461365,-0.18930122256278992,0.36265698075294495,2.407374620437622
208,42002,42001,0.033484555780887604,-0.06106938049197197,0.9286260008811951,-6.3988037109375,3.002230644226074,-0.6834768652915955,2.068347215652466,4.131950855255127,0.3157425820827484,-0.10748981684446335,0.14989858865737915,2.3884871006011963
209,42012,42011,0.05958091840147972,-0.05403241887688637,0.9386178851127625,-9.59327220916748,-0.8621742129325867,-0.9193781614303589,2.069129467010498,4.132564067840576,0.3123242259025574,-0.11195883899927139,0.033836424350738525,2.3822362422943115
210,42022,42021,-0.02351395972073078,0.010377546772360802,0.9732201099395752,-8.98730754852295,-2.2120347023010254,-0.2106027752161026,2.070329189300537,4.132648468017578,0.31211671233177185,-0.15973152220249176,-0.0320860929787159,2.3712995052337646
211,42032,42031,0.001194326439872384,0.021651141345500946,0.9891752600669861,-5.691666603088379,-0.21707221865653992,0.9990137219429016,2.0711398124694824,4.133540630340576,0.3118317127227783,-0.13375775516033173,-0.16326363384723663,2.3715903759002686
212,42042,42041,-0.004337117075920105,0.02087162248790264,1.0652304887771606,0.08896828442811966,-1.9470045566558838,1.518164873123169,2.070824384689331,4.133657932281494,0.3102702498435974,-0.021781159564852715,-0.14446045458316803,2.396742820739746
213,42052,42051,-0.01577206887304783,-0.00855132658034563,1.0208168029785156,5.66915225982666,-0.5148696899414062,2.0526010990142822,2.0725409984588623,4.131718158721924,0.30987516045570374,-0.15690959990024567,-0.022888021543622017,2.3876521587371826
214,42062,42061,0.0253720972687006,-0.09327074140310287,1.019433856010437,7.823166847229004,-3.5916173458099365,2.8906993865966797,2.072072982788086,4.131994724273682,0.30964237451553345,-0.054115790873765945,0.09469393640756607,2.417590379714966
215,42072,42071,0.014363816939294338,-0.08800559490919113,1.028679609298706,8.235020637512207,0.41960397362709045,1.945190668106079,2.072315216064453,4.131036758422852,0.3116215467453003,0.05087976157665253,0.22892270982265472,2.4404985904693604
216,42082,42081,-0.003196666482836008,-0.05390050634741783,1.0733579397201538,2.985110282897949,2.129729747772217,2.3100051879882812,2.072192668914795,4.131136417388916,0.3115569055080414,0.0947992354631424,0.2465270757675171,2.4651293754577637
217,42092,42091,-0.029036834836006165,-0.011827380396425724,1.0460660457611084,-0.8708478212356567,2.9086878299713135,2.743037700653076,2.0748040676116943,4.131730556488037,0.3114386200904846,-0.11029837280511856,0.19500194489955902,2.489734649658203
218,42102,42101,0.014623728580772877,0.05164780467748642,0.9521005153656006,-4.318803310394287,5.185853481292725,2.877078056335449,2.0767884254455566,4.131865978240967,0.3119277060031891,-0.24633854627609253,0.1698942482471466,2.515873670578003
219,42112,42111,0.017959024757146835,0.027489781379699707,0.9612169861793518,-7.661564350128174,3.777167558670044,3.441953659057617,2.0770187377929688,4.13275146484375,0.31199124455451965,-0.22338008880615234,0.07249290496110916,2.5569584369659424
220,42122,42121,-0.005162211135029793,-0.045637164264917374,1.0041834115982056,-8.561729431152344,2.0648410320281982,3.022690534591675,2.0788838863372803,4.132526874542236,0.3118671476840973,-0.3556486666202545,0.018862318247556686,2.5859766006469727
221,42132,42131,-0.005268539302051067,-0.06295109540224075,0.9863110780715942,-6.372012615203857,-2.6058454513549805,3.608999252319336,2.0788817405700684,4.132291793823242,0.31195613741874695,-0.26001861691474915,-0.03665802627801895,2.618774652481079
222,42142,42141,0.02777671627700329,-0.004445732105523348,1.0160191059112549,-2.578001022338867,-4.978003978729248,4.347792625427246,2.079580783843994,4.132553577423096,0.3080422878265381,-0.1922285407781601,-0.1265450119972229,2.6575465202331543
223,42152,42151,0.035130489617586136,-0.02486364357173443,1.012326717376709,0.9785325527191162,-6.564095497131348,3.672914505004883,2.080068349838257,4.13176155090332,0.3078119456768036,-0.1590997725725174,-0.06318081170320511,2.6967360973358154
224,42162,42161,-0.049818992614746094,0.0638723149895668,0.9309350252151489,2.9341320991516113,-5.633061408996582,3.730285167694092,2.080199718475342,4.131932258605957,0.30757421255111694,-0.04098282381892204,-0.033226486295461655,2.7402865886688232
225,42172,42171,-0.04254559427499771,0.07297897338867188,1.0524256229400635,1.9595619440078735,-6.452365398406982,4.100601673126221,2.080935001373291,4.131739139556885,0.3081209361553192,0.06812632083892822,0.00862837489694357,2.7821786403656006
226,42182,42181,0.04787033051252365,-0.031052542850375175,1.1100475788116455,-0.9350070953369141,-0.8782769441604614,3.501646041870117,2.0812184810638428,4.131601810455322,0.3079010546207428,0.13284708559513092,0.01908828131854534,2.82023024559021
227,42192,42191,0.0073168291710317135,-0.041027966886758804,1.0676443576812744,-3.1883585453033447,1.421447515487671,2.279481887817383,2.0824098587036133,4.13219690322876,0.30769217014312744,0.05498303845524788,-0.017522044479846954,2.8581337928771973
228,42202,42201,0.05459634214639664,-0.09771433472633362,0.9325829744338989,-5.719166278839111,6.1294379234313965,0.8241971731185913,2.083761215209961,4.131937503814697,0.3084186017513275,-0.06356531381607056,-0.0173778235912323,2.8868942260742188
229,42212,42211,0.0015709007857367396,0.04640984907746315,1.0221854448318481,-6.51739501953125,2.078709363937378,0.034342166036367416,2.08406138420105,4.134389877319336,0.30842188000679016,-0.061269234865903854,-0.13015449047088623,2.929334878921509
230,42222,42221,0.057797521352767944,-0.032501500099897385,1.0477163791656494,-6.597850322723389,0.7961276769638062,-0.6203756332397461,2.0858054161071777,4.135222434997559,0.30827796459198,-0.17755599319934845,-0.24853074550628662,2.936861515045166
231,42232,42231,0.0767662301659584,-0.15123651921749115,1.0299853086471558,-4.012905597686768,3.698662042617798,-2.4134230613708496,2.0856471061706543,4.13351583480835,0.3083727955818176,-0.13201209902763367,-0.18639621138572693,2.906806230545044
232,42242,42241,0.014861982315778732,-0.06703802943229675,1.0765049457550049,-0.030000148341059685,2.6960055828094482,-2.8711297512054443,2.0863726139068604,4.133621692657471,0.306458055973053,-0.13981162011623383,-0.23573678731918335,2.8918795585632324
233,42252,42251,0.02006247267127037,-0.02556971088051796,0.998410701751709,1.5303819179534912,-0.8419240713119507,-2.7782106399536133,2.086116313934326,4.133615493774414,0.3065218925476074,-0.04835120216012001,-0.23483115434646606,2.863400936126709
234,42262,42261,-0.0026288863737136126,-0.03132038936018944,0.9672631621360779,1.9688706398010254,-3.0203628540039062,-3.444934368133545,2.087742328643799,4.134026527404785,0.3065151274204254,-0.0813315361738205,-0.2211974859237671,2.841764450073242
235,42272,42271,0.0012491788947954774,-0.014268813654780388,0.9985400438308716,1.5491509437561035,-0.37080690264701843,-4.135914325714111,2.08931827545166,4.1321702003479,0.3094046413898468,-0.11737408488988876,-0.06419238448143005,2.795219659805298
236,42282,42281,0.020104244351387024,-0.04380113631486893,1.016846776008606,1.0372836589813232,1.7561637163162231,-3.469102144241333,2.088912010192871,4.13295316696167,0.30967578291893005,-0.0373496487736702,-0.06611466407775879,2.7796642780303955
237,42292,42291,0.013304165564477444,-0.0771903470158577,1.0647122859954834,1.4788153171539307,-0.17252111434936523,-3.4445228576660156,2.0903618335723877,4.1327900886535645,0.30978867411613464,-0.11152029782533646,-0.07054293155670166,2.7460978031158447
238,42302,42301,0.0072682807222008705,-0.004686207510530949,0.9814959168434143,2.131361961364746,1.0114597082138062,-2.8584237098693848,2.089479446411133,4.13311243057251,0.30980730056762695,-0.02656903862953186,-0.1305433064699173,2.714566469192505
239,42312,42311,-0.013836666010320187,0.14405733346939087,0.9811098575592041,1.5461629629135132,4.5316033363342285,-2.8762526512145996,2.0918474197387695,4.132606506347656,0.3099532723426819,-0.1647661030292511,-0.034673526883125305,2.6901910305023193
