,timestamp_start,timestamp_end,acc.x,acc.y,acc.z,gyro.x,gyro.y,gyro.z,stateEstimate.x,stateEstimate.y,stateEstimate.z,stabilizer.pitch,stabilizer.roll,stabilizer.yaw
0,62091,62085,0.017130959779024124,-0.060412049293518066,1.0202678442001343,-1.3694121837615967,21.030994415283203,-0.777485728263855,1.996656060218811,4.015596866607666,0.18399377167224884,-0.2744474411010742,0.2665480673313141,3.7639214992523193
1,62101,62095,0.0051865833811461926,0.022673871368169785,1.0486332178115845,-4.343265056610107,14.211699485778809,-0.9378571510314941,1.9959461688995361,4.01633358001709,0.18655087053775787,-0.6115476489067078,0.37683773040771484,3.76177716255188
2,62111,62105,0.006031278055161238,-0.027453351765871048,0.9912643432617188,-5.6801300048828125,2.981788158416748,-1.4843348264694214,1.9971054792404175,4.01595401763916,0.18531738221645355,-0.4578479826450348,0.4275553822517395,3.766757011413574
3,62121,62115,0.04785903915762901,-0.08525341004133224,1.0277414321899414,-5.951633930206299,-8.620553970336914,-1.9959968328475952,1.9942811727523804,4.015747547149658,0.1881142556667328,-0.5376684069633484,0.30111387372016907,3.7467944622039795
4,62131,62125,0.060753751546144485,-0.1834125518798828,0.9943032264709473,-5.768546104431152,-15.052647590637207,-2.4569947719573975,1.993722677230835,4.017982006072998,0.19061987102031708,-0.45751988887786865,0.17793698608875275,3.7251477241516113
5,62141,62135,0.028572911396622658,-0.09498174488544464,0.9865216016769409,-4.9252495765686035,-17.380020141601562,-2.4437296390533447,1.993166208267212,4.019026279449463,0.19046351313591003,-0.8358861207962036,0.07420728355646133,3.6795835494995117
6,62151,62145,0.024918541312217712,-0.025339344516396523,1.0065267086029053,-3.4442861080169678,-11.790131568908691,-1.9625052213668823,1.9951660633087158,4.018268585205078,0.19307005405426025,-0.5735588669776917,0.060983628034591675,3.663877248764038
7,62161,62155,0.047131944447755814,0.006076095160096884,0.9948078989982605,-1.933740496635437,-8.221599578857422,-2.0805795192718506,1.9948168992996216,4.018412113189697,0.19557014107704163,-0.5269523859024048,-0.14722692966461182,3.619661569595337
8,62171,62165,0.013215211220085621,-0.023536663502454758,0.9974556565284729,-0.012072081677615643,-6.3387131690979,-2.1379363536834717,1.9941613674163818,4.019105434417725,0.19440807402133942,0.19357351958751678,-0.08876529335975647,3.619197130203247
9,62181,62175,-0.007735087536275387,-0.03914862126111984,0.9691113233566284,1.00399911403656,-4.625774383544922,-2.3397610187530518,1.989176869392395,4.019299030303955,0.1972430795431137,0.49281635880470276,-0.30247578024864197,3.575239658355713
10,62191,62185,-0.008118437603116035,0.05054652690887451,1.016827940940857,2.5209131240844727,1.9180793762207031,-2.060279130935669,1.9862011671066284,4.020450592041016,0.19872288405895233,0.8479678630828857,-1.5285704135894775,3.448777198791504
11,62201,62195,-0.004713091533631086,0.037068042904138565,0.9676380753517151,5.327921390533447,10.883685111999512,-2.1508171558380127,1.9819616079330444,4.029297351837158,0.19774676859378815,0.6902390718460083,-1.198987603187561,3.4471826553344727
12,62211,62205,0.05063143000006676,0.040194228291511536,0.988625168800354,16.076988220214844,19.56241226196289,-2.2772066593170166,1.9820197820663452,4.0291829109191895,0.2036036252975464,0.35295507311820984,-0.9618123769760132,3.4481282234191895
13,62221,62215,0.024268215522170067,0.06203613802790642,1.0296870470046997,26.122568130493164,24.650941848754883,-2.395879030227661,1.9822964668273926,4.02842903137207,0.20728686451911926,0.0619179829955101,-0.6015686392784119,3.4407436847686768
14,62231,62225,-0.015464880503714085,0.033156417310237885,1.0362813472747803,31.906150817871094,23.052837371826172,-2.546032667160034,1.9830657243728638,4.026839733123779,0.21038778126239777,-0.20186536014080048,-0.1999587118625641,3.4223177433013916
15,62241,62235,0.01745089702308178,-0.006851900368928909,0.9858856201171875,30.951154708862305,16.065473556518555,-2.4155585765838623,1.982448935508728,4.026648998260498,0.21442534029483795,-0.6213661432266235,0.24560590088367462,3.415144681930542
16,62251,62245,-0.022297611460089684,0.004963700659573078,1.011091709136963,23.319202423095703,7.443588733673096,-2.636918783187866,1.983452558517456,4.027497291564941,0.21686723828315735,-0.9012511968612671,0.772796094417572,3.4129652976989746
17,62261,62255,-0.009691895917057991,0.0024510500952601433,1.0334205627441406,12.305927276611328,-2.00081467628479,-2.742961883544922,1.9844229221343994,4.025421142578125,0.21904662251472473,-1.0236661434173584,1.0695006847381592,3.3938851356506348
18,62271,62265,-0.04873437061905861,-0.06109428405761719,1.0264558792114258,-0.26562294363975525,-10.091632843017578,-3.4497132301330566,1.9839882850646973,4.02430534362793,0.22186732292175293,-1.1244072914123535,1.2456014156341553,3.3731071949005127
19,62281,62275,-0.05433204397559166,-0.002263538306578994,1.038873553276062,-10.832362174987793,-15.383674621582031,-3.3367323875427246,1.9848014116287231,4.025275230407715,0.22412943840026855,-1.0097771883010864,1.2268136739730835,3.330632448196411
20,62291,62285,-0.009031558409333229,0.09875204414129257,0.9591974020004272,-17.145782470703125,-17.326541900634766,-3.227358341217041,1.985185146331787,4.0246968269348145,0.2266390472650528,-1.056092381477356,1.130541443824768,3.286252975463867
21,62301,62295,0.026248954236507416,0.06885194778442383,0.9481236338615417,-17.554805755615234,-16.751033782958984,-3.179206371307373,1.9872761964797974,4.023989200592041,0.22824235260486603,-1.0442132949829102,1.2363271713256836,3.282592296600342
22,62311,62305,0.007526068948209286,0.00980774499475956,0.97426438331604,-13.272217750549316,-14.720649719238281,-2.6069984436035156,1.9881086349487305,4.02253532409668,0.2302076667547226,0.037693582475185394,1.3128819465637207,3.3568050861358643
23,62321,62315,0.04623539000749588,-0.02504468336701393,0.9554058909416199,-7.276126384735107,-12.909493446350098,-2.7725276947021484,1.980562448501587,4.019681453704834,0.23356203734874725,-0.019759569317102432,1.1434794664382935,3.3050005435943604
24,62331,62325,-0.03966458514332771,0.047348856925964355,0.9717749357223511,-4.596127510070801,-8.09900951385498,-2.4741039276123047,1.9795509576797485,4.017292499542236,0.23636765778064728,0.2523655593395233,0.3432362973690033,3.2048754692077637
25,62341,62335,-0.02477436512708664,0.02117849700152874,0.9270983934402466,-5.517467021942139,2.336780071258545,-1.927236795425415,1.9764437675476074,4.02163028717041,0.23971852660179138,0.04874571040272713,-0.9073769450187683,3.018063545227051
26,62351,62345,0.02738574892282486,-0.028384752571582794,0.9278674721717834,-1.5788464546203613,12.571385383605957,-0.5288881063461304,1.9773904085159302,4.0332865715026855,0.2410883754491806,-0.06013970449566841,-0.7875046133995056,3.0054850578308105
27,62361,62355,0.03145035728812218,-0.009428892284631729,0.9467591643333435,11.552790641784668,16.927234649658203,0.5102620124816895,1.9779784679412842,4.034793853759766,0.2443346381187439,-0.2858990728855133,-0.5809041261672974,3.0098764896392822
28,62371,62365,0.01778886653482914,-0.0006011900259181857,0.9701880812644958,25.339521408081055,15.661453247070312,-0.042861998081207275,1.9783623218536377,4.033590793609619,0.24756009876728058,-0.5473390221595764,-0.2791169285774231,3.030372142791748
29,62381,62375,0.009714375250041485,-0.0757039487361908,0.9844573736190796,35.300445556640625,8.232044219970703,-1.3458058834075928,1.979211688041687,4.037326335906982,0.2503041625022888,-0.7540711760520935,0.2737779915332794,3.0628020763397217
30,62391,62385,0.005972280632704496,-0.06006230413913727,0.9121805429458618,37.26171112060547,-1.5334771871566772,-1.6403850317001343,1.9802757501602173,4.035208702087402,0.2530672550201416,-0.8308963179588318,0.8401725888252258,3.079397678375244
31,62401,62395,0.009008032269775867,-0.1095176562666893,0.883148729801178,28.97200584411621,-11.307059288024902,-1.7739492654800415,1.979788899421692,4.0358099937438965,0.25447508692741394,-0.9674670100212097,1.2242496013641357,3.0627028942108154
32,62411,62405,0.036596257239580154,-0.08605220168828964,0.9288117289543152,12.659655570983887,-17.676467895507812,-1.9083696603775024,1.9828206300735474,4.039313316345215,0.2564079463481903,-0.8766604661941528,1.5854430198669434,3.049483060836792
33,62421,62415,-0.020718181505799294,0.006545540411025286,0.9915459156036377,-4.165308952331543,-21.003507614135742,-2.5067050457000732,1.9824243783950806,4.0406174659729,0.25827446579933167,-0.5405942797660828,1.8950139284133911,3.0568039417266846
34,62431,62425,0.05169254168868065,0.00893319956958294,0.8682720065116882,-18.008996963500977,-20.644474029541016,-3.428128719329834,1.9815036058425903,4.0436482429504395,0.2601017653942108,-0.18573814630508423,1.7888849973678589,3.027229070663452
35,62441,62435,0.06443817168474197,0.053145669400691986,0.8723699450492859,-25.269018173217773,-17.64499855041504,-3.36218523979187,1.9801955223083496,4.044806480407715,0.2622600197792053,-0.5149446129798889,1.7081466913223267,2.9399685859680176
36,62451,62445,-0.005305675324052572,0.01486249826848507,0.9267336130142212,-27.24534034729004,-11.519010543823242,-2.4964277744293213,1.985370397567749,4.047347068786621,0.2641075849533081,-0.3984145224094391,1.6621689796447754,2.91231107711792
37,62461,62455,-0.028782464563846588,0.05082375556230545,0.9490407109260559,-22.746692657470703,-6.660780429840088,-2.085960865020752,1.9871084690093994,4.046624660491943,0.2654147148132324,-0.20704849064350128,1.5161936283111572,2.90093731880188
38,62471,62465,-0.004343413282185793,0.007608184590935707,0.9265972375869751,-17.118181228637695,-5.325942039489746,-2.037881374359131,1.986672043800354,4.045552730560303,0.26499465107917786,-0.09174347668886185,1.3491703271865845,2.888868808746338
39,62481,62475,0.0035224645398557186,0.06303758174180984,0.9578322768211365,-10.365775108337402,-6.4981255531311035,-1.7862666845321655,1.9867992401123047,4.045841693878174,0.2663259506225586,-0.1480262130498886,1.1914496421813965,2.8527143001556396
40,62491,62485,-0.01014078501611948,0.10806591808795929,1.0068045854568481,-5.9331374168396,-9.381450653076172,-1.5863577127456665,1.9877433776855469,4.044388294219971,0.2675487995147705,0.049531832337379456,1.1242433786392212,2.8591058254241943
41,62501,62495,-0.014970247633755207,0.02805613912642002,0.9682703018188477,-3.923539638519287,-12.738667488098145,-1.5545425415039062,1.988421082496643,4.0468950271606445,0.2658180892467499,0.1297578662633896,1.1117660999298096,2.8453545570373535
42,62511,62505,0.0006748338346369565,-0.005962872412055731,0.964709460735321,-6.096251964569092,-14.650932312011719,-1.8670647144317627,1.9899648427963257,4.04715633392334,0.26686468720436096,0.18537025153636932,1.102358102798462,2.8203539848327637
43,62521,62515,-0.014819285832345486,0.009175482206046581,0.9560967683792114,-10.384584426879883,-12.687199592590332,-1.5417424440383911,1.9900529384613037,4.047050952911377,0.26784130930900574,0.2555164396762848,1.0473576784133911,2.790156602859497
44,62531,62525,0.022414779290556908,-0.06205404922366142,0.9339897632598877,-16.23708724975586,-2.6417253017425537,-1.4648524522781372,1.9919315576553345,4.049055099487305,0.26880958676338196,0.41557401418685913,0.9164583086967468,2.773972988128662
45,62541,62535,0.018988875672221184,-0.04356454312801361,0.9343807697296143,-19.846208572387695,6.468862533569336,-1.8708465099334717,1.9922267198562622,4.049356937408447,0.26912128925323486,0.4264013171195984,1.0746179819107056,2.7593510150909424
46,62551,62545,0.05132512003183365,-0.0019964666571468115,0.9065266847610474,-22.180068969726562,13.755406379699707,-1.693658471107483,1.99325430393219,4.045618057250977,0.26967042684555054,0.37260207533836365,0.7720856070518494,2.738860845565796
47,62561,62555,0.050953760743141174,-0.031019508838653564,0.9289059638977051,-23.119186401367188,16.34043312072754,-1.3952738046646118,1.9927692413330078,4.046310901641846,0.27065449953079224,0.22161301970481873,0.44503143429756165,2.7177281379699707
48,62571,62565,0.030929269269108772,-0.0005255701835267246,1.0010868310928345,-22.534440994262695,14.862135887145996,-1.4411240816116333,1.9941576719284058,4.047712326049805,0.27011722326278687,0.042231883853673935,0.4914134740829468,2.704157590866089
49,62581,62575,-0.031101876869797707,-0.09129548817873001,0.9843940138816833,-18.611862182617188,10.651749610900879,-1.2724255323410034,1.9940627813339233,4.0461106300354,0.2705090343952179,-0.09824562817811966,0.16385361552238464,2.6914727687835693
50,62591,62585,-0.024440309032797813,-0.19048698246479034,0.9984314441680908,-15.127470016479492,5.1943278312683105,-0.9705079197883606,1.9934011697769165,4.045048236846924,0.27120062708854675,-0.15624774992465973,-0.09563418477773666,2.6846745014190674
51,62601,62595,-0.06217975169420242,-0.02987964078783989,1.094179630279541,-12.94844913482666,0.6243641972541809,-0.8660386204719543,1.9923115968704224,4.046924591064453,0.2686753273010254,-0.2005719542503357,-0.22348356246948242,2.6773183345794678
52,62611,62605,0.018391573801636696,-0.02549736574292183,0.9705902338027954,-9.77498722076416,-2.9106664657592773,-0.7111532688140869,1.9929931163787842,4.045665740966797,0.2690654397010803,-0.11642275750637054,-0.38306373357772827,2.6736505031585693
53,62621,62615,0.008356248028576374,0.010790092870593071,1.0058190822601318,-8.892200469970703,-1.285656452178955,-0.6359649300575256,1.9914319515228271,4.045759201049805,0.2695969343185425,-0.16610148549079895,-0.2066553384065628,2.6679887771606445
54,62631,62625,0.08706368505954742,-0.05739392712712288,1.0036988258361816,-7.917730808258057,-1.3882544040679932,-0.37222009897232056,1.9925858974456787,4.042771339416504,0.2695208191871643,-0.13096983730793,-0.4126693308353424,2.6610147953033447
55,62641,62635,0.01812160015106201,-0.05780525505542755,0.9914267063140869,-9.405987739562988,1.5947184562683105,-0.30592748522758484,1.9928675889968872,4.043215751647949,0.2700367569923401,-0.04776131361722946,-0.6062378883361816,2.65624737739563
56,62651,62645,-0.021962374448776245,0.0017940506804734468,1.0132914781570435,-12.249517440795898,4.877879619598389,-0.26053133606910706,1.992739200592041,4.043060302734375,0.2705620527267456,-0.09757543355226517,-0.6624439358711243,2.6547698974609375
57,62661,62655,-0.00582556426525116,-0.011131355538964272,1.012088656425476,-13.922998428344727,7.258615970611572,-0.30634188652038574,1.993440866470337,4.0421271324157715,0.2709104120731354,-0.11709105968475342,-0.7585231065750122,2.651571035385132
58,62671,62665,0.057203806936740875,-0.07527482509613037,1.0232573747634888,-13.970145225524902,7.571866035461426,-0.05597010627388954,1.9935548305511475,4.041104793548584,0.27317488193511963,-0.17422723770141602,-0.9673121571540833,2.646588087081909
59,62681,62675,0.05793295428156853,-0.08909911662340164,1.0082732439041138,-12.045687675476074,5.4648966789245605,-0.3433249294757843,1.994959831237793,4.042596817016602,0.273738831281662,-0.22009354829788208,-0.993012011051178,2.646803617477417
60,62691,62685,-0.028673652559518814,0.06842469424009323,1.037956714630127,-9.373697280883789,3.711369276046753,-0.6183459162712097,1.9943358898162842,4.040767669677734,0.27432781457901,-0.3222663104534149,-1.1576783657073975,2.6469826698303223
61,62701,62695,0.010517643764615059,0.07823625206947327,1.0148571729660034,-5.9475789070129395,-2.7477564811706543,-0.11872173100709915,1.9962108135223389,4.042629718780518,0.2751070559024811,-0.4326234459877014,-1.2518603801727295,2.6448214054107666
62,62711,62705,0.01812603324651718,-0.08746437728404999,1.0188136100769043,-4.882976055145264,0.34815213084220886,-0.8725339770317078,1.9975640773773193,4.0416178703308105,0.275662362575531,-0.3597843050956726,-1.3809698820114136,2.628206491470337
63,62721,62715,0.0036333883181214333,0.05499095469713211,1.081270694732666,-4.01018762588501,0.053721584379673004,-0.20864717662334442,1.9969366788864136,4.044896602630615,0.27640002965927124,-0.3026057481765747,-1.4815490245819092,2.608839273452759
64,62731,62725,0.012359668500721455,-0.02552105113863945,1.0282342433929443,-3.98836088180542,-0.04385433718562126,-0.01098637841641903,1.997243046760559,4.046993255615234,0.2749411165714264,-0.3141416013240814,-1.486077904701233,2.6090216636657715
65,62741,62735,0.005767235066741705,0.02383153885602951,0.9700151085853577,-4.082481384277344,0.04727679491043091,0.2568473219871521,1.9973515272140503,4.0474090576171875,0.2755303978919983,-0.31451478600502014,-1.5664037466049194,2.6079390048980713
66,62751,62745,-0.03084208071231842,0.13006113469600677,0.9966040849685669,-3.110322952270508,2.0853946208953857,-0.17029957473278046,1.997538685798645,4.049565315246582,0.2761193513870239,-0.2543530762195587,-1.556033968925476,2.605257987976074
67,62761,62755,-0.004976936616003513,0.06381384283304214,1.0369168519973755,-2.76871657371521,3.1518068313598633,0.14664044976234436,1.9969391822814941,4.047971725463867,0.2767593562602997,-0.23506978154182434,-1.6932212114334106,2.592690944671631
68,62771,62765,0.0441439151763916,-0.00868887547403574,0.9878770112991333,-1.6494300365447998,4.156010150909424,0.20602579414844513,1.9963343143463135,4.048250675201416,0.2774345278739929,-0.39088675379753113,-1.8027372360229492,2.614441394805908
69,62781,62775,-0.025327490642666817,-0.05274699628353119,1.0247182846069336,0.29763638973236084,4.854013442993164,0.06028241664171219,1.9975676536560059,4.047704219818115,0.2779798209667206,-0.38867610692977905,-1.7989833354949951,2.608086347579956
70,62791,62785,-0.0026323776692152023,-0.09175954759120941,0.9773352742195129,2.561901569366455,4.04668664932251,-0.27346280217170715,1.9980952739715576,4.047165870666504,0.2786334156990051,-0.38817790150642395,-1.7586920261383057,2.600135087966919
71,62801,62795,0.004453204572200775,-0.03570946678519249,1.014440894126892,4.157121658325195,2.7069451808929443,-0.029175493866205215,1.9972079992294312,4.0476789474487305,0.2796896696090698,-0.3848728835582733,-1.7641587257385254,2.5869901180267334
72,62811,62805,0.030795447528362274,-0.025125393643975258,1.0039644241333008,5.696034908294678,1.585198163986206,0.11187359690666199,1.9968546628952026,4.047181606292725,0.28036895394325256,-0.3657846748828888,-1.7350289821624756,2.574035882949829
73,62821,62815,0.01369259413331747,0.009802011772990227,1.0053240060806274,5.6605143547058105,1.7692344188690186,0.530220091342926,1.9962432384490967,4.046493053436279,0.28103184700012207,-0.5737708210945129,-1.68484628200531,2.622514247894287
74,62831,62825,0.0008368764538317919,-0.0005522920400835574,1.0463838577270508,6.07323694229126,2.2664899826049805,-0.19599251449108124,1.998198390007019,4.047364234924316,0.28123676776885986,-0.5364151000976562,-1.6273480653762817,2.609351634979248
75,62841,62835,0.01581343449652195,-0.0590093657374382,0.9593557715415955,6.702569961547852,-1.3519171476364136,-0.33669549226760864,1.9977843761444092,4.047450542449951,0.2819649875164032,-0.5605751872062683,-1.5600383281707764,2.6057939529418945
76,62851,62845,-0.05085938423871994,0.04326903447508812,1.071895956993103,5.6284918785095215,2.3473973274230957,0.006706423591822386,1.9975883960723877,4.047638416290283,0.28195875883102417,-0.6609938144683838,-1.4861843585968018,2.627122402191162
77,62861,62855,0.0493057481944561,-0.036684513092041016,1.0069661140441895,5.0002875328063965,0.38677695393562317,0.02769768051803112,1.9983497858047485,4.046759128570557,0.282616525888443,-0.678809642791748,-1.5056875944137573,2.620252847671509
78,62871,62865,0.006399849895387888,-0.015055396594107151,1.0210411548614502,4.53180456161499,-0.7279589772224426,-0.25138482451438904,1.998550295829773,4.047224998474121,0.28039222955703735,-0.6708213090896606,-1.445197343826294,2.615921974182129
79,62881,62875,0.039415523409843445,-0.11900100111961365,0.928264319896698,5.012631893157959,-1.625024437904358,-0.4168209731578827,1.999286413192749,4.046746730804443,0.28092682361602783,-0.7260843515396118,-1.3859142065048218,2.6292741298675537
80,62891,62885,-0.025443440303206444,0.052116189152002335,1.0793027877807617,6.355735778808594,-2.093538999557495,-1.0125058889389038,2.000258684158325,4.0460591316223145,0.281388521194458,-0.6070167422294617,-1.3094053268432617,2.600374221801758
81,62901,62895,0.03451100364327431,-0.07272019982337952,0.937325656414032,6.464651584625244,-2.4005072116851807,-1.0346004962921143,1.999009609222412,4.047588348388672,0.2826595604419708,-0.5652401447296143,-1.296584963798523,2.5780751705169678
82,62911,62905,-0.017001623287796974,0.013536423444747925,1.0362240076065063,6.987310886383057,-3.9273345470428467,-1.26189386844635,1.999096393585205,4.047817230224609,0.28325024247169495,-0.5803709626197815,-1.3403832912445068,2.5715720653533936
83,62921,62915,-0.04981742426753044,0.048423536121845245,0.9743726253509521,6.148218154907227,-1.074142336845398,-1.0894317626953125,1.9993239641189575,4.05134916305542,0.28382059931755066,-0.5265944004058838,-1.2270629405975342,2.5600388050079346
84,62931,62925,-0.04809238389134407,0.022544508799910545,1.0339667797088623,6.6072998046875,0.09697136282920837,-1.158137559890747,1.999538540840149,4.0512518882751465,0.2849137783050537,-0.5098177194595337,-1.194655179977417,2.546086072921753
85,62941,62935,0.031275298446416855,-0.028462233021855354,1.003761649131775,7.8299336433410645,0.7106978297233582,-1.0263235569000244,1.999993920326233,4.053066253662109,0.2855156660079956,-0.5084664821624756,-1.1408092975616455,2.5334389209747314
86,62951,62945,0.019139837473630905,-0.008603248745203018,0.9937017560005188,8.84898853302002,0.6226910352706909,-1.1866135597229004,1.9999879598617554,4.056818008422852,0.28615596890449524,-0.5123687386512756,-0.9894961714744568,2.5236101150512695
87,62961,62955,-0.016808170825242996,-0.015180022455751896,1.0069299936294556,9.318930625915527,0.04639787971973419,-1.2329232692718506,2.000410556793213,4.05600643157959,0.28678572177886963,-0.4383739233016968,-0.8330931663513184,2.4999608993530273
88,62971,62965,0.02542622573673725,-0.07679162919521332,1.0214256048202515,9.073956489562988,-0.32041817903518677,-1.0773216485977173,1.9993643760681152,4.056427001953125,0.2874848246574402,-0.5132114887237549,-0.8332069516181946,2.4972386360168457
89,62981,62975,0.059636641293764114,-0.10697159171104431,1.0309964418411255,7.729763507843018,-0.14077876508235931,-1.672518253326416,2.0002241134643555,4.057035446166992,0.2881072461605072,-0.4240483045578003,-0.831600546836853,2.463806629180908
90,62991,62985,0.006906316615641117,-0.06554288417100906,0.9729810953140259,5.917118549346924,-0.24095620214939117,-1.696042537689209,1.999479055404663,4.059969425201416,0.2888256311416626,-0.6433014869689941,-0.7665175199508667,2.48620867729187
91,63001,62995,0.0360584482550621,-0.008231878280639648,0.9807339906692505,5.328449726104736,-0.41413530707359314,-1.8417937755584717,2.001657009124756,4.060948371887207,0.29089638590812683,-0.8451865315437317,-0.7956539988517761,2.493485689163208
92,63011,63005,0.11809685826301575,0.023555301129817963,0.8801710605621338,6.327767372131348,-3.1570792198181152,-2.829967737197876,2.00410532951355,4.062343120574951,0.29139184951782227,-0.5714779496192932,-0.7410017848014832,2.4297661781311035
93,63021,63015,0.057497184723615646,0.022928303107619286,0.9787476658821106,8.668573379516602,-8.487591743469238,-1.6450674533843994,2.002492666244507,4.063251495361328,0.29253721237182617,-0.6872976422309875,-0.5827851891517639,2.432662010192871
94,63031,63025,-0.009808385744690895,-0.04165542498230934,0.9858357310295105,12.059239387512207,-11.134145736694336,-1.1159465312957764,2.0055131912231445,4.0637736320495605,0.2950022220611572,-0.42411988973617554,-0.4611130356788635,2.396193027496338
95,63041,63035,0.044117845594882965,-0.04777226224541664,1.0197460651397705,13.048149108886719,-12.667322158813477,-1.3066811561584473,2.0047686100006104,4.0641303062438965,0.29589393734931946,-0.3627406060695648,-0.30409687757492065,2.391497850418091
96,63051,63045,0.0010036628227680922,0.08345536887645721,0.9631261825561523,11.771072387695312,-9.650272369384766,-0.6989779472351074,2.0062880516052246,4.064087390899658,0.29658275842666626,-0.22467343509197235,-0.29426559805870056,2.369694471359253
97,63061,63055,-0.028856193646788597,0.1263706237077713,1.059566617012024,8.39819049835205,-4.080163478851318,-0.8753100633621216,2.007012367248535,4.065488338470459,0.29752883315086365,-0.013500943779945374,-0.09233476221561432,2.3576273918151855
98,63071,63065,-0.01483947690576315,0.07449212670326233,1.044165849685669,6.127962112426758,0.5977770090103149,-0.381496399641037,2.0068440437316895,4.064681053161621,0.298335999250412,-0.18555760383605957,-0.016670648008584976,2.3645830154418945
99,63081,63075,-0.039076097309589386,0.08629785478115082,1.008842945098877,4.35789680480957,3.979440450668335,0.6819900274276733,2.0085361003875732,4.064605236053467,0.2990818917751312,-0.19625067710876465,0.02765803039073944,2.3584606647491455
100,63091,63085,-0.02716200053691864,0.08876271545886993,0.9748626947402954,1.9884676933288574,5.10809326171875,0.7013465166091919,2.008929491043091,4.066110134124756,0.2999264597892761,-0.24291568994522095,0.037346526980400085,2.364145517349243
101,63101,63095,-0.008955096825957298,-0.0569547638297081,0.9700224995613098,-1.1130092144012451,6.057448387145996,-0.38765043020248413,2.0104684829711914,4.067060947418213,0.30185991525650024,-0.23809053003787994,0.06977488100528717,2.373059034347534
102,63111,63105,0.0110505735501647,0.006289021577686071,1.005626916885376,-0.6231769323348999,4.857417583465576,-0.8394010663032532,2.0094096660614014,4.06831693649292,0.3028028607368469,-0.3774658143520355,0.08342903852462769,2.3706462383270264
103,63121,63115,0.04268383979797363,-0.02331606112420559,0.9359263181686401,2.2065911293029785,2.0360329151153564,-1.167608380317688,2.010620355606079,4.070579528808594,0.3035639226436615,-0.3293152451515198,-0.02405541203916073,2.362543821334839
104,63131,63125,-0.04210652410984039,0.04970601946115494,1.0085598230361938,6.200418949127197,-1.9512661695480347,-0.4041893184185028,2.0106513500213623,4.071868419647217,0.30333369970321655,-0.22218023240566254,0.07906429469585419,2.3540432453155518
105,63141,63135,-0.11898568272590637,0.11116965860128403,0.9769813418388367,8.485992431640625,-5.6089677810668945,-0.2980935871601105,2.009474754333496,4.070230484008789,0.30417904257774353,-0.20864228904247284,0.22612223029136658,2.34488844871521
106,63151,63145,-0.08032146096229553,0.12676683068275452,0.9525901675224304,9.576967239379883,-7.459393501281738,-0.3998306691646576,2.0109293460845947,4.069273948669434,0.30490562319755554,-0.08280201256275177,0.3919160068035126,2.346346378326416
107,63161,63155,-0.04063810780644417,0.09511791914701462,1.017379879951477,7.605649471282959,-6.143350124359131,-0.5451783537864685,2.010798692703247,4.069109916687012,0.3060961365699768,-0.03647158294916153,0.40517011284828186,2.3396944999694824
108,63171,63165,0.0025327540934085846,-0.012374690733850002,0.9449946880340576,3.1903116703033447,-4.0804548263549805,-0.47860634326934814,2.0123395919799805,4.071204662322998,0.30684471130371094,0.13737918436527252,0.4480065405368805,2.343168020248413
109,63181,63175,-0.01074286364018917,-0.004161612130701542,0.9543827772140503,-0.447212278842926,-2.171114444732666,-0.07696551829576492,2.0116076469421387,4.072182655334473,0.307638019323349,0.18677489459514618,0.4242803156375885,2.3387207984924316
110,63191,63185,-0.032947931438684464,0.07122576236724854,0.967528223991394,-3.3848307132720947,0.8461260795593262,-0.35969528555870056,2.0121939182281494,4.073531627655029,0.3083024322986603,0.1127852275967598,0.41820982098579407,2.327956438064575
111,63201,63195,-0.03672345355153084,0.12111826986074448,0.906133770942688,-4.039480209350586,3.9825613498687744,-0.1336703598499298,2.014209032058716,4.073661804199219,0.30750420689582825,0.13650847971439362,0.37375396490097046,2.326658248901367
112,63211,63205,0.011580991558730602,0.01672658696770668,0.9139025211334229,-2.0334973335266113,6.155667304992676,-0.10250789672136307,2.0146751403808594,4.074075222015381,0.30801019072532654,0.12108762562274933,0.3433060050010681,2.327829122543335
113,63221,63215,-0.018122967332601547,-0.023279471322894096,0.9686314463615417,0.37648311257362366,8.166090965270996,-0.00285630882717669,2.0145037174224854,4.074975490570068,0.3084331750869751,0.06835624575614929,0.34923580288887024,2.336754560470581
114,63231,63225,-0.011230162344872952,0.025747796520590782,0.9821020364761353,2.6581132411956787,8.467534065246582,-0.1787945032119751,2.0150625705718994,4.075195789337158,0.3105959892272949,-0.000546926399692893,0.46360233426094055,2.34251070022583
115,63241,63235,0.001870382810011506,0.10634962469339371,0.9111392498016357,4.635178565979004,7.142757892608643,0.9105618596076965,2.0151100158691406,4.0757904052734375,0.31103408336639404,-0.20927229523658752,0.46053263545036316,2.3327372074127197
116,63251,63245,-0.010665114037692547,0.10607947409152985,1.0198311805725098,4.696005821228027,3.187574625015259,0.9754511117935181,2.0173299312591553,4.0760111808776855,0.3113473951816559,-0.29892560839653015,0.47526848316192627,2.3384673595428467
117,63261,63255,0.007478626444935799,-0.01873820647597313,0.9524922370910645,2.6359012126922607,-1.2938584089279175,0.8504284024238586,2.0183534622192383,4.076491832733154,0.31109610199928284,-0.32010138034820557,0.5483449101448059,2.3472070693969727
118,63271,63265,0.005988287273794413,-0.043658919632434845,0.9628477692604065,-1.0016021728515625,-5.432279109954834,1.2093828916549683,2.019350528717041,4.076221466064453,0.3113793730735779,-0.19674570858478546,0.572216808795929,2.3675122261047363
119,63281,63275,-0.014957082457840443,-0.01110861636698246,0.9918361902236938,-5.828664779663086,-7.558184623718262,1.1940699815750122,2.018846273422241,4.076344013214111,0.3117249310016632,-0.16992998123168945,0.5246154069900513,2.376861333847046
120,63291,63285,0.04901336506009102,-0.051435064524412155,0.9308688640594482,-10.770323753356934,-9.066591262817383,1.2290170192718506,2.0201189517974854,4.077178955078125,0.31130850315093994,-0.10382533818483353,0.3942016065120697,2.3796186447143555
121,63301,63295,-0.004730832297354937,0.03677203878760338,1.0261540412902832,-10.619852066040039,-6.571689128875732,1.0146032571792603,2.020716905593872,4.077255725860596,0.3114602863788605,0.09947620332241058,0.301586776971817,2.4057602882385254
122,63311,63305,0.018807249143719673,-0.03942031413316727,0.9542974233627319,-7.408827304840088,-2.34118914604187,1.151944637298584,2.0200672149658203,4.077793598175049,0.3116668164730072,0.08896532654762268,0.3077372908592224,2.4052367210388184
123,63321,63315,0.00045830392627976835,-0.0024692874867469072,0.9888469576835632,-5.865329265594482,1.0551270246505737,0.6650381684303284,2.021605968475342,4.077001571655273,0.31181636452674866,0.1692369431257248,0.19971606135368347,2.413212776184082
124,63331,63325,0.027973929420113564,-0.02376405894756317,0.9735221266746521,-6.192510604858398,5.734997749328613,-0.7020035982131958,2.0211145877838135,4.076735019683838,0.3133779764175415,-0.04951811209321022,0.10579317808151245,2.387282133102417
125,63341,63335,-0.003557321848347783,-0.05743059515953064,0.9829735159873962,-6.478001117706299,8.464107513427734,-0.4823984205722809,2.0234532356262207,4.075825214385986,0.313508540391922,-0.021876506507396698,0.008106183260679245,2.3860514163970947
126,63351,63345,0.001787451095879078,-0.10507265478372574,0.9627219438552856,-3.7693700790405273,8.02016544342041,-1.2046020030975342,2.023345470428467,4.076529502868652,0.3137490451335907,-0.09217116981744766,0.006051933858543634,2.380408525466919
127,63361,63355,-0.015090647153556347,-0.022159116342663765,1.0014530420303345,-1.6723464727401733,6.1611328125,-2.6198482513427734,2.0243029594421387,4.076087951660156,0.3132869005203247,-0.14392641186714172,-0.03702212870121002,2.3621251583099365
128,63371,63365,0.029718998819589615,0.026773180812597275,0.9863690137863159,2.018044948577881,5.156551361083984,-3.9259212017059326,2.025749921798706,4.076179027557373,0.3134244978427887,-0.18386320769786835,-0.034063633531332016,2.3380794525146484
129,63381,63375,0.05229971557855606,0.06930612027645111,1.0040504932403564,3.99873685836792,3.9443273544311523,-4.24163293838501,2.02604079246521,4.076284885406494,0.3135334551334381,-0.35188373923301697,0.018525386229157448,2.2935211658477783
130,63391,63385,0.00036548663047142327,0.03379127383232117,1.0357105731964111,4.681839466094971,2.249070405960083,-4.189684867858887,2.0278475284576416,4.07647705078125,0.3140062391757965,-0.32492294907569885,0.09455453604459763,2.2566049098968506
131,63401,63395,0.029135821387171745,-0.025281641632318497,0.9801263809204102,3.69338059425354,1.2041598558425903,-4.4727959632873535,2.027602434158325,4.076593399047852,0.31424805521965027,-0.2850833237171173,0.16300274431705475,2.2246809005737305
132,63411,63405,-0.038535039871931076,0.07516761124134064,1.024857759475708,-0.06204366311430931,0.2575365900993347,-5.360133171081543,2.027517318725586,4.076850414276123,0.31442752480506897,-0.22786378860473633,0.11752983182668686,2.1826682090759277
133,63421,63415,-0.007470005191862583,0.003143936861306429,0.9450650215148926,-2.6304683685302734,-0.14577391743659973,-6.6768574714660645,2.027519702911377,4.0775322914123535,0.31464463472366333,-0.3896438479423523,0.17184917628765106,2.107165813446045
134,63431,63425,-0.036525748670101166,0.03002798929810524,1.0573862791061401,-2.9424867630004883,1.713340401649475,-7.3643035888671875,2.029848098754883,4.076421737670898,0.31655433773994446,-0.40141505002975464,0.11947812885046005,2.0440170764923096
135,63441,63435,-0.0011304375948384404,-0.05129491910338402,0.9683876037597656,-1.203955888748169,0.35075587034225464,-8.183672904968262,2.030402183532715,4.0772624015808105,0.3167992830276489,-0.3312583267688751,0.08585374057292938,1.9748278856277466
136,63451,63445,-0.03530428931117058,0.016658136621117592,1.0424622297286987,-0.7498352527618408,0.5498483180999756,-7.839296817779541,2.0303990840911865,4.07697868347168,0.3171420395374298,-0.2633204460144043,0.07089623063802719,1.8982436656951904
137,63461,63455,0.017493201419711113,0.00042807371937669814,0.9990260601043701,-0.09902149438858032,-0.7606137990951538,-7.031356334686279,2.0298011302948,4.076136589050293,0.3129611611366272,-0.3432347774505615,0.06747839599847794,1.8085134029388428
138,63471,63465,0.008268343284726143,-0.04321110621094704,0.9655748605728149,-0.7340653538703918,-0.43023356795310974,-6.0118408203125,2.0311930179595947,4.075913906097412,0.3129391670227051,-0.3369540572166443,0.059707894921302795,1.733548879623413
139,63481,63475,0.025621406733989716,-0.07157492637634277,0.9567803144454956,0.20809122920036316,0.07001008838415146,-5.335704803466797,2.0318422317504883,4.075620651245117,0.3129602074623108,-0.3335231840610504,0.13133364915847778,1.6836729049682617
140,63491,63485,-0.0057779476046562195,0.010680941864848137,1.011709213256836,2.741870641708374,1.8711791038513184,-4.789760589599609,2.032541275024414,4.0752153396606445,0.3142571449279785,-0.2736949622631073,0.14899593591690063,1.6276772022247314
141,63501,63495,0.016946634277701378,-0.026067132130265236,0.9937469959259033,5.198577404022217,2.6555817127227783,-3.830430746078491,2.03177809715271,4.074281692504883,0.3143550753593445,-0.2421904355287552,0.2049926072359085,1.5793439149856567
142,63511,63505,-0.009559675119817257,-0.02940218709409237,1.0155229568481445,5.364072322845459,3.4955146312713623,-3.3657398223876953,2.0316221714019775,4.072841167449951,0.3144460916519165,-0.29999542236328125,0.2822763919830322,1.5342397689819336
143,63521,63515,0.02643485739827156,-0.10203764587640762,0.941173791885376,3.2943179607391357,4.76540470123291,-2.1261837482452393,2.032916307449341,4.072750568389893,0.3144876956939697,-0.3037926256656647,0.34231483936309814,1.506030559539795
144,63531,63525,-0.0003460668958723545,0.11193045228719711,1.0405433177947998,-1.0275137424468994,5.880568504333496,-1.595327377319336,2.0330381393432617,4.072494029998779,0.31401997804641724,-0.3378615379333496,0.2727583348751068,1.484043836593628
145,63541,63535,0.04920239746570587,0.02473382279276848,0.9062338471412659,-6.641355991363525,2.614420175552368,-1.123193621635437,2.033599376678467,4.073296070098877,0.31409335136413574,-0.42108550667762756,0.20384393632411957,1.4658715724945068
146,63551,63545,-0.00367685966193676,0.02590825967490673,1.0194470882415771,-10.282122611999512,2.663271903991699,-0.8326961994171143,2.034348249435425,4.073668003082275,0.31405535340309143,-0.47654974460601807,0.06473749130964279,1.4520976543426514
147,63561,63555,0.038144923746585846,0.000202338385861367,0.994434118270874,-8.897055625915527,0.9971033930778503,-1.3281418085098267,2.0352210998535156,4.07432222366333,0.31433334946632385,-0.5151839852333069,-0.08928363770246506,1.4388381242752075
148,63571,63565,-0.04950309917330742,0.045878421515226364,0.9980787634849548,-3.1305150985717773,-1.7520127296447754,-1.3967822790145874,2.0350677967071533,4.07450008392334,0.31433936953544617,-0.4356520473957062,0.03883858025074005,1.4355295896530151
149,63581,63575,-0.03468439355492592,0.0575358010828495,0.9773429036140442,2.49772572517395,-4.065805435180664,-1.641564965248108,2.0351881980895996,4.07236385345459,0.3145020306110382,-0.4685010612010956,0.01921573281288147,1.4184412956237793
150,63591,63585,-0.0063924165442585945,-0.02014491893351078,1.012437105178833,4.360400676727295,-5.096620559692383,-2.407355308532715,2.0367186069488525,4.072183609008789,0.3153064250946045,-0.6174558997154236,0.06575190275907516,1.3859976530075073
151,63601,63595,-0.0040312823839485645,0.00886868592351675,1.0120699405670166,2.751106023788452,-4.729366779327393,-3.254945755004883,2.039283514022827,4.071497917175293,0.31518349051475525,-0.5214384198188782,0.11256984621286392,1.360846996307373
152,63611,63605,0.013118378818035126,-0.007803360931575298,1.0259418487548828,-1.3750795125961304,-4.898174285888672,-4.115835189819336,2.0392909049987793,4.070272445678711,0.3153223395347595,-0.42818233370780945,0.10773774236440659,1.3193851709365845
153,63621,63615,-0.005145137198269367,-0.013024576008319855,1.006371259689331,-5.9507880210876465,-4.5390801429748535,-3.4484498500823975,2.0401015281677246,4.069999694824219,0.3159349858760834,-0.48747560381889343,0.03488321602344513,1.273830533027649
154,63631,63625,-0.0036810743622481823,-0.0340244434773922,0.9936455488204956,-8.036602973937988,-2.478039503097534,-2.80546236038208,2.0408904552459717,4.070079803466797,0.31597229838371277,-0.4050543010234833,-0.014798552729189396,1.2369537353515625
155,63641,63635,0.008501971140503883,-0.006708680652081966,1.0270514488220215,-7.581618309020996,-2.2935431003570557,-2.230989694595337,2.0415070056915283,4.070465087890625,0.31608274579048157,-0.2695843577384949,-0.15272746980190277,1.2147657871246338
156,63651,63645,0.003084407886490226,-0.029843561351299286,1.0708439350128174,-5.841025352478027,-0.7237633466720581,-2.239173173904419,2.0404205322265625,4.070263385772705,0.3163188695907593,-0.3922778069972992,-0.2712200880050659,1.1866166591644287
157,63661,63655,0.023235084488987923,-0.09283401072025299,1.0089765787124634,-1.511907696723938,-1.2094182968139648,-2.386260747909546,2.0420005321502686,4.069900035858154,0.3151836097240448,-0.2811681628227234,-0.2536083459854126,1.1618881225585938
158,63671,63665,0.02141616679728031,-0.08567800372838974,1.0021063089370728,3.177450656890869,-5.996453762054443,-3.447305202484131,2.0423293113708496,4.069489479064941,0.31541919708251953,-0.20679549872875214,-0.2402983158826828,1.1450762748718262
159,63681,63675,0.03599812090396881,-0.030277499929070473,0.9863176941871643,4.95535945892334,-8.948725700378418,-4.293840408325195,2.0418238639831543,4.067958831787109,0.3155977427959442,-0.07429859787225723,-0.17669250071048737,1.0965917110443115
160,63691,63685,-0.004430809523910284,-0.0188940167427063,1.008547306060791,5.166155815124512,-9.993308067321777,-5.5400166511535645,2.04032826423645,4.067915439605713,0.31579825282096863,0.16262751817703247,-0.09913938492536545,1.0459245443344116
161,63701,63695,-0.01942424662411213,-0.05121408402919769,1.0080252885818481,2.964833974838257,-6.640119552612305,-6.934489727020264,2.0395092964172363,4.066333770751953,0.31599268317222595,0.05403576046228409,-0.040205374360084534,0.9822677969932556
162,63711,63705,0.022287487983703613,0.009150494821369648,0.9621193408966064,-0.6010680794715881,-0.9068652987480164,-7.496160507202148,2.0418028831481934,4.065385818481445,0.31616532802581787,0.04194401577115059,-0.03162528574466705,0.9009139537811279
163,63721,63715,-0.02083318494260311,-0.0015269250143319368,1.027799129486084,-5.455051422119141,3.9797229766845703,-8.260366439819336,2.0431580543518066,4.065946578979492,0.31357383728027344,0.09814257174730301,-0.16888776421546936,0.8342911005020142
164,63731,63725,-0.010267891921103,-0.02085510641336441,0.9904823899269104,-8.393167495727539,5.4162278175354,-9.985357284545898,2.0433948040008545,4.066834449768066,0.3135993480682373,0.09548656642436981,-0.28163260221481323,0.7355139255523682
165,63741,63735,0.009217347018420696,-0.06055614352226257,0.9643641114234924,-8.33288860321045,3.6519486904144287,-10.473443031311035,2.043768882751465,4.067347049713135,0.3136027157306671,-0.05627874284982681,-0.3380533456802368,0.6275599002838135
166,63751,63745,0.0031918645836412907,0.01167608704417944,1.056545615196228,-4.371927738189697,2.6678988933563232,-10.781018257141113,2.0454907417297363,4.066736221313477,0.31354305148124695,-0.09081784635782242,-0.3607880771160126,0.5217985510826111
167,63761,63755,-0.01602308638393879,-0.051568739116191864,1.029362678527832,2.2669575214385986,3.3133485317230225,-10.42689323425293,2.046414613723755,4.066303253173828,0.31404832005500793,-0.05146592855453491,-0.22393926978111267,0.40747591853141785
168,63771,63765,-0.01616915687918663,-0.018117662519216537,1.0186851024627686,7.374300479888916,4.191517353057861,-9.917512893676758,2.0458476543426514,4.064241409301758,0.31420040130615234,-0.037535686045885086,-0.22173288464546204,0.3007130026817322
169,63781,63775,0.005414342507719994,-0.020201457664370537,1.0103622674942017,7.950875282287598,1.6301699876785278,-9.902464866638184,2.0450432300567627,4.064562797546387,0.3143754005432129,-0.08848879486322403,-0.09890846908092499,0.2159782499074936
170,63791,63785,-0.013834322802722454,0.02962692454457283,1.0504329204559326,5.23803186416626,-1.6073755025863647,-10.544520378112793,2.04667329788208,4.0659637451171875,0.31298184394836426,-0.01008208841085434,-0.08103229105472565,0.12356546521186829
171,63801,63795,-0.02822534553706646,-0.0038783294148743153,0.9888699650764465,0.41073423624038696,-2.508862257003784,-11.005032539367676,2.0451040267944336,4.066218852996826,0.31314152479171753,0.012828866951167583,-0.043007463216781616,0.015735415741801262
172,63811,63805,-0.0013397503644227982,0.018762916326522827,0.9570401310920715,-3.98935866355896,-0.802585244178772,-11.490970611572266,2.045746326446533,4.066004276275635,0.31319865584373474,0.031641241163015366,-0.1592092514038086,-0.09179843962192535
173,63821,63815,-0.0337725467979908,0.028555357828736305,1.0613080263137817,-6.614720821380615,3.651691198348999,-11.072999000549316,2.046625852584839,4.066775798797607,0.3157883286476135,-0.15024088323116302,-0.16792359948158264,-0.1956518590450287
174,63831,63825,-0.054809387773275375,-0.02963155135512352,1.0947699546813965,-7.400461673736572,6.910080909729004,-11.570172309875488,2.0481457710266113,4.066222667694092,0.3159294128417969,-0.15831546485424042,-0.28522351384162903,-0.31876859068870544
175,63841,63835,0.011201257817447186,-0.010963997803628445,1.0026956796646118,-7.352899551391602,4.736710071563721,-10.781280517578125,2.049192190170288,4.067697525024414,0.31623411178588867,-0.2493901252746582,-0.3275688886642456,-0.41453638672828674
176,63851,63845,-0.003788538044318557,-0.05095105245709419,0.9802631735801697,-5.060151100158691,0.28480586409568787,-9.490540504455566,2.05007266998291,4.067428112030029,0.31650713086128235,-0.20076538622379303,-0.3526206612586975,-0.5220675468444824
177,63861,63855,0.011642140336334705,0.006794393993914127,1.0251821279525757,-0.5253039002418518,-3.964008331298828,-7.257836818695068,2.049582004547119,4.066903591156006,0.31466707587242126,-0.08801845461130142,-0.3219655752182007,-0.6051419377326965
178,63871,63865,-0.00836910679936409,-0.04204899072647095,0.9874670505523682,3.160722255706787,-6.201659679412842,-6.2649431228637695,2.049424409866333,4.0666608810424805,0.3149561583995819,-0.004019162617623806,-0.3017254173755646,-0.6748222708702087
179,63881,63875,0.023866472765803337,-0.049406345933675766,0.9830090999603271,5.147582530975342,-2.3410260677337646,-5.323063850402832,2.049290180206299,4.065741539001465,0.31520766019821167,-0.021598737686872482,-0.23662172257900238,-0.7441510558128357
180,63891,63885,-0.012904633767902851,-0.05173369124531746,0.9901378750801086,4.822049617767334,3.9277000427246094,-3.678745985031128,2.0507991313934326,4.064978122711182,0.3173363506793976,0.038674496114254,-0.16161468625068665,-0.8037583231925964
181,63901,63895,0.08061995357275009,-0.12463071197271347,0.9479584693908691,3.2224435806274414,8.581600189208984,-3.0719387531280518,2.0509660243988037,4.064645290374756,0.3176995813846588,3.579601980163716e-05,-0.10855112224817276,-0.8401476740837097
182,63911,63905,-0.007095142267644405,-0.05610329657793045,0.9916523694992065,2.8847219944000244,13.284957885742188,-2.5029149055480957,2.0515663623809814,4.064956188201904,0.3180377781391144,-0.12214229255914688,-0.07135023176670074,-0.8606227040290833
183,63921,63915,0.007536644581705332,-0.015809448435902596,0.9752880334854126,3.987835168838501,16.316356658935547,-2.1647934913635254,2.052408456802368,4.0645270347595215,0.3188875913619995,-0.3076048493385315,-0.02600306086242199,-0.8843380808830261
184,63931,63925,0.011958505026996136,-0.04256267100572586,0.9509864449501038,4.619880199432373,15.141318321228027,-2.2447993755340576,2.052976131439209,4.0634307861328125,0.31921908259391785,-0.5002687573432922,0.033348049968481064,-0.9169278740882874
185,63941,63935,0.010692935436964035,-0.006620028056204319,0.9837831258773804,3.9198758602142334,10.48592472076416,-2.9258217811584473,2.0543737411499023,4.062596321105957,0.31952959299087524,-0.4824003279209137,0.012511144392192364,-0.952964723110199
186,63951,63945,0.004134318325668573,-0.02095513790845871,0.9717788696289062,2.291020154953003,5.508112907409668,-3.1060280799865723,2.0529792308807373,4.062306880950928,0.3200633227825165,-0.5461776852607727,0.053498148918151855,-0.9941147565841675
187,63961,63955,0.008348649367690086,-0.06382650882005692,0.9362671375274658,2.5201971530914307,-0.6031238436698914,-2.0458462238311768,2.053588628768921,4.062145233154297,0.321731299161911,-0.5205518007278442,0.08423597365617752,-1.032090663909912
188,63971,63965,0.005969460122287273,-0.1121460348367691,0.9977508783340454,1.8180516958236694,-0.15121807157993317,-1.3833441734313965,2.0535757541656494,4.061230182647705,0.32213151454925537,-0.679767906665802,0.03502479940652847,-1.051037073135376
189,63981,63975,-0.006370094139128923,-0.01983659341931343,1.0245975255966187,1.875343918800354,1.759390115737915,-0.8528795838356018,2.055969476699829,4.061779499053955,0.3223619759082794,-0.6879228949546814,0.060115039348602295,-1.0566054582595825
190,63991,63985,-0.020427156239748,0.006445343140512705,1.0034552812576294,3.525531530380249,3.614823818206787,-0.02973027341067791,2.0565507411956787,4.062400817871094,0.3224223852157593,-0.6598520874977112,0.10103162378072739,-1.0502320528030396
191,64001,63995,0.030824018642306328,0.01577433943748474,0.9440857172012329,5.251487731933594,1.7513312101364136,-0.1001272052526474,2.056837797164917,4.062163352966309,0.3227326571941376,-0.7054390907287598,0.16933763027191162,-1.0430681705474854
192,64011,64005,0.01596827059984207,0.07156986743211746,0.9688781499862671,5.84537410736084,-1.2357356548309326,-0.16352643072605133,2.057795524597168,4.062058448791504,0.32297539710998535,-0.7122617363929749,0.2549987733364105,-1.0434629917144775
193,64021,64015,-0.009553590789437294,0.02811555378139019,1.0025908946990967,5.497418403625488,-3.274803638458252,-0.2679919898509979,2.058084726333618,4.061742305755615,0.32015925645828247,-0.6777965426445007,0.3400923013687134,-1.0352869033813477
194,64031,64025,-0.0030225825030356646,-0.040762122720479965,0.9410991072654724,3.336127281188965,-4.233532428741455,-0.49524861574172974,2.058858633041382,4.061346054077148,0.32018429040908813,-0.619073212146759,0.3976615369319916,-1.0321787595748901
195,64041,64035,0.02392333373427391,-0.030360503122210503,0.9576156139373779,0.14046789705753326,-2.533491373062134,-0.4941155016422272,2.0589966773986816,4.061351299285889,0.32019466161727905,-0.6482932567596436,0.3296906650066376,-1.0459232330322266
196,64051,64045,0.007939927279949188,0.014413372613489628,1.0066930055618286,-4.704305648803711,-0.5469377636909485,-0.39608603715896606,2.0601398944854736,4.0614800453186035,0.32200929522514343,-0.5495507121086121,0.3537847697734833,-1.0573140382766724
197,64061,64055,-0.02087860181927681,0.032054826617240906,1.0158934593200684,-6.552168369293213,0.737249493598938,-0.7035825848579407,2.0595881938934326,4.06094217300415,0.3220844268798828,-0.48376578092575073,0.2443675398826599,-1.0712295770645142
198,64071,64065,0.002462290693074465,-0.022812053561210632,0.9676789045333862,-5.643039703369141,1.2260806560516357,-0.9056032299995422,2.058811664581299,4.060572624206543,0.322158545255661,-0.4355967938899994,0.13654732704162598,-1.0797573328018188
199,64081,64075,0.020101768895983696,0.007102137431502342,0.988927960395813,-3.825265645980835,2.685800313949585,-0.2744106650352478,2.059084177017212,4.0609354972839355,0.3221752345561981,-0.7143464088439941,0.12986807525157928,-1.1224486827850342
200,64091,64085,-0.01569932885468006,0.007629951927810907,1.022323489189148,-1.2527512311935425,2.045804023742676,0.5174630880355835,2.062223434448242,4.058944225311279,0.3230140209197998,-0.6696910858154297,0.07974790036678314,-1.1212949752807617
201,64101,64095,0.01009761355817318,-0.04460913687944412,0.9478636980056763,0.798434853553772,-1.4561994075775146,1.2678768634796143,2.0625622272491455,4.057872295379639,0.3231128752231598,-0.5969361066818237,0.22077181935310364,-1.1204092502593994
202,64111,64105,-0.0008732921560294926,-0.02763277105987072,0.9697688221931458,3.4068779945373535,-6.84091329574585,1.6633071899414062,2.0626392364501953,4.056157112121582,0.32316869497299194,-0.6057899594306946,0.30911773443222046,-1.1021015644073486
203,64121,64115,0.00604308070614934,0.021112149581313133,1.0213122367858887,4.193258285522461,-10.924524307250977,1.3892830610275269,2.0637357234954834,4.055168628692627,0.3249937891960144,-0.6726426482200623,0.34843671321868896,-1.0937869548797607
204,64131,64125,-0.008126335218548775,-0.022662172093987465,1.0195001363754272,0.406503289937973,-6.948993682861328,1.3407036066055298,2.066218852996826,4.054816722869873,0.324950635433197,-0.4431808292865753,0.2817089259624481,-1.0817170143127441
205,64141,64135,0.005960790440440178,-0.05962308123707771,0.9695844054222107,-2.802638530731201,-5.06179666519165,1.628922939300537,2.065840005874634,4.055510997772217,0.3251785933971405,-0.4147460162639618,0.3155266344547272,-1.0779467821121216
206,64151,64145,-0.13282781839370728,-0.08159191161394119,1.0678294897079468,-6.177067279815674,-1.7550820112228394,1.855843424797058,2.066818952560425,4.053849697113037,0.3235754072666168,-0.41699883341789246,0.21959324181079865,-1.0786055326461792
207,64161,64155,-0.12952564656734467,-0.03745334967970848,1.0864782333374023,-7.786592483520508,2.735161781311035,2.0968637466430664,2.0684359073638916,4.05419921875,0.3235771358013153,-0.41334980726242065,0.15112976729869843,-1.068902850151062
208,64171,64165,0.027860600501298904,0.010500846430659294,0.9961286783218384,-6.873980522155762,4.1352386474609375,1.9268438816070557,2.069291830062866,4.053741931915283,0.3236692249774933,-0.46170666813850403,0.15926453471183777,-1.0443203449249268
209,64181,64175,0.044797446578741074,0.026639893651008606,0.9804530739784241,-4.576664924621582,3.9875025749206543,2.1520471572875977,2.0704593658447266,4.052671909332275,0.3237570822238922,-0.5908918976783752,0.03916257992386818,-1.0344287157058716
210,64191,64185,-0.03284554183483124,-0.0011739522451534867,0.9575430750846863,-2.354705333709717,0.7388131022453308,2.887376070022583,2.0717339515686035,4.053385257720947,0.32622402906417847,-0.604573667049408,0.11168232560157776,-0.9904381036758423
211,64201,64195,-0.05445941910147667,0.059460338205099106,0.9858947396278381,-0.6833952069282532,-3.9205825328826904,3.7591707706451416,2.072197437286377,4.051560401916504,0.3264269232749939,-0.47778505086898804,0.05471361428499222,-0.9649773836135864
212,64211,64205,-0.02075319178402424,-0.001936518820002675,0.9837766289710999,0.36714664101600647,-8.454120635986328,4.382444381713867,2.0721731185913086,4.0514020919799805,0.3267420828342438,-0.4369949996471405,0.023583143949508667,-0.9287498593330383
213,64221,64215,0.03427862375974655,-0.020059920847415924,0.9522619247436523,0.6652547717094421,-9.494138717651367,4.914718151092529,2.0730226039886475,4.051336765289307,0.3265717923641205,-0.420662522315979,0.008528691716492176,-0.8876168727874756
214,64231,64225,-0.01770266331732273,-0.02856108918786049,1.0203357934951782,-1.3882020711898804,-9.080677032470703,5.670801162719727,2.07476806640625,4.051226615905762,0.32659831643104553,-0.3128218352794647,-0.017437869682908058,-0.8253760933876038
215,64241,64235,-0.034661583602428436,-0.114472396671772,1.0544517040252686,-3.511887550354004,-6.686923027038574,5.697734355926514,2.0757739543914795,4.051792144775391,0.3266676664352417,-0.15498916804790497,-0.08124912530183792,-0.7686986327171326
216,64251,64245,-0.02922230400145054,-0.1734851449728012,0.9942524433135986,-4.161447525024414,-1.7000243663787842,6.062291145324707,2.0757529735565186,4.051180839538574,0.32625752687454224,-0.1429947316646576,-0.014447731897234917,-0.7117180228233337
217,64261,64255,0.018070174381136894,-0.04951062053442001,0.9661124348640442,-5.440027236938477,3.616393804550171,6.25127649307251,2.077681064605713,4.050300598144531,0.32630226016044617,-0.14078302681446075,-0.04602392017841339,-0.6628245711326599
218,64271,64265,-0.003307555103674531,-0.01788971573114395,0.9669544100761414,-6.885085582733154,6.00723123550415,7.062300205230713,2.0779688358306885,4.048977851867676,0.3263326585292816,-0.19968052208423615,-0.17546413838863373,-0.6053064465522766
219,64281,64275,0.0530468225479126,-0.011687069199979305,0.9531495571136475,-8.398468017578125,4.172906875610352,7.380911350250244,2.079188108444214,4.049267768859863,0.32147520780563354,-0.26130831241607666,-0.17689189314842224,-0.5488682389259338
220,64291,64285,0.020015330985188484,-0.045306961983442307,0.9641945958137512,-9.849308013916016,1.0573304891586304,7.79038667678833,2.0803070068359375,4.047614097595215,0.32114240527153015,-0.27751559019088745,-0.35920771956443787,-0.474290132522583
221,64301,64295,0.06892614811658859,-0.13559289276599884,0.9730386137962341,-9.174481391906738,-1.0293259620666504,8.075918197631836,2.0794131755828857,4.0476508140563965,0.3207346498966217,-0.25119516253471375,-0.31487444043159485,-0.40559592843055725
222,64311,64305,0.0100902384147048,-0.03632955253124237,0.9975689649581909,-8.993391990661621,0.2275455743074417,7.853043079376221,2.0803444385528564,4.0461320877075195,0.3204113841056824,-0.2979021370410919,-0.49846401810646057,-0.3270116150379181
223,64321,64315,-0.00869261659681797,0.014108313247561455,0.9384600520133972,-6.823822021484375,0.26953044533729553,7.0156707763671875,2.0818893909454346,4.0467023849487305,0.32065826654434204,-0.34733155369758606,-0.5806885361671448,-0.2492673695087433
224,64331,64325,-0.0006386929308064282,0.034556519240140915,1.0308308601379395,-1.6027179956436157,-3.374156951904297,5.822354793548584,2.0833170413970947,4.046412944793701,0.320221483707428,-0.2885635495185852,-0.6688764691352844,-0.1823977828025818
225,64341,64335,-0.005907706916332245,-0.023109959438443184,0.9763231873512268,4.433699131011963,-7.740523338317871,5.918698787689209,2.083799123764038,4.046216011047363,0.3198677599430084,-0.3889070153236389,-0.5135698318481445,-0.12264954298734665
226,64351,64345,0.021623967215418816,-0.048805687576532364,0.9964871406555176,8.07755184173584,-9.441754341125488,6.101766586303711,2.0866594314575195,4.044429302215576,0.3165901303291321,-0.1349683254957199,-0.4389567971229553,-0.054554689675569534
227,64361,64355,-0.016997113823890686,0.03821735084056854,1.048334002494812,8.902809143066406,-8.497785568237305,6.174760341644287,2.086284637451172,4.044397830963135,0.316221684217453,0.03234658017754555,-0.25345027446746826,-0.0038629716727882624
228,64371,64365,0.027572067454457283,-0.023411955684423447,0.9905173182487488,5.206592559814453,-4.105785369873047,6.3176140785217285,2.086251974105835,4.042975425720215,0.3157046437263489,-0.052303094416856766,-0.32204189896583557,0.0767948105931282
229,64381,64375,0.03668034076690674,0.02544107288122177,0.982347846031189,-1.5457794666290283,2.027377128601074,5.3120880126953125,2.0895581245422363,4.044226169586182,0.31255143880844116,-0.01290041022002697,-0.32637548446655273,0.11502041667699814
230,64391,64385,0.039458051323890686,-0.03419699892401695,0.9778751730918884,-8.894745826721191,1.8087847232818604,4.0082502365112305,2.0903408527374268,4.0435662269592285,0.3118639588356018,-0.09157836437225342,-0.44789642095565796,0.15785962343215942
231,64401,64395,-0.024260491132736206,0.0001792661496438086,1.0696438550949097,-12.931225776672363,-0.7539479732513428,3.092334032058716,2.091972589492798,4.043412208557129,0.3110887110233307,-0.21215707063674927,-0.5745401382446289,0.18156549334526062
232,64411,64405,0.00886963214725256,-0.05929131433367729,0.9894800186157227,-12.971278190612793,-7.794297695159912,2.5907607078552246,2.094130039215088,4.043062686920166,0.31019991636276245,-0.15618519484996796,-0.6521658301353455,0.20976205170154572
233,64421,64415,-0.05034330114722252,0.04477015510201454,1.0681517124176025,-9.076981544494629,-14.76617431640625,2.9600167274475098,2.0949158668518066,4.042581081390381,0.3074720501899719,-0.06635577231645584,-0.8501526117324829,0.24833936989307404
234,64431,64425,-0.02670290134847164,0.028340399265289307,1.050837516784668,-1.656033992767334,-18.814374923706055,4.288816928863525,2.0962860584259033,4.043185710906982,0.30665263533592224,0.265799880027771,-0.8693932294845581,0.27262866497039795
235,64441,64435,0.006178135052323341,-0.04589429870247841,1.0328607559204102,4.76238489151001,-16.6337890625,5.13845157623291,2.094804048538208,4.042266368865967,0.30619755387306213,0.44011834263801575,-0.7755213379859924,0.31732866168022156
236,64451,64445,0.006672231014817953,-0.024547938257455826,1.0788813829421997,9.724946022033691,-7.204569339752197,6.865690231323242,2.0957329273223877,4.04107666015625,0.3074131906032562,0.3725169897079468,-0.6659525632858276,0.40027210116386414
237,64461,64455,0.04028499498963356,-0.10476657748222351,1.0785404443740845,8.234374046325684,3.087862491607666,6.595180988311768,2.09894061088562,4.040722846984863,0.3067941665649414,0.5208739638328552,-0.6122214794158936,0.46257394552230835
238,64471,64465,0.039506945759058,-0.049342233687639236,1.0096180438995361,2.96871018409729,13.679317474365234,6.6676836013793945,2.0987651348114014,4.039983749389648,0.30648353695869446,0.47831854224205017,-0.5412648320198059,0.5049163103103638
239,64481,64475,-0.01909548044204712,0.027491359040141106,1.103756308555603,-1.2839659452438354,18.63519287109375,6.289546489715576,2.09981632232666,4.039632797241211,0.3070966303348541,0.3163850009441376,-0.5490001440048218,0.5619719624519348
