,timestamp_start,timestamp_end,acc.x,acc.y,acc.z,gyro.x,gyro.y,gyro.z,stateEstimate.x,stateEstimate.y,stateEstimate.z,stabilizer.pitch,stabilizer.roll,stabilizer.yaw
0,85046,85045,0.01170006487518549,0.21051084995269775,1.0395663976669312,-0.39823028445243835,-9.575190544128418,-2.144819974899292,1.6941660642623901,3.7733278274536133,0.17929299175739288,0.9880145788192749,0.336471825838089,2.4609203338623047
1,85056,85055,0.04359406605362892,0.036421459168195724,0.9785578846931458,-2.2506346702575684,-9.110136032104492,-2.0650556087493896,1.6980515718460083,3.7754485607147217,0.18141190707683563,0.7462464570999146,0.32419726252555847,2.4118170738220215
2,85066,85065,-0.061963196843862534,0.028623102232813835,1.0647146701812744,-2.9468393325805664,-10.788503646850586,-1.3714301586151123,1.6988521814346313,3.776082992553711,0.1834746152162552,0.8983301520347595,0.35390982031822205,2.3934500217437744
3,85076,85075,-0.14663012325763702,-0.0510491319000721,1.0484594106674194,-4.029635429382324,-13.427454948425293,-1.548052430152893,1.699112057685852,3.7769291400909424,0.1855979561805725,1.0679233074188232,0.2922835946083069,2.3867475986480713
4,85086,85085,-0.08644458651542664,0.07962051033973694,0.9922380447387695,-6.594898700714111,-13.311548233032227,-1.6738499402999878,1.6986970901489258,3.7784316539764404,0.1879097819328308,1.3899047374725342,0.2775856852531433,2.3847718238830566
5,85096,85095,-0.05001920834183693,0.09103088825941086,1.014241337776184,-7.912991523742676,-12.360600471496582,-2.0096826553344727,1.6985363960266113,3.7785630226135254,0.1899811178445816,1.6084004640579224,0.15043729543685913,2.3800339698791504
6,85106,85105,0.05018150806427002,0.03604591637849808,1.0224369764328003,-8.07906723022461,-9.529644012451172,-1.9287216663360596,1.7003731727600098,3.779374122619629,0.19229671359062195,1.5814621448516846,0.15356925129890442,2.3381004333496094
7,85116,85115,-0.0018476698314771056,-0.02686193212866783,1.0279313325881958,-7.460294246673584,-6.043914318084717,-1.9141138792037964,1.7017827033996582,3.7809386253356934,0.19155868887901306,1.5247578620910645,0.006185167469084263,2.3166515827178955
8,85126,85125,0.042537543922662735,-0.0386066809296608,0.9810398817062378,-4.129521369934082,-3.008824348449707,-1.7820757627487183,1.7016451358795166,3.781165361404419,0.19360069930553436,1.6446936130523682,-0.04652363061904907,2.2999730110168457
9,85136,85135,-0.028605880215764046,-0.042128875851631165,1.0411591529846191,-0.7111926674842834,-2.067265033721924,-1.6916478872299194,1.702202320098877,3.781848669052124,0.1955982893705368,1.7042646408081055,0.026429330930113792,2.2654707431793213
10,85146,85145,0.0921541377902031,-0.0755385309457779,0.9346479773521423,0.4427785277366638,1.2820965051651,-1.3159995079040527,1.7017701864242554,3.7831499576568604,0.19701728224754333,1.7926195859909058,0.062205422669649124,2.2489521503448486
11,85156,85155,-0.014194625429809093,0.04265281558036804,1.0373907089233398,0.7106141448020935,3.5647995471954346,-1.3378403186798096,1.7039604187011719,3.78432297706604,0.1990855485200882,1.6021673679351807,0.03540673479437828,2.234264850616455
12,85166,85165,0.11713889241218567,-0.0446748249232769,0.9558542370796204,-1.3508014678955078,8.202009201049805,-1.0207096338272095,1.7032872438430786,3.7854397296905518,0.2010926902294159,1.7296713590621948,0.08156217634677887,2.2238073348999023
13,85176,85175,0.09908926486968994,-0.058512020856142044,1.0179076194763184,-2.575526475906372,6.726505279541016,-1.0975173711776733,1.7032519578933716,3.7860982418060303,0.2031075805425644,1.6530733108520508,0.022964604198932648,2.223356008529663
14,85186,85185,-0.026389675214886665,-0.15254612267017365,1.0021171569824219,-4.3905792236328125,4.690128326416016,-1.1978650093078613,1.7043920755386353,3.7862727642059326,0.20499290525913239,1.524364709854126,0.017010807991027832,2.20339035987854
15,85196,85195,-0.00788849126547575,-0.04527436941862106,0.9954462647438049,-5.9240288734436035,2.8651416301727295,-0.7678334712982178,1.7048895359039307,3.7865285873413086,0.20696833729743958,1.4320768117904663,-0.09428746998310089,2.204374074935913
16,85206,85205,-0.02762669324874878,0.16578124463558197,1.0057634115219116,-6.079439163208008,0.7813280820846558,-0.8798626661300659,1.705260992050171,3.7877821922302246,0.20895160734653473,1.4423049688339233,-0.14784452319145203,2.1968297958374023
17,85216,85215,0.0056251161731779575,0.12774449586868286,0.9803131222724915,-4.3812761306762695,-0.23579740524291992,-0.7714675664901733,1.7048877477645874,3.7883825302124023,0.21192991733551025,1.4734584093093872,-0.2662685215473175,2.2033331394195557
18,85226,85225,0.038085754960775375,0.13791526854038239,1.025550365447998,-1.3233428001403809,0.34107932448387146,-0.5474291443824768,1.704433560371399,3.7868130207061768,0.213984414935112,1.5078107118606567,-0.13261999189853668,2.1594250202178955
19,85236,85235,0.006566253025084734,0.035200171172618866,1.000907301902771,1.1421645879745483,0.4792044162750244,-0.7195433378219604,1.7054450511932373,3.7883899211883545,0.2161943018436432,1.3869396448135376,-0.39253032207489014,2.205940008163452
20,85246,85245,-0.04771827161312103,-0.013060269877314568,0.9933538436889648,3.964146614074707,1.2162648439407349,-1.2988535165786743,1.7066220045089722,3.7884950637817383,0.21875633299350739,1.2679859399795532,-0.4338988959789276,2.207486391067505
21,85256,85255,-0.11204204708337784,0.01952669955790043,0.97974693775177,5.8170671463012695,0.9547626376152039,-1.4003849029541016,1.7071436643600464,3.7887284755706787,0.2208159863948822,1.2235558032989502,-0.35569843649864197,2.1864616870880127
22,85266,85265,-0.14850488305091858,0.04578791558742523,0.9644812345504761,5.848605155944824,-0.3517005443572998,-0.967601478099823,1.7105588912963867,3.7893874645233154,0.2225661277770996,0.9025697708129883,-0.3989858329296112,2.1926283836364746
23,85276,85275,-0.09191194921731949,0.030379099771380424,0.9558693766593933,5.308047771453857,-2.859618663787842,-0.8009443879127502,1.7098523378372192,3.789124011993408,0.2241678386926651,0.9991010427474976,-0.28764018416404724,2.1752681732177734
24,85286,85285,0.008183619007468224,0.022003546357154846,0.9633776545524597,2.630969762802124,-1.7835323810577393,-1.5700199604034424,1.7094582319259644,3.789608955383301,0.22619926929473877,1.1261883974075317,-0.26544734835624695,2.170550584793091
25,85296,85295,-0.04133972153067589,0.03679341450333595,1.006607174873352,3.612309694290161,-8.310562133789062,-0.5748795866966248,1.7087090015411377,3.7900357246398926,0.22810402512550354,1.1793925762176514,-0.19802820682525635,2.1536526679992676
26,85306,85305,-0.004974137991666794,-0.08208995312452316,0.9803026914596558,3.188432216644287,-7.2189764976501465,-0.621029794216156,1.70724618434906,3.7904744148254395,0.23010949790477753,1.4360198974609375,-0.12993010878562927,2.1407837867736816
27,85316,85315,-0.01658537983894348,-0.00015593657735735178,1.0221508741378784,1.7571730613708496,-3.840562343597412,-1.0690220594406128,1.706998348236084,3.792689800262451,0.23156669735908508,1.5673774480819702,-0.21577799320220947,2.151742458343506
28,85326,85325,-0.02094295062124729,0.08049965649843216,0.9919290542602539,0.924368143081665,1.945137858390808,-1.5796645879745483,1.7069039344787598,3.792465925216675,0.2334612011909485,1.5545135736465454,-0.24035073816776276,2.147240161895752
29,85336,85335,0.005390862934291363,0.07938108593225479,0.9330452680587769,1.4605505466461182,7.030267715454102,-1.3151271343231201,1.70399010181427,3.792243719100952,0.23524345457553864,1.8127073049545288,-0.12444987893104553,2.1103594303131104
30,85346,85345,-0.02095767669379711,0.07006553560495377,0.9445862770080566,3.149779796600342,10.38889217376709,-1.0590522289276123,1.7039071321487427,3.7922253608703613,0.23533619940280914,1.6595126390457153,-0.07929125428199768,2.093867063522339
31,85356,85355,-0.01907416060566902,-0.024208491668105125,0.9233115315437317,3.21366548538208,13.836137771606445,-1.2675728797912598,1.7039021253585815,3.792060613632202,0.23702846467494965,1.5232080221176147,-0.012183024547994137,2.0755701065063477
32,85366,85365,0.01698349602520466,-0.054510097950696945,0.92292320728302,2.1023130416870117,16.977582931518555,-1.4140429496765137,1.7044687271118164,3.792123794555664,0.23874735832214355,1.2680131196975708,-0.024857928976416588,2.0706839561462402
33,85376,85375,-0.10141211003065109,-0.02815699391067028,0.9895175099372864,1.0560169219970703,13.679190635681152,-1.1482815742492676,1.7046197652816772,3.791747570037842,0.23949475586414337,1.0740958452224731,0.023852629587054253,2.0533084869384766
34,85386,85385,-0.11411391198635101,-0.05075419694185257,0.9888463616371155,0.21395999193191528,10.61795711517334,-1.2670425176620483,1.6997196674346924,3.791661500930786,0.2410353124141693,1.4175606966018677,0.04535060003399849,2.0374536514282227
35,85396,85395,-0.09592635184526443,-0.021927395835518837,0.9918555021286011,0.5974424481391907,9.357033729553223,-1.3596997261047363,1.6987693309783936,3.7907543182373047,0.2424669861793518,1.3226361274719238,0.13482920825481415,2.0110208988189697
36,85406,85405,-0.10907825082540512,0.09684545546770096,1.004624843597412,-0.6640522480010986,11.197270393371582,-1.198540210723877,1.697464942932129,3.790282964706421,0.24387310445308685,1.2916538715362549,0.2085742950439453,1.9862937927246094
37,85416,85415,-0.040013812482357025,0.0035941610112786293,0.9614341855049133,-2.1833384037017822,16.134138107299805,-1.0046823024749756,1.697411298751831,3.7901697158813477,0.24655528366565704,1.0561894178390503,0.17851023375988007,1.977317452430725
38,85426,85425,-0.0055962116457521915,0.11158484220504761,0.9552426338195801,-3.6912522315979004,18.10255241394043,-0.9844282269477844,1.6966909170150757,3.7903387546539307,0.24822105467319489,0.8305041193962097,0.11850425601005554,1.968043565750122
39,85436,85435,0.0259283185005188,0.10360270738601685,0.8967469334602356,-4.589108943939209,19.830829620361328,-0.5279479026794434,1.6954922676086426,3.7893950939178467,0.24814604222774506,0.7340266108512878,0.12144330143928528,1.9578570127487183
40,85446,85445,0.041293226182460785,-0.006204534322023392,0.9227383136749268,-5.042418003082275,17.825927734375,-0.17025884985923767,1.695578932762146,3.790602207183838,0.24916787445545197,0.40788909792900085,0.02766410820186138,1.9571712017059326
41,85456,85455,-0.05672627314925194,-0.03741566091775894,1.00241219997406,-3.631784200668335,15.696228981018066,-0.18992109596729279,1.6937000751495361,3.790726900100708,0.25048452615737915,0.27051809430122375,0.01983472891151905,1.9539653062820435
42,85466,85465,-0.08780119568109512,-0.15695175528526306,0.9696301817893982,-1.8542919158935547,10.588335037231445,-0.08158465474843979,1.6911355257034302,3.7903928756713867,0.25292834639549255,0.25783905386924744,-0.044547390192747116,1.9597082138061523
43,85476,85475,-0.06405273079872131,-0.23526206612586975,0.9721295833587646,0.06052130088210106,8.626934051513672,-0.25948911905288696,1.6898857355117798,3.789536714553833,0.2531307637691498,0.1407805234193802,-0.0020766525994986296,1.951576828956604
44,85486,85485,-0.03858351707458496,-0.03573797643184662,1.025685429573059,0.20114748179912567,10.454389572143555,-0.27120527625083923,1.6881706714630127,3.7889373302459717,0.2542274296283722,0.11319427937269211,-0.013589223846793175,1.949878454208374
45,85496,85495,-0.026065833866596222,-0.003563056467100978,0.9629610180854797,-0.374653697013855,6.210235595703125,-0.0783410370349884,1.6895338296890259,3.789287567138672,0.254376620054245,-0.13200446963310242,-0.025794420391321182,1.9438800811767578
46,85506,85505,0.014832516200840473,0.0444413423538208,0.9604015946388245,-0.9168144464492798,7.995588779449463,0.46364566683769226,1.6891146898269653,3.7900240421295166,0.25666284561157227,-0.20070771872997284,-0.0493595115840435,1.944502830505371
47,85516,85515,0.07966101169586182,0.056371115148067474,0.9901524186134338,-1.6023658514022827,8.358315467834473,0.2093135565519333,1.6876685619354248,3.7887442111968994,0.2560010552406311,-0.13654808700084686,0.06715265661478043,1.9513821601867676
48,85526,85525,0.08615696430206299,-0.007590622641146183,0.998931884765625,-3.3162660598754883,8.783157348632812,0.03378193452954292,1.6886279582977295,3.7899434566497803,0.2570294737815857,-0.308570921421051,0.009955673478543758,1.9531217813491821
49,85536,85535,0.06406506896018982,-0.1494942456483841,0.9499698877334595,-3.947230339050293,9.039713859558105,-0.5744810104370117,1.6870733499526978,3.789210081100464,0.2569313645362854,-0.3196694850921631,0.07188434153795242,1.9560437202453613
50,85546,85545,-0.0022317939437925816,-0.16000862419605255,1.0072264671325684,-4.807665824890137,8.540520668029785,-0.5767437219619751,1.6870918273925781,3.7895681858062744,0.25897416472435,-0.4922572076320648,0.03467443585395813,1.9488780498504639
51,85556,85555,-0.013381049036979675,-0.12303593009710312,0.9744596481323242,-4.965017795562744,7.844148635864258,-0.4942598342895508,1.6863200664520264,3.789215326309204,0.2600644826889038,-0.6451325416564941,-0.08367013931274414,1.936915397644043
52,85566,85565,0.009194700978696346,-0.12004527449607849,0.9260033369064331,-4.869858264923096,7.383380889892578,-0.14894239604473114,1.6851050853729248,3.7884318828582764,0.2610454559326172,-0.7075828909873962,-0.11955516785383224,1.9356609582901
53,85576,85575,-0.0015598938334733248,-0.05164862051606178,0.9646791219711304,-4.449134826660156,6.87942361831665,-0.05555165559053421,1.684256672859192,3.7890126705169678,0.2606870234012604,-0.7585651278495789,-0.15070238709449768,1.9356566667556763
54,85586,85585,0.03137388080358505,-0.06583663076162338,1.0067744255065918,-3.8349695205688477,4.181873321533203,0.520397424697876,1.6853926181793213,3.789462089538574,0.26157528162002563,-0.9286919236183167,-0.25027036666870117,1.9268195629119873
55,85596,85595,0.10195662826299667,-0.17935307323932648,0.9657213687896729,-2.226780414581299,2.769836902618408,0.26805490255355835,1.6847639083862305,3.789630889892578,0.26236194372177124,-0.9064329862594604,-0.2501473128795624,1.9356682300567627
56,85606,85605,0.018238915130496025,-0.07037223130464554,1.018246054649353,-2.060009479522705,2.2992022037506104,0.03477107360959053,1.6840423345565796,3.7904529571533203,0.2631097733974457,-0.870334804058075,-0.3096158504486084,1.9322112798690796
57,85616,85615,-0.01588507741689682,-0.020643843337893486,0.9822230935096741,-0.5806252956390381,1.3529812097549438,-0.15157382190227509,1.6825112104415894,3.78997540473938,0.26353755593299866,-0.814513623714447,-0.35835421085357666,1.9263503551483154
58,85626,85625,0.05419834703207016,-0.0013464003568515182,0.9875492453575134,0.015826033428311348,4.380686283111572,-0.13499535620212555,1.6831310987472534,3.7909817695617676,0.26431989669799805,-0.9238237142562866,-0.3753431737422943,1.9206740856170654
59,85636,85635,0.0471733883023262,0.03590380772948265,1.0107510089874268,2.142868995666504,1.7178372144699097,0.34173285961151123,1.681852102279663,3.7903881072998047,0.26504409313201904,-0.8801760673522949,-0.36709460616111755,1.9208455085754395
60,85646,85645,0.01958462782204151,-0.019559169188141823,0.996076226234436,2.1250252723693848,2.754347324371338,0.5358683466911316,1.6819109916687012,3.7914321422576904,0.26956409215927124,-0.994055449962616,-0.4165562391281128,1.9115052223205566
61,85656,85655,-0.023991338908672333,0.0036427518352866173,1.0146100521087646,1.4538772106170654,3.3643360137939453,1.0119963884353638,1.6821815967559814,3.791625738143921,0.2705169916152954,-1.0280370712280273,-0.3136746883392334,1.937366247177124
62,85666,85665,-0.009123733267188072,0.02097725123167038,1.0200806856155396,0.9643410444259644,2.825946569442749,0.3156719207763672,1.6816129684448242,3.791718006134033,0.2714899778366089,-1.0722402334213257,-0.30652615427970886,1.9447840452194214
63,85676,85675,0.02865775302052498,0.04122266545891762,0.9907166361808777,0.22122761607170105,1.6419202089309692,0.650852620601654,1.6810585260391235,3.793168783187866,0.27167144417762756,-1.1629141569137573,-0.3057195842266083,1.949998140335083
64,85686,85685,-0.01973785273730755,0.12131838500499725,0.9953157901763916,-1.1239255666732788,2.08353853225708,0.07084428519010544,1.680657148361206,3.793565034866333,0.27260008454322815,-1.2335541248321533,-0.3234390914440155,1.9520771503448486
65,85696,85695,0.030259674414992332,0.013818329200148582,0.9330355525016785,-0.695611834526062,-2.7263641357421875,0.5162820219993591,1.6807496547698975,3.794651508331299,0.27353182435035706,-1.2616766691207886,-0.3425738513469696,1.9551869630813599
66,85706,85705,-0.017796523869037628,0.05145120248198509,1.0417126417160034,0.042957134544849396,-4.832115173339844,0.16975487768650055,1.6805340051651,3.7953102588653564,0.27491551637649536,-1.1699936389923096,-0.3564145863056183,1.9545848369598389
67,85716,85715,0.03134912624955177,-0.016102997586131096,0.9779861569404602,1.4628009796142578,-6.696000099182129,0.1662420779466629,1.6801623106002808,3.795125722885132,0.27584585547447205,-1.1482254266738892,-0.35705456137657166,1.95490562915802
68,85726,85725,-0.013880421407520771,0.014104221947491169,1.028193473815918,2.7945001125335693,-7.495102405548096,0.2117251604795456,1.6788030862808228,3.7951674461364746,0.2768012583255768,-1.056498408317566,-0.32507389783859253,1.959773063659668
69,85736,85735,-0.008184836246073246,0.1104101911187172,0.9648767709732056,3.3026137351989746,-8.17393970489502,0.3440095782279968,1.678157925605774,3.794372320175171,0.27770912647247314,-0.9432352185249329,-0.2726103365421295,1.9668452739715576
70,85746,85745,-0.02370190992951393,0.07895943522453308,1.0036364793777466,2.598968505859375,-6.669515132904053,0.6423689723014832,1.677352786064148,3.794384002685547,0.2773708999156952,-0.8448430895805359,-0.22252865135669708,1.9764376878738403
71,85756,85755,0.013417653739452362,-0.06545447558164597,0.9308156371116638,2.029167413711548,-5.024446964263916,0.8729044795036316,1.678560733795166,3.7948262691497803,0.2782015800476074,-0.9294996857643127,-0.1866782307624817,1.9910465478897095
72,85766,85765,-0.03027789294719696,0.023319756612181664,1.0023585557937622,1.4224616289138794,-3.0456454753875732,0.6379706263542175,1.6778260469436646,3.795342206954956,0.27901649475097656,-0.8770802617073059,-0.2410445362329483,1.9801177978515625
73,85776,85775,-0.01311410777270794,0.05431531369686127,0.9865353107452393,-0.7126289010047913,-0.12780871987342834,0.677044689655304,1.6782097816467285,3.7962684631347656,0.2772136926651001,-0.9239862561225891,-0.22852379083633423,1.9909701347351074
74,85786,85785,0.09878255426883698,0.023824045434594154,0.9187925457954407,0.1574927121400833,-4.019191741943359,0.22956052422523499,1.6778392791748047,3.796088457107544,0.2778138220310211,-0.9058372378349304,-0.2316383272409439,1.992984652519226
75,85796,85795,-0.03751904517412186,-0.006381395738571882,0.9995725154876709,0.422363817691803,-5.3835859298706055,0.04669790342450142,1.6777172088623047,3.7969415187835693,0.27839016914367676,-0.8402408361434937,-0.2242872565984726,1.9956789016723633
76,85806,85805,-0.0392397977411747,0.0490366630256176,0.9696446061134338,1.2120003700256348,-9.318010330200195,0.5640584230422974,1.678078532218933,3.79652738571167,0.28150907158851624,-0.8083232641220093,-0.20853392779827118,1.9999420642852783
77,85816,85815,0.0017611192306503654,0.05269229784607887,0.965804934501648,0.4624967873096466,-8.330839157104492,0.5096195936203003,1.6758873462677002,3.7966301441192627,0.28217899799346924,-0.6675506830215454,-0.1931351274251938,2.0038552284240723
78,85826,85825,-0.021644217893481255,0.0007543213432654738,1.0029834508895874,0.5457949638366699,-9.030401229858398,0.6420798897743225,1.6760752201080322,3.7961301803588867,0.2828347086906433,-0.596585750579834,-0.10739870369434357,2.0286307334899902
79,85836,85835,-0.0032347424421459436,-0.057550325989723206,0.9515349268913269,1.1803888082504272,-8.424515724182129,0.5101845264434814,1.6760530471801758,3.7956018447875977,0.28347957134246826,-0.5256898403167725,-0.09911655634641647,2.034261465072632
80,85846,85845,-0.0350438728928566,-0.011928706429898739,1.013164758682251,1.5539467334747314,-8.213674545288086,0.2407228648662567,1.676766276359558,3.7964913845062256,0.2820516526699066,-0.614742636680603,-0.15766805410385132,2.0260303020477295
81,85856,85855,-0.08971211314201355,-0.028848161920905113,0.9838845133781433,0.9844174981117249,-8.868941307067871,0.5346487760543823,1.6763029098510742,3.7961361408233643,0.28255724906921387,-0.4677189886569977,-0.14063270390033722,2.029902935028076
82,85866,85865,-0.04591929540038109,-0.005151018034666777,0.9927043914794922,0.6922464966773987,-7.632351875305176,0.4353220462799072,1.675884485244751,3.796224594116211,0.2830456495285034,-0.32427123188972473,-0.12792102992534637,2.0362322330474854
83,85876,85875,-0.04275716096162796,0.026882756501436234,0.9862998127937317,0.30590519309043884,-8.801678657531738,0.935653805732727,1.6761075258255005,3.795804500579834,0.28366994857788086,-0.23563697934150696,-0.11409931629896164,2.04371976852417
84,85886,85885,-0.03646968677639961,0.025634193792939186,1.0446163415908813,-0.16553476452827454,-4.670197486877441,0.29353126883506775,1.6753580570220947,3.7966487407684326,0.28413355350494385,-0.11948629468679428,-0.19026349484920502,2.0357677936553955
85,85896,85895,0.05264926701784134,-0.0811234638094902,0.9585307836532593,-0.8749929070472717,-1.5952943563461304,0.07454682886600494,1.6751402616500854,3.7976996898651123,0.28461822867393494,-0.04754658043384552,-0.18379676342010498,2.038980007171631
86,85906,85905,0.028490906581282616,-0.03910745307803154,1.0243816375732422,1.5987344980239868,-1.9907174110412598,0.30012738704681396,1.6748689413070679,3.797337055206299,0.2831229865550995,-0.013961936347186565,-0.1723080724477768,2.0429627895355225
87,85916,85915,0.011549381539225578,-0.0983562171459198,0.9654517769813538,2.327415704727173,-1.211859941482544,0.2946043610572815,1.6749403476715088,3.796968460083008,0.2834932506084442,-0.06173640862107277,-0.1292220652103424,2.0487842559814453
88,85926,85925,0.017217988148331642,-0.08427118510007858,0.9693340063095093,3.0998761653900146,-0.2834859788417816,0.8198126554489136,1.675096869468689,3.7970352172851562,0.2838353216648102,-0.04652707278728485,-0.0735577791929245,2.0565521717071533
89,85936,85935,0.052074577659368515,-0.11180131882429123,1.0037981271743774,3.7804784774780273,-1.083078384399414,1.1638257503509521,1.674416422843933,3.7975122928619385,0.28504160046577454,-0.031897611916065216,-0.08065958321094513,2.060297727584839
90,85946,85945,0.03985945135354996,-0.11292780935764313,0.9766337871551514,3.178335189819336,-1.5561134815216064,0.32374972105026245,1.6745526790618896,3.7972664833068848,0.2853994369506836,-0.008995523676276207,0.061110105365514755,2.075334072113037
91,85956,85955,-0.037869930267333984,0.0893656462430954,1.0311020612716675,1.0182732343673706,-0.7783426642417908,0.009052500128746033,1.6746066808700562,3.7991044521331787,0.2857551872730255,-0.06002635881304741,-0.052364010363817215,2.0654122829437256
92,85966,85965,0.04002685844898224,-0.013272874988615513,0.9406367540359497,-0.04630235210061073,-0.7058026790618896,-0.31064897775650024,1.6746642589569092,3.798959732055664,0.28612005710601807,-0.09643576294183731,-0.02802523598074913,2.064826011657715
93,85976,85975,0.057598426938056946,-0.03790314495563507,0.9851062893867493,-0.17316582798957825,-1.3733338117599487,-0.36464545130729675,1.6743316650390625,3.7987470626831055,0.2873372733592987,-0.051886387169361115,-0.013908658176660538,2.0629723072052
94,85986,85985,0.10978072881698608,-0.09541115164756775,0.9956153035163879,1.1412312984466553,-3.6118290424346924,0.0714292973279953,1.6744285821914673,3.798888921737671,0.287705659866333,-0.0634496733546257,-0.06873341649770737,2.057361602783203
95,85996,85995,0.08484186232089996,-0.12183792889118195,1.0446583032608032,3.025404453277588,-6.153993129730225,-0.2307487279176712,1.6729017496109009,3.798021078109741,0.28813648223876953,0.03843088448047638,-0.021582720801234245,2.0563385486602783
96,86006,86005,0.005566147621721029,-0.04147488996386528,1.0541681051254272,4.575226783752441,-6.973954200744629,-0.11895864456892014,1.6766133308410645,3.797366142272949,0.29065027832984924,-0.2797154188156128,0.1276387870311737,2.0562961101531982
97,86016,86015,0.09142648428678513,-0.003755496582016349,0.9932364821434021,3.792093276977539,-2.874645471572876,-0.8771715760231018,1.6761350631713867,3.797694444656372,0.29125601053237915,-0.13618193566799164,0.13127806782722473,2.049974203109741
98,86026,86025,0.015001504682004452,0.06004125624895096,1.0156824588775635,3.148008346557617,-8.668537139892578,-0.5304048657417297,1.6763060092926025,3.7970337867736816,0.2917998731136322,-0.1352817416191101,0.19916290044784546,2.0435478687286377
99,86036,86035,0.008438780903816223,-0.052389126271009445,0.978914201259613,2.6818294525146484,-9.158905029296875,-0.3169443607330322,1.6757991313934326,3.796515703201294,0.2916637361049652,0.05280516296625137,0.2492549568414688,2.0424225330352783
100,86046,86045,-0.0400535948574543,-0.035526908934116364,1.0161858797073364,-0.19822996854782104,-11.377352714538574,-0.19766342639923096,1.676570177078247,3.796478033065796,0.2921781837940216,0.09506227821111679,0.2718294858932495,2.0375492572784424
101,86056,86055,-0.0821421816945076,0.07283138483762741,1.0582330226898193,-1.7018613815307617,-10.110357284545898,0.04973937198519707,1.6771759986877441,3.797255754470825,0.2927166223526001,0.16171208024024963,0.17821438610553741,2.034069299697876
102,86066,86065,-0.020124904811382294,-0.002439819509163499,0.9801472425460815,-3.226139545440674,-6.371812343597412,0.7144464254379272,1.6765629053115845,3.7975668907165527,0.2933400273323059,0.3451816439628601,0.1403767168521881,2.0414016246795654
103,86076,86075,-0.026597419753670692,-0.09990839660167694,1.0066275596618652,-2.0415573120117188,-5.218583583831787,1.265627384185791,1.6751186847686768,3.7980756759643555,0.2935822308063507,0.4857695996761322,0.09814776480197906,2.0542218685150146
104,86086,86085,0.07453679293394089,0.06597928702831268,0.9116266965866089,0.5716987252235413,0.25276076793670654,1.090993881225586,1.6755263805389404,3.7979445457458496,0.29416853189468384,0.46475502848625183,0.07830559462308884,2.0646398067474365
105,86096,86095,-0.07603433728218079,0.12698376178741455,1.0492956638336182,4.652278423309326,-0.9057676196098328,1.4044069051742554,1.6762638092041016,3.798766851425171,0.29472920298576355,0.36519569158554077,0.12849847972393036,2.073249101638794
106,86106,86105,-0.005833779461681843,-0.041150741279125214,0.9672457575798035,6.024253845214844,-1.811640739440918,1.7841960191726685,1.6761232614517212,3.7981057167053223,0.29551392793655396,0.4191560745239258,0.22236961126327515,2.090097427368164
107,86116,86115,0.0133464764803648,0.041625555604696274,1.008532166481018,4.344812393188477,-0.8894808888435364,1.9297713041305542,1.6754624843597412,3.7991888523101807,0.2961040735244751,0.4729057252407074,0.16737672686576843,2.113402843475342
108,86126,86125,-0.03862905874848366,0.0640871450304985,0.9673747420310974,1.4563385248184204,-1.3715009689331055,2.265861749649048,1.675532341003418,3.799124240875244,0.29661041498184204,0.4444582462310791,0.2279377579689026,2.1311733722686768
109,86136,86135,-0.02088714763522148,0.12593689560890198,0.9921970367431641,-0.18799623847007751,-2.4341514110565186,2.213818311691284,1.6759916543960571,3.799525260925293,0.29642510414123535,0.42802414298057556,0.17147929966449738,2.154038667678833
110,86146,86145,-0.021671824157238007,0.12409399449825287,1.0217825174331665,0.632870078086853,-6.293488025665283,1.994907021522522,1.6747561693191528,3.7993717193603516,0.2969163954257965,0.6026519536972046,0.18292488157749176,2.179966926574707
111,86156,86155,0.014073148369789124,-0.0035156370140612125,0.9967905879020691,0.5654627084732056,-9.968692779541016,2.8023293018341064,1.6746010780334473,3.7987236976623535,0.2973444163799286,0.6798599362373352,0.20690977573394775,2.2012712955474854
112,86166,86165,0.08615459501743317,-0.07884690165519714,0.9981622099876404,1.5797793865203857,-11.874053955078125,2.626497268676758,1.6745132207870483,3.7986860275268555,0.2977866530418396,0.801156222820282,0.2309417873620987,2.2265682220458984
113,86176,86175,-0.021105393767356873,0.0544661246240139,0.9870943427085876,-0.7265058159828186,-10.320882797241211,2.972475051879883,1.6736668348312378,3.7982068061828613,0.3019852638244629,0.9915241003036499,0.25232142210006714,2.2554666996002197
114,86186,86185,-0.002161505399271846,0.07251368463039398,0.9636097550392151,-2.5726840496063232,-6.985872268676758,3.4338912963867188,1.6735893487930298,3.7976839542388916,0.3026481866836548,1.0786763429641724,0.2330036759376526,2.2881367206573486
115,86196,86195,-0.095951147377491,0.08772299438714981,1.0230644941329956,-4.730501651763916,-5.430580139160156,2.822890043258667,1.6744483709335327,3.7966415882110596,0.3033432960510254,1.0306414365768433,0.2486794888973236,2.311091184616089
116,86206,86205,-0.0672781690955162,0.015916626900434494,0.9956720471382141,-8.94663143157959,2.2737233638763428,4.173763751983643,1.6741204261779785,3.796527147293091,0.30431175231933594,1.068595051765442,0.13354425132274628,2.355435848236084
117,86216,86215,0.004323394037783146,0.0030371772591024637,0.9709750413894653,-10.949132919311523,6.284940242767334,4.115382671356201,1.673637866973877,3.797185182571411,0.30502745509147644,1.015242099761963,-0.026283996179699898,2.4035117626190186
118,86226,86225,-0.035868264734745026,0.1536983847618103,0.9389837980270386,-11.251775741577148,7.817417144775391,4.683574199676514,1.6742372512817383,3.797065019607544,0.3063434064388275,0.9152795672416687,-0.1285705417394638,2.4443142414093018
119,86236,86235,0.01233726181089878,0.0807075947523117,0.9701579809188843,-8.863858222961426,8.28797435760498,5.026453018188477,1.6739263534545898,3.7975354194641113,0.30685824155807495,0.8751663565635681,-0.29245856404304504,2.5015499591827393
120,86246,86245,0.01050419919192791,0.006813374813646078,0.9861971139907837,-2.766587495803833,7.99669885635376,4.950080394744873,1.6744279861450195,3.797323226928711,0.3075246214866638,0.7534953951835632,-0.30801698565483093,2.544921398162842
121,86256,86255,-0.015259806998074055,-0.03578371927142143,0.9565944671630859,1.902565836906433,8.655078887939453,5.20517635345459,1.6725891828536987,3.7968764305114746,0.30813583731651306,0.7874181866645813,-0.2350955307483673,2.5898826122283936
122,86266,86265,-0.02904851734638214,-0.032756906002759933,0.9796077609062195,5.563572406768799,12.649791717529297,4.530578136444092,1.672851800918579,3.79701566696167,0.30885618925094604,0.6024312973022461,-0.16345132887363434,2.6387600898742676
123,86276,86275,0.008036438375711441,-0.043880999088287354,0.9317006468772888,6.034143447875977,15.690319061279297,3.573976516723633,1.6740303039550781,3.797504425048828,0.3095127046108246,0.5905802845954895,-0.2715699076652527,2.6530535221099854
124,86286,86285,0.024069475010037422,-0.024197960272431374,0.9656234979629517,4.177252292633057,18.202295303344727,2.022923231124878,1.6736952066421509,3.797785758972168,0.31008708477020264,0.41707444190979004,-0.2329854816198349,2.694314956665039
125,86296,86295,-0.014650835655629635,-0.011180873960256577,0.9525464773178101,3.5252621173858643,20.39998435974121,0.7161175012588501,1.6729602813720703,3.7971904277801514,0.31065937876701355,0.26034417748451233,-0.13368339836597443,2.7184157371520996
126,86306,86305,-0.03043091855943203,0.0731000080704689,0.9330812692642212,2.610788345336914,22.094158172607422,-0.6511594653129578,1.6728286743164062,3.796569585800171,0.30861538648605347,0.08732248097658157,-0.05870216339826584,2.7252814769744873
127,86316,86315,0.011284545063972473,-0.049185506999492645,0.957337498664856,0.37213408946990967,23.904512405395508,-0.9774863719940186,1.6724464893341064,3.796063184738159,0.3088948428630829,-0.14024432003498077,-0.00999665167182684,2.7191975116729736
128,86326,86325,-0.016164975240826607,-0.137818843126297,0.9714833498001099,-1.2012896537780762,22.10025978088379,-2.865003824234009,1.6723765134811401,3.796632766723633,0.3091159462928772,-0.37034574151039124,-0.07041412591934204,2.717576265335083
129,86336,86335,-0.04338820278644562,0.017791738733649254,1.0106099843978882,-1.025854229927063,17.638822555541992,-3.9458465576171875,1.6701186895370483,3.7967052459716797,0.30762672424316406,-0.370906263589859,-0.07839316874742508,2.694078207015991
130,86346,86345,0.02116217277944088,-0.060313548892736435,0.9629820585250854,2.001132011413574,10.471108436584473,-5.096408367156982,1.670636534690857,3.7958824634552,0.3076772391796112,-0.6922168731689453,-0.005424905568361282,2.652698516845703
131,86356,86355,0.05571679025888443,-0.01041838526725769,0.9544476866722107,3.80298113822937,6.6408867835998535,-4.689194202423096,1.6705330610275269,3.7952327728271484,0.3077365756034851,-0.8297075033187866,0.01918911747634411,2.6041319370269775
132,86366,86365,0.028255654498934746,-0.06931942701339722,0.9908176064491272,6.493597507476807,1.898332118988037,-4.253256320953369,1.6702158451080322,3.795882225036621,0.3088076114654541,-0.9395927786827087,0.009748019278049469,2.5551064014434814
133,86376,86375,-0.009254313074052334,-0.004499838687479496,1.0121887922286987,8.801451683044434,0.5974858999252319,-3.6667027473449707,1.670545220375061,3.7959609031677246,0.30885836482048035,-0.9732295274734497,0.04777686297893524,2.512417793273926
134,86386,86385,-0.01910603605210781,-0.0035159571561962366,0.9811941981315613,7.480879306793213,0.5458768606185913,-3.623629093170166,1.668446660041809,3.795834541320801,0.3090100884437561,-0.8300967216491699,0.12283416837453842,2.4753427505493164
135,86396,86395,0.028180761262774467,-0.051232244819402695,0.9603588581085205,4.771231174468994,4.880466461181641,-3.825957775115967,1.6690342426300049,3.795743465423584,0.30906111001968384,-0.9371569752693176,0.25772902369499207,2.4424679279327393
136,86406,86405,-0.004909325856715441,-0.0034414452966302633,1.0017552375793457,1.5740816593170166,8.512672424316406,-4.5042033195495605,1.668392300605774,3.7957842350006104,0.3054886758327484,-1.026710033416748,0.34537798166275024,2.4028494358062744
137,86416,86415,-0.0031647307332605124,-0.029248874634504318,0.9950175881385803,-0.07339315116405487,10.753704071044922,-4.6422953605651855,1.6682462692260742,3.7973549365997314,0.30533745884895325,-1.0869483947753906,0.21855652332305908,2.3479058742523193
138,86426,86425,-0.00010379328159615397,-0.017938686534762383,0.9898318648338318,-0.8163917660713196,10.315350532531738,-4.296209812164307,1.667109727859497,3.7977311611175537,0.30514052510261536,-1.1233701705932617,0.23300978541374207,2.3007047176361084
139,86436,86435,0.022112885490059853,-0.020131027325987816,1.0135674476623535,0.21710361540317535,8.302501678466797,-3.5116488933563232,1.6672331094741821,3.7973289489746094,0.3045697510242462,-1.2878657579421997,0.2355162799358368,2.2560601234436035
140,86446,86445,-0.004151719622313976,0.031968362629413605,1.0341559648513794,1.6788002252578735,7.217511177062988,-3.061452627182007,1.6665738821029663,3.797597885131836,0.30436113476753235,-1.3459233045578003,0.24929262697696686,2.2227864265441895
141,86456,86455,0.017127083614468575,-0.020701799541711807,0.999697744846344,3.601196765899658,5.693066596984863,-2.766960620880127,1.6655359268188477,3.797215461730957,0.30421924591064453,-1.3087233304977417,0.2887048125267029,2.198760986328125
142,86466,86465,-0.03233925253152847,0.040522102266550064,0.9705612063407898,3.7497010231018066,4.960387229919434,-2.4669196605682373,1.6656137704849243,3.797576665878296,0.3053467869758606,-1.4177021980285645,0.27445122599601746,2.165236234664917
143,86476,86475,-0.07482421398162842,0.14946657419204712,0.9778469204902649,-0.7557446956634521,8.524961471557617,-1.509969711303711,1.6660234928131104,3.797001838684082,0.3051941692829132,-1.514886736869812,0.3363761901855469,2.146634340286255
144,86486,86485,0.011197450570762157,-0.01260585431009531,0.9888066053390503,-3.511545181274414,8.335665702819824,-1.3726351261138916,1.666437029838562,3.7970056533813477,0.30500367283821106,-1.6418052911758423,0.33227455615997314,2.1287074089050293
145,86496,86495,-0.02367728389799595,0.006513208616524935,1.040688395500183,-3.9404635429382324,7.71019983291626,-1.3490034341812134,1.6659237146377563,3.7973098754882812,0.3048613965511322,-1.6902985572814941,0.2820611298084259,2.1124355792999268
146,86506,86505,0.004227461759001017,-0.1189887747168541,1.0090442895889282,-1.5850794315338135,3.7341670989990234,-1.3082940578460693,1.6670790910720825,3.797393560409546,0.30405041575431824,-1.7771118879318237,0.2312697172164917,2.097489356994629
147,86516,86515,0.015125839971005917,0.0056261224672198296,1.0420266389846802,1.6639350652694702,2.4962916374206543,-0.9912247061729431,1.6663495302200317,3.7973713874816895,0.3039563000202179,-1.7506821155548096,0.214572936296463,2.0891904830932617
148,86526,86525,0.004403226543217897,0.0028413902036845684,1.043573260307312,4.625261306762695,0.5994527339935303,-1.167905330657959,1.6663120985031128,3.797300338745117,0.3038146197795868,-1.779456615447998,0.2509313225746155,2.0858023166656494
149,86536,86535,-0.0004200081166345626,-0.012042536400258541,1.0290789604187012,6.18330717086792,-1.9458783864974976,-0.9042119979858398,1.6659313440322876,3.79697585105896,0.304151713848114,-1.7661926746368408,0.33547475934028625,2.08606219291687
150,86546,86545,0.02620825730264187,-0.22337497770786285,1.038689136505127,6.720051288604736,-4.756542682647705,-0.410548597574234,1.6658613681793213,3.7972261905670166,0.30415138602256775,-1.699493408203125,0.37071293592453003,2.070967435836792
151,86556,86555,-0.024099938571453094,-0.07702919095754623,1.079998254776001,5.539794445037842,-7.081441879272461,-0.018557945266366005,1.6662299633026123,3.7963738441467285,0.3041442930698395,-1.6823756694793701,0.4830043315887451,2.0770490169525146
152,86566,86565,0.01408129371702671,-0.13105472922325134,1.0023889541625977,2.2111759185791016,-3.376636028289795,-0.4384379982948303,1.667297124862671,3.797090530395508,0.3054003119468689,-1.7212690114974976,0.4863258898258209,2.0592122077941895
153,86576,86575,0.004208417143672705,-0.027555394917726517,1.0094048976898193,-1.8860870599746704,-1.424464225769043,0.21594323217868805,1.6659722328186035,3.7975895404815674,0.30567318201065063,-1.5580919981002808,0.44134366512298584,2.045196056365967
154,86586,86585,-0.03620416671037674,-0.09721912443637848,1.0595804452896118,-5.158937931060791,-2.999467372894287,0.6093448996543884,1.667266607284546,3.7978312969207764,0.3058479428291321,-1.6434416770935059,0.40897130966186523,2.0373477935791016
155,86596,86595,0.05545124411582947,-0.09665381163358688,1.064168930053711,-6.298229694366455,-4.717000961303711,0.33681565523147583,1.6677685976028442,3.797398328781128,0.3060884475708008,-1.6161189079284668,0.4042447507381439,2.0512638092041016
156,86606,86605,0.016875771805644035,-0.06504205614328384,0.969711184501648,-5.831124305725098,-5.727654933929443,0.7991844415664673,1.6690303087234497,3.7981042861938477,0.3045523762702942,-1.6410390138626099,0.29796063899993896,2.038881540298462
157,86616,86615,-0.025357596576213837,0.02933022566139698,1.0660814046859741,-4.32834529876709,-6.841224193572998,0.6850747466087341,1.6698195934295654,3.796701431274414,0.3047470450401306,-1.6501147747039795,0.35843807458877563,2.0761008262634277
158,86626,86625,-0.016667356714606285,-0.06729047000408173,0.9881807565689087,-2.3169643878936768,-7.711293697357178,1.0507398843765259,1.6715974807739258,3.7969188690185547,0.30502593517303467,-1.6267391443252563,0.28094327449798584,2.0720696449279785
159,86636,86635,0.012636249884963036,-0.0012598440516740084,1.015154480934143,-1.1532504558563232,-9.711227416992188,1.9167125225067139,1.6716923713684082,3.7975234985351562,0.30599650740623474,-1.4230223894119263,0.23924419283866882,2.0874745845794678
160,86646,86645,-0.02707550674676895,0.06605617702007294,1.0573866367340088,1.001776933670044,-6.495105266571045,2.749091863632202,1.6715353727340698,3.7976136207580566,0.3064076900482178,-1.203399419784546,0.22737298905849457,2.1117637157440186
161,86656,86655,-0.03954579308629036,0.09416542202234268,0.9974324107170105,1.174992561340332,-6.797323703765869,3.4811227321624756,1.6750346422195435,3.798405170440674,0.30664220452308655,-1.3682787418365479,0.23535189032554626,2.1257593631744385
162,86666,86665,-0.02419133298099041,-0.05189955234527588,1.0131412744522095,-0.37972578406333923,0.38211241364479065,3.44140362739563,1.6764445304870605,3.7974326610565186,0.3087046444416046,-1.3773400783538818,0.32427626848220825,2.175842046737671
163,86676,86675,-0.04042687267065048,0.08030744642019272,0.9837527275085449,-1.9470106363296509,1.9303514957427979,3.713294744491577,1.6783281564712524,3.797449827194214,0.3091879189014435,-1.4589693546295166,0.3046756684780121,2.205756902694702
164,86686,86685,-0.024169335141777992,0.027866939082741737,0.9692237973213196,-4.529472351074219,1.0493184328079224,3.8797130584716797,1.6797486543655396,3.7975962162017822,0.30968233942985535,-1.4680136442184448,0.2546772062778473,2.2352347373962402
165,86696,86695,0.028005065396428108,-0.035511378198862076,0.9725853204727173,-5.7844977378845215,-1.846369743347168,3.958841562271118,1.6807619333267212,3.7972640991210938,0.3112117350101471,-1.375268816947937,0.16853630542755127,2.2691595554351807
166,86706,86705,-0.013740221038460732,0.009469861164689064,0.9951686859130859,-4.322759628295898,-5.29705810546875,3.4956679344177246,1.6814661026000977,3.7971301078796387,0.31174638867378235,-1.3232753276824951,0.14732085168361664,2.317565441131592
167,86716,86715,0.0015914887189865112,-0.01178521104156971,1.0001198053359985,-1.6852633953094482,-8.411600112915039,3.450559616088867,1.6806528568267822,3.7970287799835205,0.31239110231399536,-1.1419674158096313,0.07169479876756668,2.3502631187438965
168,86726,86725,0.01754012517631054,-0.02443660981953144,0.9795979857444763,0.7710227966308594,-9.179715156555176,3.261232614517212,1.6807565689086914,3.7966957092285156,0.3129461407661438,-0.9964507818222046,0.04100541025400162,2.38438081741333
169,86736,86735,-0.02969394251704216,0.024750227108597755,1.007697343826294,2.1840744018554688,-8.216711044311523,2.9669148921966553,1.6836202144622803,3.7958695888519287,0.31472206115722656,-1.1422313451766968,0.13258031010627747,2.4257678985595703
170,86746,86745,0.03058113530278206,-0.04253411293029785,0.94105464220047,2.9961390495300293,-5.353306293487549,2.125622510910034,1.6855007410049438,3.7958126068115234,0.3151513636112213,-1.1332424879074097,0.1644713282585144,2.4536147117614746
171,86756,86755,0.011999018490314484,-0.0002509585756342858,0.9737178087234497,2.2955517768859863,-4.301711082458496,1.509534478187561,1.6852153539657593,3.795551300048828,0.3158189058303833,-0.9341921210289001,0.20339885354042053,2.479527473449707
172,86766,86765,0.07972665131092072,-0.09889248758554459,1.0218943357467651,0.34085118770599365,-2.6479997634887695,1.578320860862732,1.687761664390564,3.795542001724243,0.31219616532325745,-1.0922794342041016,0.2117573618888855,2.489856481552124
173,86776,86775,0.02225617878139019,-0.05709551274776459,0.9147126078605652,-2.10986590385437,-3.0059146881103516,0.9610894918441772,1.6877026557922363,3.7948389053344727,0.31258097290992737,-0.9342512488365173,0.2733914256095886,2.5203754901885986
174,86786,86785,0.004558116663247347,0.011521096341311932,0.9839459657669067,-3.1164512634277344,-0.9231916069984436,0.490977019071579,1.688733696937561,3.7950477600097656,0.31279194355010986,-0.9359957575798035,0.21105176210403442,2.5212855339050293
175,86796,86795,0.019071370363235474,-0.0007460320484824479,0.9398417472839355,-3.7915122509002686,-0.5892037153244019,-0.04345988854765892,1.6902517080307007,3.79526424407959,0.31336843967437744,-0.8917427062988281,0.13605397939682007,2.5197501182556152
176,86806,86805,-0.012776749208569527,-0.039036914706230164,0.9602704048156738,-4.334809303283691,-2.1956892013549805,-0.2412426769733429,1.6912596225738525,3.795531988143921,0.31350481510162354,-0.9275681376457214,0.05841979384422302,2.512441396713257
177,86816,86815,0.007149302400648594,-0.09034440666437149,0.9514221549034119,-2.982708215713501,-2.5100903511047363,-1.266809105873108,1.6915119886398315,3.796081781387329,0.31362661719322205,-0.8615925908088684,-0.023442713543772697,2.5037314891815186
178,86826,86825,-0.022029055282473564,-0.008249698206782341,0.9693086743354797,-1.6438848972320557,-2.819610834121704,-1.8037556409835815,1.6936925649642944,3.79494309425354,0.3135708272457123,-0.943847119808197,-0.0013564025284722447,2.490222692489624
179,86836,86835,0.026155609637498856,-0.029101159423589706,0.9333091378211975,-1.5931650400161743,-4.787957191467285,-2.933769702911377,1.6940654516220093,3.7950239181518555,0.3144952654838562,-0.8519933819770813,-0.04132741317152977,2.468928813934326
180,86846,86845,0.007309081964194775,-0.017611829563975334,0.964854896068573,-1.5505216121673584,-5.553214073181152,-3.6276776790618896,1.6947991847991943,3.795100688934326,0.3146093785762787,-0.7362708449363708,-0.07684031128883362,2.4391515254974365
181,86856,86855,0.023188430815935135,-0.08108368515968323,0.9250994920730591,-1.0140407085418701,-7.23689079284668,-4.277361869812012,1.696697473526001,3.7948169708251953,0.3145337998867035,-0.7553980350494385,-0.03506473824381828,2.4092276096343994
182,86866,86865,-0.018514620140194893,-0.019982121884822845,0.9675487875938416,-0.8618505597114563,-6.9134440422058105,-4.7633562088012695,1.6974542140960693,3.7943403720855713,0.31544286012649536,-0.5914142727851868,-0.06300336867570877,2.3653037548065186
183,86876,86875,-0.009584011510014534,0.002890226664021611,0.9804700016975403,-1.051946759223938,-6.202260494232178,-5.3444085121154785,1.7001872062683105,3.794553518295288,0.31527724862098694,-0.6690806746482849,-0.08717809617519379,2.31636381149292
184,86886,86885,0.003150675445795059,-0.02229546196758747,0.975693941116333,-1.4301167726516724,-5.00416374206543,-5.488728046417236,1.700344204902649,3.7944703102111816,0.31531503796577454,-0.5194613337516785,-0.11276666074991226,2.26173996925354
185,86896,86895,0.0063771135173738,-0.04690076410770416,0.9494521617889404,-1.044542670249939,-2.232332468032837,-5.865548133850098,1.7013341188430786,3.793654441833496,0.31558042764663696,-0.40136292576789856,-0.06682653725147247,2.2101588249206543
186,86906,86905,-0.007015785202383995,0.019448069855570793,0.9932563900947571,1.7602872848510742,-4.830359935760498,-5.554931163787842,1.7048677206039429,3.793835401535034,0.3153719902038574,-0.5712479948997498,-0.09614042937755585,2.1519036293029785
187,86916,86915,0.03942647576332092,-0.014789341017603874,0.9991292357444763,2.9609224796295166,-2.5248639583587646,-4.995233535766602,1.7045044898986816,3.792837619781494,0.31546550989151,-0.3605125844478607,0.0011296755401417613,2.098757743835449
188,86926,86925,0.08770565688610077,-0.07314418256282806,0.9777421951293945,5.534681797027588,-7.354858875274658,-3.5864410400390625,1.706800103187561,3.792559862136841,0.3153928816318512,-0.3274356424808502,0.04329223558306694,2.0502116680145264
189,86936,86935,-0.020232485607266426,0.0333581306040287,1.017920970916748,3.4931089878082275,-8.947465896606445,-3.0568950176239014,1.7085459232330322,3.793137788772583,0.31403589248657227,-0.30609896779060364,0.03997479006648064,2.0129785537719727
190,86946,86945,-0.011973286978900433,-0.15629734098911285,0.9994604587554932,0.3883553147315979,-9.65561580657959,-2.66896653175354,1.7079663276672363,3.793297529220581,0.31392303109169006,-0.10645385831594467,0.07852441817522049,1.9916187524795532
191,86956,86955,0.03880429267883301,0.03146009147167206,1.0245721340179443,-4.462435722351074,-5.600069522857666,-1.6446846723556519,1.7122715711593628,3.792867422103882,0.3134880065917969,-0.20175643265247345,0.13016921281814575,1.9663814306259155
192,86966,86965,-0.022684358060359955,-0.02793828770518303,0.9707103371620178,-6.723860263824463,-6.443365097045898,-1.405579924583435,1.7143713235855103,3.793560743331909,0.3132297992706299,-0.019006770104169846,0.039654020220041275,1.9584300518035889
193,86976,86975,0.08664432913064957,-0.06516525894403458,1.0021369457244873,-10.185481071472168,-4.375916481018066,-0.9142516851425171,1.7146575450897217,3.7936315536499023,0.3130965530872345,0.13027146458625793,-0.02957743965089321,1.944752812385559
194,86986,86985,-0.02670791558921337,-0.009774058125913143,1.0203105211257935,-11.771410942077637,-3.558298110961914,-1.395524263381958,1.7172194719314575,3.7925732135772705,0.3127635419368744,0.02975965291261673,-0.06989013403654099,1.9356398582458496
195,86996,86995,0.024915656074881554,0.020915726199746132,0.9482090473175049,-11.469749450683594,-1.3023102283477783,-1.144575595855713,1.718733310699463,3.7933921813964844,0.31272464990615845,0.09663860499858856,-0.2936127781867981,1.921964168548584
196,87006,87005,-0.029107924550771713,0.03686058521270752,1.0608854293823242,-9.700173377990723,-2.1282055377960205,-1.348320484161377,1.7176158428192139,3.792304039001465,0.31266269087791443,0.25837868452072144,-0.3375502824783325,1.897234320640564
197,87016,87015,0.004708274267613888,-0.09347528219223022,0.9737706780433655,-6.795691967010498,-0.2712301015853882,-0.05733704939484596,1.7181493043899536,3.7913968563079834,0.31247952580451965,0.24803848564624786,-0.4285723567008972,1.8755277395248413
198,87026,87025,-0.011707816272974014,0.02145426906645298,1.0336397886276245,-3.993959665298462,-0.2542180120944977,1.37104332447052,1.719576120376587,3.7917680740356445,0.312860369682312,0.2115166336297989,-0.5476717948913574,1.8826124668121338
199,87036,87035,0.05385642498731613,-0.05878475308418274,0.9997232556343079,-1.4528467655181885,-3.060866355895996,2.058758020401001,1.7205045223236084,3.791954278945923,0.3127261996269226,0.18968914449214935,-0.6148187518119812,1.9016759395599365
200,87046,87045,0.002755894558504224,-0.04028377681970596,1.0086843967437744,0.7142046689987183,-6.007795333862305,2.2362539768218994,1.7213841676712036,3.7923104763031006,0.31263306736946106,0.2165490984916687,-0.5666589140892029,1.9327442646026611
201,87056,87055,0.0035945535637438297,-0.03786253556609154,0.9946223497390747,2.2981412410736084,-8.088218688964844,2.360941171646118,1.7204954624176025,3.7918763160705566,0.3127071261405945,0.4348132908344269,-0.5611428022384644,1.9423820972442627
202,87066,87065,-0.031068962067365646,-0.02514612302184105,1.0564998388290405,1.7798296213150024,-5.5261549949646,1.4547157287597656,1.720479965209961,3.791206121444702,0.3155770003795624,0.5816603302955627,-0.46075135469436646,1.9581352472305298
203,87076,87075,0.04943001642823219,-0.08199699968099594,0.9630814790725708,-0.9719335436820984,-4.807412624359131,0.12482699751853943,1.7230656147003174,3.7912023067474365,0.3156432807445526,0.48626866936683655,-0.4588235318660736,1.9829248189926147
204,87086,87085,0.020245634019374847,0.02236444316804409,1.0375051498413086,-2.2835402488708496,-3.0903053283691406,-1.7975668907165527,1.7248677015304565,3.791271209716797,0.31578320264816284,0.5870246291160583,-0.4938994348049164,1.986700415611267
205,87096,87095,0.020653633400797844,-0.049009762704372406,0.9760841131210327,-3.799670457839966,2.8166017532348633,-2.9847910404205322,1.7263189554214478,3.791616916656494,0.31314617395401,0.577244758605957,-0.5454213619232178,1.973012924194336
206,87106,87105,0.05409330502152443,-0.002097416203469038,0.9819046258926392,-3.8092379570007324,7.680612564086914,-4.834493637084961,1.7268006801605225,3.792011022567749,0.313107967376709,0.5323552489280701,-0.613181471824646,1.9424077272415161
207,87116,87115,-0.09728367626667023,0.019267963245511055,1.0056818723678589,-3.767916440963745,10.954865455627441,-4.6641740798950195,1.7275933027267456,3.792262554168701,0.3130702078342438,0.501738965511322,-0.6762886047363281,1.888494849205017
208,87126,87125,0.030869323760271072,-0.102371446788311,0.9980124831199646,-1.582443118095398,12.084310531616211,-4.612793445587158,1.7283717393875122,3.7928004264831543,0.3129979968070984,0.4124089479446411,-0.732904314994812,1.8453936576843262
209,87136,87135,0.03987035155296326,-0.08684584498405457,1.0425043106079102,2.3814022541046143,9.974119186401367,-4.052741050720215,1.728833794593811,3.792766571044922,0.3129594624042511,0.32444441318511963,-0.7421131134033203,1.797797441482544
210,87146,87145,0.02982683666050434,-0.06212112307548523,1.0164263248443604,6.046789169311523,4.867134094238281,-2.2604753971099854,1.7294172048568726,3.792430877685547,0.3129541873931885,0.27452853322029114,-0.6853434443473816,1.7458373308181763
211,87156,87155,-0.007207360118627548,-0.009425639174878597,1.0069166421890259,7.937982559204102,1.7585735321044922,-1.172628402709961,1.7317363023757935,3.7918648719787598,0.31290802359580994,0.14346323907375336,-0.5739033222198486,1.720716118812561
212,87166,87165,-0.0009303278638981283,0.037656232714653015,0.9939515590667725,7.018261909484863,0.3650398552417755,0.5081480145454407,1.7337260246276855,3.790990114212036,0.31011441349983215,0.14130128920078278,-0.4395412802696228,1.6914030313491821
213,87176,87175,0.006870008539408445,0.10559806227684021,1.022014856338501,5.461010932922363,1.082470178604126,1.9081450700759888,1.7337310314178467,3.7914223670959473,0.3100292384624481,0.2295331060886383,-0.409980446100235,1.6951079368591309
214,87186,87185,0.045509520918130875,0.0016611734172329307,0.9705454111099243,3.2172787189483643,2.8793396949768066,2.4518518447875977,1.735787272453308,3.790597915649414,0.30974844098091125,0.06607925146818161,-0.3336631655693054,1.7077243328094482
215,87196,87195,-0.009355409070849419,-0.021718891337513924,0.9949756264686584,1.9294357299804688,4.740750312805176,3.48405385017395,1.7369412183761597,3.7900550365448,0.31115877628326416,0.10702375322580338,-0.2890136241912842,1.7171818017959595
216,87206,87205,0.0032972379121929407,-0.02308008261024952,0.9958148002624512,0.3700878322124481,2.590923309326172,3.913780689239502,1.7379062175750732,3.7901127338409424,0.3110278248786926,-0.02004353329539299,-0.26802003383636475,1.7597594261169434
217,87216,87215,-0.012844818644225597,-0.02707049436867237,1.0216585397720337,-1.004926323890686,1.3107000589370728,3.2844648361206055,1.7374000549316406,3.7907111644744873,0.3110087513923645,0.03391816467046738,-0.2717394232749939,1.8131778240203857
218,87226,87225,0.02433965355157852,-0.04411601275205612,0.9688102602958679,-0.4291689097881317,-1.8234930038452148,2.7978193759918213,1.7387070655822754,3.7914562225341797,0.31021687388420105,-0.029177019372582436,-0.3652018904685974,1.8526893854141235
219,87236,87235,-0.038136884570121765,0.04408712685108185,1.0469802618026733,-0.5905424356460571,-2.59311580657959,2.641075849533081,1.7380516529083252,3.7932112216949463,0.3101608455181122,0.09848244488239288,-0.44173887372016907,1.9076062440872192
220,87246,87245,-0.025923602283000946,-0.017407212406396866,0.9917502999305725,0.003794262185692787,0.5521910786628723,2.2709507942199707,1.7388290166854858,3.793090343475342,0.31006723642349243,0.09227848798036575,-0.4290299117565155,1.9538254737854004
221,87256,87255,-0.03501499444246292,0.06189924478530884,1.032142162322998,2.511871337890625,1.2804620265960693,1.6560444831848145,1.7398929595947266,3.794363260269165,0.3099079728126526,0.022420108318328857,-0.41057634353637695,1.9891915321350098
222,87266,87265,-0.06501688808202744,0.12246628850698471,1.0138554573059082,4.160100936889648,5.434605598449707,1.178742527961731,1.7393566370010376,3.7939062118530273,0.31033065915107727,0.14794224500656128,-0.35252997279167175,1.9805270433425903
223,87276,87275,-0.06937427818775177,0.0805434137582779,1.0493688583374023,5.200314998626709,4.966915607452393,1.8524086475372314,1.7408009767532349,3.7948830127716064,0.310249388217926,0.06412860751152039,-0.34223848581314087,2.0091817378997803
224,87286,87285,0.03559613600373268,-0.15220005810260773,0.995948076248169,5.918954849243164,5.052674770355225,2.0768237113952637,1.7418924570083618,3.7940895557403564,0.31033855676651,0.07986912876367569,-0.2340449094772339,2.0066518783569336
225,87296,87295,-0.05032573267817497,-0.019081391394138336,1.0173518657684326,5.954036235809326,5.498500823974609,1.0263079404830933,1.7428433895111084,3.795072078704834,0.310940146446228,0.0047514671459794044,-0.1947629600763321,2.0427703857421875
226,87306,87305,-0.008981647901237011,0.010939782485365868,1.0287531614303589,2.853029251098633,3.2783501148223877,0.3494540750980377,1.7438017129898071,3.7950453758239746,0.3110256493091583,-0.07216256856918335,-0.17016270756721497,2.04556941986084
227,87316,87315,-0.019707169383764267,0.06757499277591705,0.9945357441902161,1.222550630569458,-0.6692366600036621,-0.09477797895669937,1.7452402114868164,3.796274423599243,0.31104421615600586,-0.1850655972957611,-0.18531587719917297,2.0787081718444824
228,87326,87325,-0.05266201123595238,0.10981033742427826,0.9505212903022766,-1.3659101724624634,-2.332385540008545,0.27572065591812134,1.7453324794769287,3.7955167293548584,0.3094160854816437,-0.15917925536632538,-0.15428851544857025,2.0543949604034424
229,87336,87335,-0.02312522567808628,-4.635652294382453e-05,0.9931224584579468,-1.519819974899292,-5.390087127685547,1.2684890031814575,1.7447224855422974,3.796076774597168,0.3094085156917572,-0.09140937030315399,-0.1606801450252533,2.0748088359832764
230,87346,87345,0.049373809248209,-0.05139416828751564,1.0160131454467773,-0.12912943959236145,-8.286437034606934,1.5122137069702148,1.7454583644866943,3.7961642742156982,0.3093128800392151,-0.049137696623802185,-0.1589769423007965,2.088587522506714
231,87356,87355,0.01017144974321127,-0.054303672164678574,0.984239935874939,1.9005661010742188,-12.117217063903809,2.2802963256835938,1.7453490495681763,3.796663761138916,0.30743545293807983,0.025371992960572243,-0.14427624642848969,2.1187632083892822
232,87366,87365,-0.09364140033721924,0.012778667733073235,1.0122597217559814,4.307893753051758,-10.562515258789062,1.7856260538101196,1.7454981803894043,3.79707932472229,0.3072991371154785,0.14686550199985504,-0.09003155678510666,2.152541399002075
233,87376,87375,-0.0392000675201416,0.02892564795911312,0.9662763476371765,3.282177686691284,-5.557483196258545,2.443174362182617,1.7467617988586426,3.7975378036499023,0.30714815855026245,0.2315688282251358,-0.013624648563563824,2.180629253387451
234,87386,87385,0.04467064142227173,-0.024314921349287033,0.9613974690437317,1.3727830648422241,-2.355833053588867,2.448723554611206,1.747436285018921,3.798720598220825,0.3069617748260498,0.2511512041091919,-0.03451251983642578,2.227234125137329
235,87396,87395,-0.039104264229536057,0.03487464785575867,1.0606080293655396,-0.7641897201538086,-2.3078267574310303,1.814255714416504,1.747942566871643,3.798868179321289,0.3078846335411072,0.2909901440143585,-0.009119249880313873,2.2486021518707275
236,87406,87405,0.017596343532204628,-0.062183596193790436,0.9920235276222229,-3.861161231994629,2.0120444297790527,1.0225980281829834,1.7475754022598267,3.7982969284057617,0.3078438341617584,0.3906090259552002,-0.028728438541293144,2.240081310272217
237,87416,87415,0.03677507862448692,0.10192083567380905,1.0135600566864014,-3.357496500015259,3.4968831539154053,0.43324846029281616,1.7498064041137695,3.7985918521881104,0.30774787068367004,0.27596476674079895,-0.08067121356725693,2.248267650604248
238,87426,87425,-9.038008283823729e-05,0.014860165305435658,1.011253833770752,-3.9912781715393066,0.6850738525390625,-0.518592894077301,1.750672698020935,3.7984468936920166,0.3060527443885803,0.30938681960105896,-0.12980817258358002,2.2332417964935303
239,87436,87435,-0.0038888410199433565,0.000751265324652195,1.0428472757339478,-2.543274164199829,-2.724688768386841,-2.0888710021972656,1.7517739534378052,3.798004388809204,0.30584800243377686,0.22837971150875092,-0.18116062879562378,2.202925682067871
