,timestamp_start,timestamp_end,acc.x,acc.y,acc.z,gyro.x,gyro.y,gyro.z,stateEstimate.x,stateEstimate.y,stateEstimate.z,stabilizer.pitch,stabilizer.roll,stabilizer.yaw
0,85603,85600,-0.05497738718986511,0.03915536403656006,1.0060601234436035,-11.776979446411133,-5.160512924194336,-2.360117197036743,2.038893938064575,4.166952133178711,0.17557083070278168,-0.7618849277496338,1.4738216400146484,3.477257490158081
1,85613,85610,0.019550949335098267,-0.01421546284109354,0.9481709599494934,-10.109258651733398,-2.3785812854766846,-1.4396551847457886,2.0349583625793457,4.16209602355957,0.17729604244232178,-0.899756669998169,1.3552361726760864,3.419802188873291
2,85623,85620,0.11350420117378235,-0.025736428797245026,0.9488805532455444,-9.229394912719727,-1.5287110805511475,-1.6904866695404053,2.033297538757324,4.161590576171875,0.17577730119228363,-0.8921889066696167,1.4026345014572144,3.415034532546997
3,85633,85630,0.04649913311004639,-0.05114193260669708,0.9367738962173462,-11.094945907592773,-1.2147964239120483,-1.8317523002624512,2.032111883163452,4.162237167358398,0.17739449441432953,-0.9711571335792542,1.2768856287002563,3.3754966259002686
4,85643,85640,-0.02481059543788433,-0.06934712082147598,1.0257304906845093,-13.572406768798828,-4.3923797607421875,-1.450085997581482,2.03193998336792,4.16121244430542,0.17892678081989288,-0.9284879565238953,1.1991376876831055,3.3747692108154297
5,85653,85650,0.018396342173218727,-0.13151699304580688,0.9659521579742432,-16.32193946838379,-3.8322947025299072,-1.645302176475525,2.0274147987365723,4.165225028991699,0.1806626170873642,-0.8775572776794434,1.059018850326538,3.3629307746887207
6,85663,85660,-0.005600204225629568,-0.010895452462136745,1.0124123096466064,-18.157506942749023,-5.024318218231201,-1.4554221630096436,2.024906873703003,4.1661272048950195,0.1828361451625824,-0.819804310798645,1.0275771617889404,3.3735508918762207
7,85673,85670,0.03022930771112442,0.018170170485973358,1.0051237344741821,-20.47696876525879,-3.2794432640075684,-1.0827137231826782,2.0242698192596436,4.165328502655029,0.18425661325454712,-0.8083219528198242,0.9496794939041138,3.368802309036255
8,85683,85680,0.07985910028219223,-0.11301916837692261,1.0147995948791504,-20.6529598236084,-8.623661994934082,-1.1281155347824097,2.0251450538635254,4.165246963500977,0.18628840148448944,-0.7803616523742676,0.6056915521621704,3.326476573944092
9,85693,85690,0.00045269454130902886,-0.00225710216909647,1.0478267669677734,-20.11180305480957,-9.321048736572266,-0.6522576212882996,2.0256857872009277,4.165680885314941,0.18482321500778198,-0.6889451146125793,0.4682859182357788,3.3287060260772705
10,85703,85700,0.035603467375040054,-0.02082851529121399,0.9923261404037476,-18.621994018554688,-7.8183913230896,-0.40206706523895264,2.023844003677368,4.163620471954346,0.18634292483329773,-0.5315870046615601,0.2814548909664154,3.333024740219116
11,85713,85710,-0.023479638621211052,0.02909761480987072,1.0507625341415405,-16.471712112426758,-6.7798686027526855,-0.5845091342926025,2.0256619453430176,4.162577152252197,0.18760661780834198,-0.6227630972862244,0.26458561420440674,3.335040330886841
12,85723,85720,0.006713999900966883,-0.03819568082690239,1.021500825881958,-14.298401832580566,-5.747498512268066,-0.4817984104156494,2.02372407913208,4.163510322570801,0.19109845161437988,-0.4832907021045685,-0.029011227190494537,3.315502643585205
13,85733,85730,0.003942383918911219,-0.0022022491320967674,1.0256118774414062,-13.375823020935059,-5.5570969581604,-0.25090619921684265,2.0255372524261475,4.165708541870117,0.19301114976406097,-0.4395480751991272,-0.3469540476799011,3.281891107559204
14,85743,85740,0.021886201575398445,0.0197309497743845,1.0411007404327393,-11.973719596862793,-5.901233673095703,0.5687355995178223,2.027695894241333,4.16568660736084,0.19466014206409454,-0.5414404273033142,-0.26662519574165344,3.3023345470428467
15,85753,85750,-0.03220481798052788,-0.0018531905952841043,1.0547513961791992,-10.676812171936035,-7.106475353240967,0.7717338800430298,2.027484178543091,4.16434907913208,0.1965561807155609,-0.3943513035774231,-0.4032997786998749,3.3093554973602295
16,85763,85760,0.042118147015571594,-0.12728390097618103,1.0036603212356567,-10.935342788696289,-9.510337829589844,0.8483946323394775,2.0275158882141113,4.164543151855469,0.1961250901222229,-0.2249198704957962,-0.5253183841705322,3.3175246715545654
17,85773,85770,-0.027220407500863075,0.03327439725399017,1.0557012557983398,-10.453309059143066,-8.472949981689453,0.894154965877533,2.027966022491455,4.16300630569458,0.1977769136428833,-0.19052252173423767,-0.5632990598678589,3.3356540203094482
18,85783,85780,0.05251643434166908,0.08452019095420837,1.0122689008712769,-9.599885940551758,-6.243277072906494,1.028423547744751,2.0286805629730225,4.1648125648498535,0.19986605644226074,-0.025423264130949974,-0.8879956007003784,3.3189048767089844
19,85793,85790,0.0487564355134964,0.0041307080537080765,1.0064783096313477,-9.137022018432617,-9.57129955291748,1.1901596784591675,2.0298843383789062,4.165550231933594,0.20241199433803558,-0.03825034946203232,-1.1032521724700928,3.3216590881347656
20,85803,85800,0.04415888339281082,0.04578692093491554,1.0570778846740723,-7.783703804016113,-8.119009971618652,1.402061939239502,2.0298709869384766,4.163078784942627,0.20439405739307404,0.05780695751309395,-0.8498555421829224,3.3649418354034424
21,85813,85810,-0.05651004612445831,-0.02038157358765602,1.061920404434204,-5.262298583984375,-5.831051826477051,1.5639890432357788,2.0308125019073486,4.16403865814209,0.2065640240907669,0.0749766007065773,-1.1140838861465454,3.3721189498901367
22,85823,85820,0.037699829787015915,-0.06841983646154404,0.9638826847076416,-6.0134077072143555,-2.7045862674713135,1.684938907623291,2.029705286026001,4.163607597351074,0.2090330272912979,0.19471773505210876,-1.1117680072784424,3.3858420848846436
23,85833,85830,-0.04871063306927681,0.1851121485233307,1.074486255645752,-5.029078483581543,-0.8388227224349976,1.8500590324401855,2.0287747383117676,4.163299560546875,0.21097368001937866,0.12163157761096954,-1.1227468252182007,3.4140801429748535
24,85843,85840,0.004244975280016661,0.02203504554927349,0.9983216524124146,-4.143784523010254,-1.838435411453247,1.4045065641403198,2.027282238006592,4.161601543426514,0.21309567987918854,0.11213083565235138,-1.2526524066925049,3.4320642948150635
25,85853,85850,-0.08662538975477219,-0.02115071937441826,1.031704306602478,-4.741644382476807,-4.073601245880127,1.2071950435638428,2.0236032009124756,4.164057731628418,0.21414782106876373,0.21009670197963715,-1.3617360591888428,3.4270715713500977
26,85863,85860,-0.05499798059463501,-0.03931383788585663,1.0271185636520386,-5.392824649810791,-5.619215965270996,0.8863646984100342,2.0228898525238037,4.16140604019165,0.2163485288619995,0.2497406303882599,-1.408668875694275,3.4412176609039307
27,85873,85870,0.003777554724365473,-0.08147302269935608,0.9919240474700928,-4.459598541259766,-5.370023727416992,0.8165157437324524,2.018883228302002,4.163349628448486,0.2184537649154663,0.3757808208465576,-1.5787653923034668,3.437501907348633
28,85883,85880,0.008444537408649921,0.09041174501180649,0.9996325969696045,-1.1504859924316406,-7.492722511291504,0.7989396452903748,2.017928123474121,4.163065433502197,0.2204912006855011,0.4969156086444855,-1.6336082220077515,3.433472156524658
29,85893,85890,-0.008530670776963234,-0.012159869074821472,0.986162006855011,2.0355336666107178,-5.627287864685059,0.670906126499176,2.016744375228882,4.161162376403809,0.22154805064201355,0.6238712072372437,-1.7052679061889648,3.4308035373687744
30,85903,85900,-0.07967819273471832,-0.012964839115738869,1.0260182619094849,5.266071796417236,-3.8118460178375244,0.9143033623695374,2.015758991241455,4.160483360290527,0.2234760969877243,0.7209935784339905,-1.705786108970642,3.4302549362182617
31,85913,85910,0.003986578434705734,0.019789783284068108,1.0009015798568726,6.667581081390381,-0.47066226601600647,0.8526068925857544,2.0207650661468506,4.159886360168457,0.2260688990354538,0.04573681950569153,-1.733909010887146,3.6017377376556396
32,85923,85920,0.02550916001200676,-0.04243211820721626,0.9492249488830566,7.9206156730651855,2.692586660385132,0.24638602137565613,2.020003080368042,4.160465240478516,0.22999215126037598,0.12053880840539932,-1.6441665887832642,3.5899429321289062
33,85933,85930,0.03753049299120903,0.12970870733261108,0.993019700050354,9.047318458557129,1.2368659973144531,0.18909914791584015,2.0188803672790527,4.161043643951416,0.23221558332443237,0.16033507883548737,-1.5335749387741089,3.571945905685425
34,85943,85940,0.06383883953094482,0.046938542276620865,0.9791186451911926,9.669146537780762,-5.189909934997559,0.05375761538743973,2.0184476375579834,4.1613688468933105,0.23441477119922638,0.23962520062923431,-1.4804929494857788,3.554692029953003
35,85953,85950,-0.11707896739244461,0.026223110035061836,0.9422835111618042,9.285998344421387,-10.081775665283203,0.1362217515707016,2.0186281204223633,4.163315773010254,0.23534519970417023,0.3614567220211029,-1.3439244031906128,3.5432779788970947
36,85963,85960,-0.07568365335464478,0.0030094552785158157,1.0125545263290405,7.492086887359619,-11.258438110351562,-0.25787511467933655,2.0191457271575928,4.163130283355713,0.23731523752212524,0.44383975863456726,-1.2201658487319946,3.550820827484131
37,85973,85970,0.07972859591245651,-0.0786360502243042,0.9456714987754822,5.865786075592041,-11.517278671264648,-0.3490002155303955,2.0190136432647705,4.163590431213379,0.23923756182193756,0.5379276275634766,-1.2793285846710205,3.5600709915161133
38,85983,85980,0.1256411075592041,-0.030692484229803085,0.9547726511955261,5.303661823272705,-8.706820487976074,-0.6843321919441223,2.018059492111206,4.163485527038574,0.24119344353675842,0.7586106657981873,-1.1940386295318604,3.533949613571167
39,85993,85990,0.04412767291069031,-0.04434738680720329,0.9238653779029846,6.614445686340332,-8.00344181060791,-0.40624499320983887,2.0159339904785156,4.163835048675537,0.23926493525505066,0.9275106191635132,-1.1059651374816895,3.515394926071167
40,86003,86000,0.05205367133021355,-0.018389681354165077,1.0084357261657715,7.278470993041992,-3.923945665359497,-0.5339083671569824,2.0178072452545166,4.165698051452637,0.24087196588516235,1.0578086376190186,-1.0065555572509766,3.4983034133911133
41,86013,86010,-0.03609023615717888,0.026736587285995483,1.0203542709350586,6.2584357261657715,1.3835676908493042,-0.27824684977531433,2.0197079181671143,4.166808605194092,0.24253243207931519,1.0343379974365234,-0.9075040221214294,3.5022194385528564
42,86023,86020,-0.03098134882748127,-0.03464348241686821,0.9642603397369385,6.63346004486084,5.4904913902282715,-0.3473261296749115,2.016404628753662,4.167525291442871,0.2446402758359909,1.002518653869629,-0.811909556388855,3.497389078140259
43,86033,86030,-0.0030971828382462263,-0.022739646956324577,0.9555685520172119,5.354098320007324,10.408219337463379,-0.5401974320411682,2.016549825668335,4.167442321777344,0.2462247610092163,0.89872807264328,-0.6551697850227356,3.4895193576812744
44,86043,86040,-0.04036162421107292,0.01499306783080101,0.9269898533821106,4.435329437255859,7.900479316711426,-0.5806806683540344,2.0132381916046143,4.167469501495361,0.24795447289943695,1.0468947887420654,-0.8079217672348022,3.462346315383911
45,86053,86050,-0.04357945919036865,0.018142016604542732,0.9822341203689575,4.551412105560303,8.113394737243652,-0.5489347577095032,2.0125041007995605,4.165946006774902,0.2508070766925812,1.0416709184646606,-0.5946128964424133,3.422981023788452
46,86063,86060,0.0014219566946849227,-0.05867142975330353,0.9478470087051392,3.9082069396972656,7.645786762237549,-0.08292662352323532,2.010378122329712,4.166045665740967,0.2523195147514343,1.169069766998291,-0.5371223092079163,3.3845136165618896
47,86073,86070,0.04487238824367523,-0.11608342826366425,0.9683512449264526,3.16499924659729,8.263373374938965,-0.05744599550962448,2.0097622871398926,4.166018009185791,0.2538774311542511,0.9958847761154175,-0.42324942350387573,3.3853254318237305
48,86083,86080,0.06453200429677963,-0.057932961732149124,0.9432584047317505,1.5858820676803589,11.751884460449219,-0.4399425685405731,2.010526180267334,4.165125846862793,0.2555260956287384,0.8768499493598938,-0.4015387296676636,3.388211488723755
49,86093,86090,0.055589769035577774,0.015717729926109314,0.965940535068512,1.0476555824279785,11.541619300842285,-0.3296058475971222,2.010697364807129,4.163176536560059,0.2553669214248657,0.6494476199150085,-0.40263473987579346,3.3981125354766846
50,86103,86100,0.012595133855938911,-0.028006503358483315,0.965643584728241,0.5269805788993835,12.393389701843262,-0.3870229125022888,2.0109970569610596,4.164653778076172,0.25670385360717773,0.42083024978637695,-0.4092782139778137,3.406289577484131
51,86113,86110,-0.012210307642817497,-0.15208201110363007,0.9718329906463623,-0.6452904939651489,9.86108684539795,-0.7618157863616943,2.010592222213745,4.164849758148193,0.258014053106308,0.2353847473859787,-0.3489803969860077,3.4015400409698486
52,86123,86120,-0.051397114992141724,-0.18911054730415344,0.9366267323493958,-1.4357327222824097,7.971580505371094,-0.8596680164337158,2.010716438293457,4.164417266845703,0.2603067457675934,0.00690805446356535,-0.3877817988395691,3.406558036804199
53,86133,86130,-0.03742780163884163,0.016880130395293236,1.0201114416122437,-0.2999880611896515,4.091196537017822,-0.7177587747573853,2.007321357727051,4.1625447273254395,0.261850506067276,0.26278090476989746,-0.2786349058151245,3.3647782802581787
54,86143,86140,0.04318372905254364,-0.026476280763745308,0.9385221004486084,0.04071817919611931,-1.0542525053024292,-0.7544571757316589,2.0077524185180664,4.162810325622559,0.26325759291648865,0.056690748780965805,-0.3099437654018402,3.3693602085113525
55,86153,86150,0.06747877597808838,0.08088205754756927,0.9915426969528198,-0.6462809443473816,-2.4995460510253906,-0.5980439186096191,2.006767988204956,4.162878036499023,0.26374733448028564,0.15472029149532318,-0.3333493769168854,3.3615236282348633
56,86163,86160,0.04561880975961685,0.12361053377389908,0.9498935341835022,-0.11412511765956879,-3.688161849975586,-0.3702143728733063,2.007434129714966,4.164485931396484,0.26501962542533875,0.11760278791189194,-0.5046785473823547,3.3713204860687256
57,86173,86170,-0.04967686906456947,-0.023060066625475883,0.9667419791221619,0.04780441150069237,-2.9870426654815674,-0.35254091024398804,2.003821611404419,4.16339635848999,0.26624223589897156,0.5602568984031677,-0.42729452252388,3.3486502170562744
58,86183,86180,-0.0020404404494911432,-0.030846651643514633,0.9624221324920654,0.6732525825500488,-0.299581378698349,0.021362362429499626,2.0022544860839844,4.165422439575195,0.26579660177230835,0.6806224584579468,-0.6520906686782837,3.355087995529175
59,86193,86190,0.036527395248413086,-0.006087749730795622,0.9521295428276062,1.2856780290603638,3.9448986053466797,-0.026771169155836105,2.002739906311035,4.165405750274658,0.26692184805870056,0.5865054130554199,-0.6170181035995483,3.35827898979187
60,86203,86200,-0.05765414983034134,0.05492308363318443,0.9709880352020264,3.4772496223449707,8.278770446777344,0.10749035328626633,2.002488613128662,4.165152072906494,0.2679588794708252,0.48897749185562134,-0.5634618401527405,3.3582870960235596
61,86213,86210,-0.029865074902772903,-0.09218785911798477,0.9619421362876892,5.53153657913208,14.847020149230957,0.1834246814250946,2.0023624897003174,4.164609909057617,0.26900944113731384,0.3059672713279724,-0.4771019220352173,3.359272003173828
62,86223,86220,-0.0008358357008546591,-0.01628865674138069,0.9973312020301819,8.401360511779785,15.924721717834473,0.014201791025698185,2.0031542778015137,4.166635036468506,0.27140355110168457,0.12781262397766113,-0.4974306523799896,3.363729476928711
63,86233,86230,0.08784101903438568,0.05187404528260231,0.9956687688827515,7.7251458168029785,15.767255783081055,0.0023711551912128925,2.0032591819763184,4.166209697723389,0.2724343240261078,-0.03709029406309128,-0.3502044975757599,3.362574577331543
64,86243,86240,0.03220494091510773,0.017711319029331207,1.0091005563735962,7.654845237731934,11.427153587341309,-0.02349468693137169,2.003981828689575,4.1673808097839355,0.2735137343406677,-0.3107346296310425,-0.35897600650787354,3.3664462566375732
65,86253,86250,-0.01215991098433733,-0.01391343679279089,0.9800007343292236,8.176886558532715,6.838890075683594,-0.6311182975769043,2.0028164386749268,4.166518211364746,0.2736411690711975,-0.3514763116836548,-0.20781183242797852,3.3625552654266357
66,86263,86260,-0.10133423656225204,0.03597293421626091,0.9693536162376404,6.419163227081299,0.23758065700531006,-1.0523279905319214,2.0028116703033447,4.167698860168457,0.27455800771713257,-0.44472938776016235,-0.21400082111358643,3.3543057441711426
67,86273,86270,0.0013954233145341277,-0.01375117152929306,0.9778389930725098,4.59891414642334,-1.5672643184661865,-1.0987411737442017,2.002800703048706,4.167603969573975,0.2754657566547394,-0.4594273269176483,-0.09832434356212616,3.3436779975891113
68,86283,86280,-0.043562162667512894,0.013819469138979912,0.994910717010498,4.195131301879883,-5.453456401824951,-1.0047587156295776,2.0029306411743164,4.169238090515137,0.2747887670993805,-0.4935445785522461,-0.15333645045757294,3.322749376296997
69,86293,86290,-0.018032003194093704,0.07995633780956268,1.0196001529693604,4.152486801147461,-5.584142208099365,-0.40374699234962463,1.9998183250427246,4.17111349105835,0.27565428614616394,-0.4042567014694214,-0.04858577996492386,3.315333366394043
70,86303,86300,0.0002922837156802416,0.062186188995838165,1.0190598964691162,4.51694917678833,-4.042932510375977,-0.348134845495224,1.9971959590911865,4.172364234924316,0.27646034955978394,-0.34271490573883057,0.050734251737594604,3.3061022758483887
71,86313,86310,-0.03937797620892525,0.012796062044799328,1.0112669467926025,3.253436326980591,-1.2758110761642456,-0.27111539244651794,1.9958689212799072,4.174010753631592,0.2773667275905609,-0.3107265532016754,-0.009639440104365349,3.297183036804199
72,86323,86320,0.015013342723250389,-0.061039894819259644,0.9382086992263794,1.733869194984436,0.3110515773296356,-0.3653341829776764,1.9928051233291626,4.175320148468018,0.2799147367477417,-0.3073923885822296,-0.0081505561247468,3.2825307846069336
73,86333,86330,-0.03136749565601349,0.0648641586303711,1.0199768543243408,3.305459976196289,2.690366268157959,-0.004132481291890144,1.9929451942443848,4.1771392822265625,0.2807924449443817,-0.31576231122016907,-0.0671914741396904,3.272432327270508
74,86343,86340,0.001010076142847538,0.0394819974899292,1.0107386112213135,3.2588698863983154,3.5784058570861816,-0.07703003287315369,1.9934598207473755,4.179438591003418,0.28165388107299805,-0.39016154408454895,-0.1144075021147728,3.2660791873931885
75,86353,86350,-0.014065176248550415,-0.021718615666031837,0.9627176523208618,5.200410842895508,4.5226922035217285,0.24995921552181244,1.9924876689910889,4.178830623626709,0.28374773263931274,-0.4698067903518677,0.0013962480006739497,3.270362377166748
76,86363,86360,0.024975018575787544,-0.0596325658261776,0.9587362408638,7.860131740570068,3.6061434745788574,0.5727799534797668,1.9921231269836426,4.1789751052856445,0.28463754057884216,-0.5326603055000305,0.003000095020979643,3.2676239013671875
77,86373,86370,-0.02995273843407631,0.009886883199214935,1.011683464050293,9.915098190307617,5.122646808624268,0.5176685452461243,1.992586612701416,4.178469657897949,0.2856081426143646,-0.6013957262039185,0.20143979787826538,3.283015012741089
78,86383,86380,0.00024006080639082938,-0.02348017320036888,0.9758976101875305,9.708953857421875,9.991423606872559,0.7177517414093018,1.9915345907211304,4.178496837615967,0.2828216254711151,-0.7138385772705078,0.25850221514701843,3.2818052768707275
79,86393,86390,0.014307282865047455,-0.17037582397460938,0.9402614235877991,8.21042251586914,12.923067092895508,0.780549168586731,1.9908571243286133,4.179680824279785,0.28355464339256287,-0.8969328999519348,0.38097095489501953,3.2881648540496826
80,86403,86400,0.07368597388267517,0.04833122715353966,0.9412350654602051,5.307084083557129,13.289861679077148,0.3028465509414673,1.99152410030365,4.178902626037598,0.28416335582733154,-1.0470908880233765,0.5230180621147156,3.3036389350891113
81,86413,86410,-0.153488427400589,-0.012390276417136192,1.0273910760879517,3.13326096534729,11.461708068847656,-0.1443246752023697,1.9925287961959839,4.180036544799805,0.28553250432014465,-1.2229639291763306,0.5544356107711792,3.3008780479431152
82,86423,86420,-0.15673553943634033,-0.0013626230647787452,0.986856997013092,-0.9817887544631958,10.036879539489746,0.3644616901874542,1.992455244064331,4.180111408233643,0.286213219165802,-1.2849870920181274,0.6062036156654358,3.3083815574645996
83,86433,86430,-0.08592198044061661,0.13612611591815948,0.9926455616950989,-3.5888023376464844,6.666142463684082,0.6367543935775757,1.9925659894943237,4.180710315704346,0.2869250476360321,-1.387866735458374,0.5986032485961914,3.3135712146759033
84,86443,86440,0.0038094609044492245,0.14743895828723907,0.9986414909362793,-4.9210124015808105,1.9842653274536133,0.8051620125770569,1.9928345680236816,4.180742263793945,0.2875916659832001,-1.4203883409500122,0.5532734990119934,3.3217804431915283
85,86453,86450,0.028656013309955597,0.02712622843682766,1.0038074254989624,-3.5386273860931396,-3.481679916381836,0.5467705130577087,1.9933537244796753,4.1817545890808105,0.29098132252693176,-1.3796765804290771,0.5013558268547058,3.334965705871582
86,86463,86460,0.029149146750569344,-0.0355277955532074,0.972707986831665,-2.178070306777954,-4.9504804611206055,0.6206398606300354,1.993497371673584,4.1817498207092285,0.2909761369228363,-1.3438245058059692,0.4763757884502411,3.3420300483703613
87,86473,86470,-0.033184804022312164,0.030477233231067657,1.0280314683914185,-1.3329886198043823,-4.941503047943115,0.2239709496498108,1.9930022954940796,4.181442737579346,0.29189690947532654,-1.2212053537368774,0.4752492308616638,3.35547137260437
88,86483,86480,0.10440406948328018,-0.035461582243442535,0.9417899250984192,-0.42955392599105835,-1.5348540544509888,0.7750394940376282,1.994632363319397,4.180408477783203,0.2920374274253845,-1.3419643640518188,0.4760938286781311,3.3440022468566895
89,86493,86490,-0.012036004103720188,0.0384020172059536,0.9652206897735596,2.761458158493042,-1.6440995931625366,0.03094412386417389,1.9946001768112183,4.179688453674316,0.2928306758403778,-1.2507621049880981,0.5349177718162537,3.357396125793457
90,86503,86500,-0.03890944644808769,-1.2146909284638241e-05,0.9937443733215332,1.5917047262191772,1.535555124282837,0.0025296255480498075,1.9949674606323242,4.179370880126953,0.29354918003082275,-1.2268075942993164,0.5805503726005554,3.364586114883423
91,86513,86510,-0.018227724358439445,-0.03037550486624241,0.9587413668632507,-1.488916039466858,2.3237082958221436,-0.2568666636943817,1.9952614307403564,4.179111957550049,0.291172057390213,-1.230494499206543,0.5781398415565491,3.3657310009002686
92,86523,86520,0.04646863415837288,-0.020646385848522186,0.9640029668807983,-2.388266086578369,3.114874839782715,-0.48320862650871277,1.9952185153961182,4.179071426391602,0.29164180159568787,-1.253414273262024,0.5399130582809448,3.3625431060791016
93,86533,86530,-0.01938501186668873,0.03276638314127922,0.9516894221305847,-4.4417724609375,3.2578587532043457,0.008869935758411884,1.9949012994766235,4.178337574005127,0.2920551300048828,-1.3330246210098267,0.48746293783187866,3.3469924926757812
94,86543,86540,0.02382846549153328,0.022979864850640297,0.9622960090637207,-6.842574596405029,3.136491060256958,0.2002277374267578,1.9951881170272827,4.17884635925293,0.29247331619262695,-1.366927146911621,0.39041921496391296,3.3416194915771484
95,86553,86550,0.06139059364795685,-0.03369734808802605,0.9582726955413818,-6.468799114227295,0.6900430917739868,0.05129092559218407,1.9966256618499756,4.179987907409668,0.29181432723999023,-1.394791841506958,0.2984297573566437,3.3338961601257324
96,86563,86560,-0.0032354085706174374,0.07501374185085297,1.0119186639785767,-5.048566818237305,-0.17438432574272156,0.33227190375328064,1.9967063665390015,4.180210113525391,0.29212823510169983,-1.3251464366912842,0.21938686072826385,3.335646390914917
97,86573,86570,-0.018292516469955444,0.06727045774459839,0.9963125586509705,-2.390695571899414,-1.0557376146316528,0.37062373757362366,1.9975916147232056,4.180755615234375,0.2923645079135895,-1.3298252820968628,0.18000440299510956,3.3359274864196777
98,86583,86580,-0.011711416766047478,-0.0017970422049984336,0.9789301753044128,-0.360126256942749,-2.725181818008423,0.2173415571451187,1.9980677366256714,4.180900573730469,0.29102495312690735,-1.230098009109497,0.18143223226070404,3.3503105640411377
99,86593,86590,-0.0061422353610396385,-0.030977820977568626,1.0005555152893066,2.4246342182159424,-3.553668737411499,0.37986934185028076,1.9991705417633057,4.1822991371154785,0.2911643087863922,-1.3383090496063232,0.21606393158435822,3.343729019165039
100,86603,86600,-0.0010005924850702286,-0.010962347500026226,0.991145670413971,3.449092388153076,-3.2446506023406982,0.39269477128982544,1.9996074438095093,4.182163715362549,0.2912890911102295,-1.1326267719268799,0.3559758961200714,3.3853020668029785
101,86613,86610,-0.028631683439016342,-0.000551314209587872,1.0144106149673462,2.651732921600342,-3.127178907394409,-0.004910030402243137,1.9987181425094604,4.181565761566162,0.29239127039909363,-1.0952264070510864,0.3398631513118744,3.3780643939971924
102,86623,86620,0.020033715292811394,-0.02531684748828411,1.0100399255752563,0.5436718463897705,-1.6719359159469604,0.22035333514213562,2.0017454624176025,4.181570053100586,0.29243943095207214,-1.3678847551345825,0.3761628270149231,3.353266954421997
103,86633,86630,0.01436134334653616,-0.016596313565969467,0.9884927272796631,-1.627449631690979,-2.050506591796875,-0.1087770015001297,2.0013411045074463,4.180890083312988,0.2926712930202484,-1.2354308366775513,0.3645520806312561,3.3618533611297607
104,86643,86640,0.013040241785347462,-0.004863932263106108,1.0249360799789429,-3.1703903675079346,-3.1113879680633545,-0.41066139936447144,2.000929117202759,4.180930137634277,0.29307428002357483,-1.1835347414016724,0.3265517055988312,3.3569729328155518
105,86653,86650,-0.002921715844422579,0.006991777569055557,1.0264387130737305,-4.569483280181885,-4.282252788543701,-0.362976610660553,2.0014994144439697,4.181130886077881,0.2949402332305908,-1.1995365619659424,0.2596190571784973,3.342963218688965
106,86663,86660,0.03859395906329155,0.025106051936745644,0.9428008794784546,-5.711634635925293,-6.29958438873291,-0.3368796110153198,2.001898765563965,4.180718898773193,0.2952597141265869,-1.130539059638977,0.1642967313528061,3.333296060562134
107,86673,86670,-0.001077895169146359,0.013519473373889923,1.0078423023223877,-4.496857166290283,-7.786449432373047,-0.44223693013191223,2.003037452697754,4.18192195892334,0.2956565022468567,-0.9998912811279297,0.16856546700000763,3.344571113586426
108,86683,86680,0.05240650475025177,-0.06793683022260666,0.9704005718231201,-2.2742526531219482,-7.946321964263916,-0.2468700259923935,2.0031845569610596,4.180905342102051,0.29535478353500366,-1.1024776697158813,0.11709517985582352,3.3235397338867188
109,86693,86690,0.05177786201238632,-0.07012154906988144,0.9912151098251343,-0.7578939199447632,-7.245777606964111,-0.1515215039253235,2.005784034729004,4.181474685668945,0.2955062687397003,-0.8798600435256958,0.09891167283058167,3.329904317855835
110,86703,86700,-0.00472521036863327,-0.05062403529882431,1.0706515312194824,0.553841233253479,-7.447914123535156,-0.35111576318740845,2.0068376064300537,4.182246685028076,0.29594534635543823,-0.8053630590438843,0.10693102329969406,3.3302595615386963
111,86713,86710,0.025882061570882797,-0.08864608407020569,0.9713747501373291,0.09478636085987091,-5.559420108795166,-0.18083757162094116,2.0078821182250977,4.181907653808594,0.29972043633461,-0.6895705461502075,0.11416067183017731,3.3310484886169434
112,86723,86720,-0.01824924722313881,0.016751421615481377,1.032328724861145,1.2357697486877441,-4.273839473724365,-0.6160014271736145,2.008714199066162,4.182372093200684,0.3002636730670929,-0.681617021560669,0.13161726295948029,3.3267223834991455
113,86733,86730,-0.03780383616685867,0.03058278188109398,1.0562620162963867,-0.2134571373462677,-3.885847568511963,-0.6932542324066162,2.0099985599517822,4.182410717010498,0.3007638454437256,-0.5986146926879883,0.2863798141479492,3.3453006744384766
114,86743,86740,0.049164749681949615,-0.05618009343743324,0.9688352942466736,-1.7254211902618408,-2.7574493885040283,-0.851359486579895,2.0112693309783936,4.181354522705078,0.3013741970062256,-0.7787559032440186,0.17577236890792847,3.3109309673309326
115,86753,86750,-0.019249411299824715,0.048309098929166794,1.048050045967102,-3.1834583282470703,-1.9288629293441772,-1.2820143699645996,2.015559673309326,4.183285236358643,0.30078035593032837,-0.6348692774772644,0.1226196214556694,3.3028316497802734
116,86763,86760,0.04174916818737984,-0.051634617149829865,0.9655157327651978,-4.936108112335205,-2.831294298171997,-1.3924938440322876,2.015411853790283,4.183621406555176,0.30143028497695923,-0.5781405568122864,0.11426565796136856,3.298678159713745
117,86773,86770,0.03386283293366432,-0.05792922154068947,0.9554802775382996,-6.115434169769287,-4.663673400878906,-1.394701361656189,2.0164575576782227,4.184518814086914,0.3019799292087555,-0.5703492164611816,-0.059634651988744736,3.271481990814209
118,86783,86780,-0.027971046045422554,0.032029230147600174,1.0524475574493408,-5.208417892456055,-5.164101600646973,-0.9032161831855774,2.017465829849243,4.184001922607422,0.2999056279659271,-0.5393455624580383,-0.07557191699743271,3.2627859115600586
119,86793,86790,0.01991267502307892,-0.029077056795358658,0.960256040096283,-3.0404982566833496,-5.6464362144470215,-1.284177541732788,2.018775701522827,4.184500694274902,0.30024561285972595,-0.3371369242668152,-0.14445701241493225,3.2565743923187256
120,86803,86800,0.0008211658569052815,-0.008941076695919037,0.9997288584709167,-0.9893511533737183,-5.553421974182129,-1.6948190927505493,2.01816463470459,4.184209823608398,0.3007281422615051,-0.37793663144111633,-0.1676589697599411,3.238494634628296
121,86813,86810,-0.00932904053479433,-0.00401452137157321,1.013322114944458,0.700552225112915,-4.540274620056152,-1.8975027799606323,2.020834445953369,4.184523582458496,0.30200713872909546,-0.25774404406547546,-0.1565648466348648,3.2163455486297607
122,86823,86820,0.0375400185585022,-0.06952288001775742,0.9624162316322327,1.746747374534607,-2.2971582412719727,-1.5329183340072632,2.0214145183563232,4.1832098960876465,0.302425742149353,-0.5019294619560242,-0.1287742704153061,3.191316843032837
123,86833,86830,0.04246794059872627,-0.03786308690905571,0.9731062054634094,3.2003259658813477,-2.634647846221924,-1.1000642776489258,2.02360200881958,4.182823657989502,0.3027679920196533,-0.4048784077167511,-0.08187701553106308,3.1803319454193115
124,86843,86840,-0.00454044109210372,-0.023076562210917473,0.9806458353996277,3.070172071456909,-3.606896162033081,-1.3765836954116821,2.0229480266571045,4.1838459968566895,0.30305731296539307,-0.29885631799697876,0.055277831852436066,3.18403959274292
125,86853,86850,-0.10234197974205017,0.0034174059983342886,1.0132098197937012,0.6259713768959045,-5.240340232849121,-1.8296291828155518,2.0221288204193115,4.181905269622803,0.303482323884964,-0.2517450749874115,0.0785258561372757,3.164346218109131
126,86863,86860,0.008864980190992355,-0.01892942376434803,0.96928471326828,-2.3222408294677734,-6.518252372741699,-1.8155089616775513,2.0222532749176025,4.182482719421387,0.30386558175086975,-0.1889590471982956,0.05205705016851425,3.141484022140503
127,86873,86870,0.02127246744930744,0.024337872862815857,1.0173711776733398,-5.45089054107666,-6.789571285247803,-1.4126540422439575,2.022523880004883,4.182378768920898,0.3043670654296875,0.03643893077969551,-0.03010784648358822,3.1249163150787354
128,86883,86880,0.058078307658433914,0.01616552472114563,0.9757798910140991,-6.774062156677246,-4.902120113372803,-1.5691933631896973,2.023543119430542,4.182333469390869,0.3044680655002594,-0.019578183069825172,-0.14212016761302948,3.107879877090454
129,86893,86890,0.17026008665561676,-0.054918061941862106,0.9468059539794922,-6.748732089996338,-2.849994659423828,-1.6428333520889282,2.0253446102142334,4.182522773742676,0.3047352731227875,-0.0960533618927002,-0.2616523802280426,3.0900774002075195
130,86903,86900,0.088506318628788,-0.030737239867448807,0.9927294254302979,-3.9420392513275146,-4.386560916900635,-1.6026573181152344,2.027297258377075,4.183094024658203,0.3049301505088806,0.09440125524997711,-0.25917041301727295,3.0740110874176025
131,86913,86910,0.019810767844319344,-0.04967217892408371,1.038100004196167,-0.48831433057785034,-4.334474563598633,-1.1479744911193848,2.0278773307800293,4.182757377624512,0.30625516176223755,-0.11211387813091278,-0.2914709746837616,3.059091567993164
132,86923,86920,-0.008558045141398907,-0.04190921038389206,0.9745223522186279,1.7245570421218872,-3.6593809127807617,-1.7428183555603027,2.0316483974456787,4.183016300201416,0.30646687746047974,0.0656806230545044,-0.28175002336502075,3.0436246395111084
133,86933,86930,0.01722136326134205,-0.004728856962174177,1.0101057291030884,4.7007951736450195,-2.9793899059295654,-1.948767900466919,2.031449556350708,4.182938098907471,0.30693650245666504,0.21461839973926544,-0.22161704301834106,3.023491382598877
134,86943,86940,0.1268145740032196,-0.07886993139982224,0.9704107046127319,5.209785461425781,-2.616196870803833,-1.958337426185608,2.0317740440368652,4.182945251464844,0.30438917875289917,0.04077697917819023,-0.13834944367408752,3.003419876098633
135,86953,86950,0.030601538717746735,0.06383104622364044,0.9961872100830078,3.5230298042297363,-3.4868345260620117,-1.6366628408432007,2.0340240001678467,4.182188510894775,0.30451831221580505,0.13808326423168182,-0.14653237164020538,2.9860763549804688
136,86963,86960,0.005961880087852478,-0.02276739291846752,0.9598012566566467,1.517349123954773,-3.617141008377075,-1.9617702960968018,2.0355722904205322,4.182356357574463,0.30464592576026917,0.14969108998775482,-0.105986587703228,2.968067169189453
137,86973,86970,-0.07893727719783783,0.020999886095523834,1.0467525720596313,0.032268330454826355,-4.006884574890137,-2.110797882080078,2.0366435050964355,4.1819939613342285,0.3047223687171936,0.17137831449508667,-0.10070667415857315,2.9486441612243652
138,86983,86980,0.019362950697541237,-0.0660003125667572,1.0289264917373657,-1.0047775506973267,-1.6581523418426514,-1.5810060501098633,2.0367560386657715,4.182058811187744,0.30432793498039246,0.2954959273338318,-0.12153647094964981,2.9307901859283447
139,86993,86990,0.018203185871243477,-0.042446255683898926,0.9919435381889343,-1.486045002937317,-3.0176749229431152,-1.8223985433578491,2.0389294624328613,4.183173179626465,0.3044680655002594,0.11968570202589035,-0.12725865840911865,2.944178819656372
140,87003,87000,-0.037646565586328506,0.08872361481189728,0.9675726294517517,-3.993842124938965,0.1949404627084732,-2.3826401233673096,2.0404021739959717,4.182042121887207,0.30449530482292175,0.2741089165210724,-0.19462409615516663,2.8947246074676514
141,87013,87010,-0.05993940681219101,0.12737937271595,1.0262893438339233,-1.950016736984253,-3.632625102996826,-1.622097134590149,2.0396459102630615,4.18202543258667,0.3072868287563324,0.25424838066101074,-0.20355038344860077,2.8899824619293213
142,87023,87020,0.0741257518529892,-0.04195306822657585,0.9701794981956482,-1.503904938697815,-2.636319398880005,-1.8210821151733398,2.04097843170166,4.182308197021484,0.3075442314147949,0.26074647903442383,-0.23653672635555267,2.8990492820739746
143,87033,87030,-0.04808418080210686,0.021623041480779648,1.0024534463882446,2.452636241912842,-4.238108158111572,-2.371729612350464,2.039536714553833,4.183379173278809,0.30780228972435,0.42371419072151184,-0.2342984527349472,2.8745832443237305
144,87043,87040,-0.08119384944438934,0.029858188703656197,1.022729754447937,2.775458574295044,-3.124176263809204,-2.190272092819214,2.0380632877349854,4.184426307678223,0.3101103603839874,0.5085533261299133,-0.19554652273654938,2.868096113204956
145,87053,87050,0.027243763208389282,-0.02155160903930664,0.9662216305732727,2.8251612186431885,-1.6939970254898071,-2.3462560176849365,2.037231922149658,4.183874130249023,0.3105687201023102,0.42557817697525024,-0.2895359694957733,2.8689284324645996
146,87063,87060,0.0206467192620039,0.10725603997707367,1.0188655853271484,3.0452940464019775,0.3158683776855469,-2.5552003383636475,2.0404396057128906,4.185293674468994,0.3109239339828491,0.5489384531974792,-0.22535070776939392,2.8392820358276367
147,87073,87070,-0.0171958040446043,0.02971794083714485,1.0107111930847168,3.9129257202148438,4.782590389251709,-2.8195769786834717,2.039100170135498,4.1841254234313965,0.3114629089832306,0.5351683497428894,-0.15726423263549805,2.807929754257202
148,87083,87080,0.0003687284770421684,0.03901498764753342,1.001538634300232,3.290125608444214,3.5826926231384277,-3.0484979152679443,2.0406062602996826,4.183500289916992,0.30960988998413086,0.427871972322464,-0.16057297587394714,2.7817888259887695
149,87093,87090,0.01289115846157074,0.035335857421159744,1.0241806507110596,2.824882984161377,4.848713397979736,-2.761591911315918,2.0424985885620117,4.184213161468506,0.30980682373046875,0.3871130645275116,-0.08946175128221512,2.7476112842559814
150,87103,87100,0.011864060536026955,-0.02728826180100441,0.9824286103248596,1.3899673223495483,4.5220794677734375,-2.770519971847534,2.0433225631713867,4.183684349060059,0.3100581169128418,0.4078702926635742,-0.03812054172158241,2.713444232940674
151,87113,87110,-0.035808365792036057,0.05259152874350548,1.0450644493103027,-0.014265102334320545,3.724423885345459,-2.9470884799957275,2.0444154739379883,4.184078693389893,0.3124012053012848,0.4239032566547394,-0.011708013713359833,2.683330535888672
152,87123,87120,-0.016608459874987602,-0.15597841143608093,0.9840423464775085,0.17738552391529083,2.27955961227417,-3.1729676723480225,2.044532299041748,4.183803081512451,0.31281647086143494,0.37283316254615784,-0.07355592399835587,2.6610143184661865
153,87133,87130,-0.04267473891377449,-0.054874617606401443,1.0314760208129883,-0.23776090145111084,3.928375005722046,-3.3280599117279053,2.044619083404541,4.185136795043945,0.3131970763206482,0.2677933871746063,-0.05704570189118385,2.643359661102295
154,87143,87140,0.07355520874261856,-0.09969663619995117,0.978042721748352,-0.45708757638931274,4.407079696655273,-3.629770517349243,2.047847270965576,4.186315536499023,0.3130384087562561,0.2880198359489441,-0.046917494386434555,2.6187961101531982
155,87153,87150,-0.0035701587330549955,0.06538544595241547,0.9933857321739197,0.5614309310913086,1.7484287023544312,-3.639274835586548,2.0480995178222656,4.186365127563477,0.3134714961051941,0.23820894956588745,-0.035206373780965805,2.5741498470306396
156,87163,87160,-0.011315776966512203,0.004254677798599005,0.9812591671943665,1.3101494312286377,0.6147022247314453,-3.120063066482544,2.0485281944274902,4.18641471862793,0.31384485960006714,0.1506611555814743,-0.01050568651407957,2.541383743286133
157,87173,87170,0.027293948456645012,-0.04602771997451782,1.0110653638839722,2.318190813064575,0.9108278155326843,-3.496582269668579,2.049123764038086,4.187230110168457,0.3151789605617523,0.14929693937301636,-0.047139473259449005,2.529752492904663
158,87183,87180,-0.0024584720376878977,-0.00703567685559392,1.0124988555908203,2.6016905307769775,-0.30306699872016907,-3.6904969215393066,2.0499117374420166,4.189122200012207,0.31563812494277954,0.22690324485301971,0.003779760794714093,2.5123367309570312
159,87193,87190,0.028485700488090515,-0.03177860379219055,0.9647053480148315,3.0192909240722656,0.8582363724708557,-3.575029134750366,2.0501773357391357,4.188649654388428,0.3161594569683075,0.2167484164237976,-0.013821259140968323,2.4811882972717285
160,87203,87200,0.05942581966519356,-0.03734956681728363,0.9867420196533203,2.6101088523864746,2.8088815212249756,-3.2636656761169434,2.0505247116088867,4.189749240875244,0.31665897369384766,0.2658146917819977,0.04565588757395744,2.4482829570770264
161,87213,87210,0.07206130027770996,-0.03348851203918457,0.9725632667541504,1.6683622598648071,1.6888163089752197,-3.595149517059326,2.0509889125823975,4.18916654586792,0.3161872625350952,0.22279202938079834,0.09490698575973511,2.414412498474121
162,87223,87220,0.013428699225187302,0.013406275771558285,1.006006121635437,1.3414177894592285,3.235156297683716,-3.6681551933288574,2.0518932342529297,4.188715934753418,0.3165605068206787,0.251580148935318,0.13318823277950287,2.369534969329834
163,87233,87230,0.02483321912586689,-0.1265544891357422,0.9897101521492004,0.019781332463026047,4.212674617767334,-3.8814334869384766,2.052110433578491,4.188193321228027,0.3169116675853729,0.18569545447826385,0.08567020297050476,2.335439443588257
164,87243,87240,-0.012150304391980171,-0.20289166271686554,1.006650686264038,-0.301230251789093,5.43589448928833,-4.1437602043151855,2.053518533706665,4.18852424621582,0.31608447432518005,0.17645153403282166,0.10584104806184769,2.2817296981811523
165,87253,87250,-0.02102668024599552,-0.21027737855911255,0.9932811260223389,-0.3578866124153137,7.522863864898682,-3.9705650806427,2.053851366043091,4.188826560974121,0.3164342939853668,0.14886431396007538,0.11439760774374008,2.2636830806732178
166,87263,87260,0.11063510179519653,0.022191395983099937,0.9721401333808899,1.4444243907928467,6.538505554199219,-3.9156134128570557,2.0545265674591064,4.189240455627441,0.31669357419013977,-0.03619211167097092,0.06452666223049164,2.2279741764068604
167,87273,87270,0.05163993313908577,0.013406419195234776,0.9557361006736755,1.4297192096710205,5.591366291046143,-4.173336029052734,2.056316614151001,4.189997673034668,0.3175683319568634,-0.0760626494884491,0.09976512938737869,2.186478853225708
168,87283,87280,0.029106108471751213,0.1286979466676712,0.9918938875198364,1.4489977359771729,4.534793376922607,-4.189949035644531,2.0571072101593018,4.1896138191223145,0.3178658187389374,-0.09527839720249176,0.06575164198875427,2.1377787590026855
169,87293,87290,0.02137422189116478,-0.1397341638803482,0.9907453060150146,1.9976359605789185,2.7369792461395264,-3.8001065254211426,2.0571212768554688,4.1895060539245605,0.31808793544769287,-0.09172432869672775,0.11370499432086945,2.0944888591766357
170,87303,87300,0.032650843262672424,-0.10563649982213974,0.9498760104179382,2.5352766513824463,2.5337228775024414,-4.043935775756836,2.0572590827941895,4.189386367797852,0.3183411955833435,-0.1427651047706604,0.16631686687469482,2.053525686264038
171,87313,87310,-0.06498441845178604,-0.06771059334278107,1.0017247200012207,3.2097835540771484,1.8643712997436523,-3.9203686714172363,2.0576159954071045,4.188570499420166,0.31838342547416687,-0.10855454206466675,0.2232469618320465,2.0033047199249268
172,87323,87320,-0.12220935523509979,-0.029667530208826065,1.0302127599716187,3.2376656532287598,2.602179527282715,-3.7963340282440186,2.0571961402893066,4.186686992645264,0.31858497858047485,-0.06889970600605011,0.28798893094062805,1.9573885202407837
173,87333,87330,-0.014496978372335434,-0.023080458864569664,0.9750412106513977,2.1142029762268066,4.600290775299072,-3.8171586990356445,2.0582942962646484,4.187082767486572,0.31882134079933167,-0.12571173906326294,0.34059587121009827,1.9400466680526733
174,87343,87340,-0.09792598336935043,0.12094598263502121,0.9961825013160706,-0.1868523210287094,6.115875244140625,-3.552978038787842,2.0586419105529785,4.187705993652344,0.31637701392173767,-0.1446852684020996,0.29159408807754517,1.927868366241455
175,87353,87350,-0.1118725836277008,0.12062232941389084,0.9339510798454285,-3.8262524604797363,6.199054718017578,-3.829745292663574,2.05704927444458,4.190146446228027,0.31649500131607056,-0.17896470427513123,0.28126659989356995,1.9129352569580078
176,87363,87360,0.001218436867929995,0.013064955361187458,0.9782364368438721,-5.25094747543335,6.546847820281982,-3.8202569484710693,2.0581228733062744,4.1900529861450195,0.316521555185318,-0.22282437980175018,0.22950619459152222,1.8641774654388428
177,87373,87370,-0.05848941206932068,0.0640907809138298,1.001621127128601,-4.7657246589660645,6.38651704788208,-3.649991512298584,2.058570146560669,4.190528869628906,0.31458157300949097,-0.34404081106185913,0.16076229512691498,1.8239600658416748
178,87383,87380,-0.0765887126326561,0.07507307082414627,0.9889349341392517,-2.5839595794677734,5.2192702293396,-3.940913200378418,2.059807300567627,4.190784454345703,0.3143666088581085,-0.5944609045982361,0.11013740301132202,1.7802863121032715
179,87393,87390,0.0031561164651066065,0.09159228950738907,1.0016264915466309,0.41958341002464294,5.277760982513428,-3.516381025314331,2.063262462615967,4.1915388107299805,0.3140442669391632,-0.6699807047843933,0.17530377209186554,1.7515653371810913
180,87403,87400,-0.028078686445951462,-0.018636977300047874,1.022612452507019,3.918151617050171,1.8974580764770508,-3.7811577320098877,2.064572334289551,4.191280841827393,0.31322816014289856,-0.6439746022224426,0.2027200311422348,1.7277030944824219
181,87413,87410,-0.10487473756074905,-0.062291182577610016,1.016120433807373,5.511856555938721,-0.6553571224212646,-3.7721760272979736,2.0636703968048096,4.1919779777526855,0.3131083548069,-0.6476636528968811,0.20156997442245483,1.7305647134780884
182,87423,87420,0.048477720469236374,-0.0684807077050209,0.9853866100311279,4.702507019042969,-2.879232406616211,-3.6839632987976074,2.064061164855957,4.1925201416015625,0.31295520067214966,-0.7650608420372009,0.21880368888378143,1.686684489250183
183,87433,87430,0.12947218120098114,0.0707903653383255,1.0123488903045654,3.510535478591919,-6.66373872756958,-3.482907772064209,2.0661234855651855,4.192589282989502,0.3126777708530426,-0.6103324294090271,0.2240748256444931,1.6303718090057373
184,87443,87440,-0.05514189600944519,0.03843752294778824,1.026935338973999,0.5495388507843018,-6.066886901855469,-3.0111565589904785,2.065682888031006,4.192705154418945,0.3134227395057678,-0.4193941652774811,0.2798851430416107,1.604946255683899
185,87453,87450,-0.03511321544647217,0.05891460180282593,1.0078279972076416,-1.4702982902526855,-6.244207382202148,-2.7151644229888916,2.0652332305908203,4.192483425140381,0.3134000599384308,-0.5497079491615295,0.2934088408946991,1.566589593887329
186,87463,87460,0.03771059960126877,-0.006978324614465237,0.9822568297386169,-1.797755479812622,-3.055579423904419,-2.5911147594451904,2.0685641765594482,4.192734241485596,0.31320950388908386,-0.4469946026802063,0.2813931107521057,1.5406478643417358
187,87473,87470,-0.07118397206068039,-0.05790741741657257,1.0732656717300415,-1.709266185760498,-0.28905126452445984,-2.5203230381011963,2.0692343711853027,4.192774772644043,0.3134283721446991,-0.38871461153030396,0.26281726360321045,1.5149672031402588
188,87483,87480,-0.05168946087360382,-0.12993811070919037,0.9988011717796326,-1.07237708568573,1.4253722429275513,-2.895740032196045,2.0699777603149414,4.192824840545654,0.31336215138435364,-0.43708911538124084,0.25277769565582275,1.4877960681915283
189,87493,87490,-0.08512624353170395,0.006201894488185644,1.0489609241485596,-0.19405023753643036,2.1615536212921143,-2.7976572513580322,2.0716552734375,4.192917823791504,0.313253253698349,-0.26419907808303833,0.2531746029853821,1.465686321258545
190,87503,87500,-0.01686558499932289,0.07965999096632004,0.9760401844978333,-0.32962995767593384,2.3404171466827393,-2.4270291328430176,2.070763349533081,4.19224214553833,0.3096165060997009,-0.5034315586090088,0.26130881905555725,1.4187414646148682
191,87513,87510,0.02333816885948181,3.57457684003748e-05,0.9720227122306824,0.3438692092895508,1.944296956062317,-1.874315857887268,2.0742037296295166,4.192286968231201,0.30928224325180054,-0.5084532499313354,0.34405064582824707,1.3983399868011475
192,87523,87520,0.05412418767809868,-0.1554042398929596,0.9835551381111145,0.7610267996788025,-0.5095680952072144,-1.69697105884552,2.0751450061798096,4.191644191741943,0.30905017256736755,-0.42911389470100403,0.27063196897506714,1.3797039985656738
193,87533,87530,0.014182991348206997,-0.20107077062129974,1.0399210453033447,0.9093645215034485,-3.8811306953430176,-1.78579580783844,2.0750441551208496,4.192390441894531,0.30893003940582275,-0.531990110874176,0.2889547348022461,1.3610490560531616
194,87543,87540,0.008098967373371124,-0.0752560943365097,0.9911232590675354,0.22751207649707794,-5.776761531829834,-1.9796947240829468,2.076002359390259,4.192004680633545,0.3079564869403839,-0.42097532749176025,0.3036622703075409,1.3475922346115112
195,87553,87550,0.01256337109953165,0.021086368709802628,1.039372205734253,-0.07749170064926147,-6.226927757263184,-1.889790415763855,2.076422691345215,4.191438674926758,0.30777451395988464,-0.23128072917461395,0.3077622950077057,1.3208446502685547
196,87563,87560,0.06790797412395477,0.000812069745734334,0.9825324416160583,-0.10730813443660736,-5.591783046722412,-1.951861023902893,2.0764858722686768,4.191526889801025,0.30769068002700806,-0.3513144552707672,0.30963656306266785,1.2935296297073364
197,87573,87570,0.00837333407253027,-0.017803583294153214,1.0076966285705566,-0.4864991307258606,-3.4742772579193115,-1.7512398958206177,2.079380989074707,4.19154167175293,0.3072425127029419,-0.1765563189983368,0.30503177642822266,1.2784464359283447
198,87583,87580,-0.04077397659420967,0.01356605626642704,1.0017852783203125,-1.2488218545913696,-2.1495327949523926,-2.104865789413452,2.079000234603882,4.191246509552002,0.30710282921791077,-0.17880575358867645,0.29290667176246643,1.2578613758087158
199,87593,87590,-0.08452492952346802,0.11056528985500336,1.0243443250656128,-2.116741418838501,-0.9128692150115967,-1.8406001329421997,2.0805459022521973,4.1914448738098145,0.306846022605896,-0.2786385416984558,0.26866528391838074,1.2231981754302979
200,87603,87600,0.016119977459311485,0.028050418943166733,1.0055593252182007,-2.320970058441162,2.111968994140625,-2.014202356338501,2.082885265350342,4.190906524658203,0.30736449360847473,-0.17925003170967102,0.23347191512584686,1.1978192329406738
201,87613,87610,-0.008869478479027748,0.008302703499794006,1.0405960083007812,-2.0244498252868652,3.180262804031372,-2.214667558670044,2.0833089351654053,4.191141128540039,0.30730241537094116,-0.12248561531305313,0.19742751121520996,1.1721290349960327
202,87623,87620,0.04887834191322327,0.0492168664932251,1.0114952325820923,-1.1325902938842773,0.769970715045929,-2.35451078414917,2.083967685699463,4.191655158996582,0.30726712942123413,-0.22537972033023834,0.1686532199382782,1.1449980735778809
203,87633,87630,-0.03819159418344498,0.02491532266139984,1.057790994644165,1.0958141088485718,-0.66968834400177,-2.2982702255249023,2.0851869583129883,4.190923690795898,0.3070896565914154,-0.2851583659648895,0.16489960253238678,1.1152527332305908
204,87643,87640,0.01747983694076538,-0.02748711220920086,1.01041841506958,2.5968143939971924,-2.045957326889038,-1.740707516670227,2.0860366821289062,4.190884113311768,0.30804088711738586,-0.15909311175346375,0.11601387709379196,1.1029307842254639
205,87653,87650,-0.044927679002285004,-0.008559362031519413,1.0463377237319946,3.341796636581421,-2.9824209213256836,-1.5749114751815796,2.0858798027038574,4.191518783569336,0.3081803023815155,-0.17756719887256622,0.17218191921710968,1.083211898803711
206,87663,87660,0.029014065861701965,-0.004829153418540955,1.0154247283935547,3.166452407836914,-3.7996649742126465,-1.7476097345352173,2.0871593952178955,4.1912150382995605,0.3082006573677063,-0.1711474359035492,0.23166914284229279,1.0666470527648926
207,87673,87670,-0.06667609512805939,-0.005536516197025776,1.0167627334594727,2.045292377471924,-3.493581771850586,-2.075462818145752,2.0877573490142822,4.1917290687561035,0.3089463710784912,-0.07038716226816177,0.20389723777770996,1.0751358270645142
208,87683,87680,-0.00323059712536633,0.025058794766664505,1.0187113285064697,1.3268343210220337,-1.3337593078613281,-1.8131612539291382,2.0877552032470703,4.192089557647705,0.30911415815353394,-2.8376894078974146e-06,0.243679478764534,1.0574291944503784
209,87693,87690,-0.007988739758729935,0.030052529647946358,1.0125046968460083,0.45699334144592285,-0.08685068786144257,-1.335512399673462,2.088430881500244,4.191994667053223,0.3092896044254303,-0.04068842902779579,0.2677260935306549,1.0362157821655273
210,87703,87700,0.07027392089366913,-0.0761433020234108,0.9786296486854553,-0.5559002161026001,0.1859658658504486,-1.5580360889434814,2.0904641151428223,4.192218780517578,0.3072006106376648,-0.1672765612602234,0.275650292634964,1.0493919849395752
211,87713,87710,-0.02906736731529236,0.06932536512613297,1.0401222705841064,-0.8636882305145264,1.9951117038726807,-1.7585718631744385,2.092736005783081,4.193512916564941,0.3072400987148285,-0.2210676372051239,0.2683769464492798,1.0789180994033813
212,87723,87720,0.05156676471233368,0.04469086974859238,0.9383273720741272,0.12265640497207642,-0.4387730360031128,-1.8282980918884277,2.092158794403076,4.195427894592285,0.30729618668556213,-0.11104735732078552,0.2639334201812744,1.0860776901245117
213,87733,87730,-0.031242743134498596,0.0031386823393404484,1.0505707263946533,1.3223001956939697,-1.0575592517852783,-2.1868817806243896,2.091712236404419,4.194153785705566,0.310339093208313,-0.29340261220932007,0.2744804620742798,1.049252986907959
214,87743,87740,-0.08324193209409714,-0.09602256119251251,1.0174543857574463,1.294568419456482,-5.423430919647217,-1.7033803462982178,2.0945181846618652,4.193375587463379,0.31040245294570923,-0.11336756497621536,0.2200509011745453,1.025659203529358
215,87753,87750,0.021790780127048492,-0.01168278232216835,1.01598060131073,0.29683610796928406,-5.755708694458008,-1.4814239740371704,2.0934417247772217,4.19411563873291,0.3109481930732727,0.09549202024936676,0.24575376510620117,1.0283225774765015
216,87763,87760,0.021486174315214157,-0.05422597751021385,0.9809657335281372,-0.27992597222328186,-7.198582172393799,-1.754591941833496,2.0928728580474854,4.194730758666992,0.3114166557788849,-0.00734854256734252,0.251681923866272,1.0091816186904907
217,87773,87770,-0.02442222647368908,0.0980457216501236,1.015084147453308,0.43234458565711975,-5.2073845863342285,-1.3974354267120361,2.096126079559326,4.194840908050537,0.31046241521835327,0.14131952822208405,0.2568126618862152,0.9832406640052795
218,87783,87780,-0.0050116549246013165,-0.07561784237623215,1.0210411548614502,-0.022665098309516907,-3.1078195571899414,-1.380258321762085,2.096780300140381,4.1944966316223145,0.31076815724372864,0.17500369250774384,0.26416829228401184,0.9679765105247498
219,87793,87790,0.019365783780813217,-0.04445455223321915,1.0184520483016968,0.5752211213111877,-3.48551344871521,-1.2719608545303345,2.097440242767334,4.195199489593506,0.3110979497432709,0.18184523284435272,0.2710309326648712,0.9829702377319336
220,87803,87800,0.09443709254264832,-0.09326183050870895,0.9607127904891968,-0.7414528727531433,3.5645809173583984,-2.058563709259033,2.098949670791626,4.194355487823486,0.30960237979888916,0.11734365671873093,0.2670334279537201,0.9441938996315002
221,87813,87810,-0.004132361616939306,-0.004444292280822992,1.0234007835388184,-0.294547438621521,5.528027534484863,-2.0608973503112793,2.1005470752716064,4.19403076171875,0.30972424149513245,0.1513461023569107,0.25618836283683777,0.9163241386413574
222,87823,87820,-0.04716963693499565,0.017161916941404343,1.0310750007629395,-0.49315840005874634,5.454675674438477,-1.7914772033691406,2.101294755935669,4.1937408447265625,0.31005439162254333,0.015070981346070766,0.25001832842826843,0.8796658515930176
223,87833,87830,0.025247670710086823,-0.11963333934545517,1.0028499364852905,-0.3080940544605255,2.921867847442627,-1.5957571268081665,2.1030752658843994,4.193334102630615,0.30942898988723755,0.055941082537174225,0.320842444896698,0.8535328507423401
224,87843,87840,0.019634254276752472,-0.09423436969518661,1.0308243036270142,-0.8815863132476807,0.034052442759275436,-1.4342747926712036,2.103381633758545,4.192623138427734,0.30971378087997437,0.057772599160671234,0.3050542175769806,0.8290399312973022
225,87853,87850,0.014782383106648922,0.0064089056104421616,1.0206772089004517,-0.36818620562553406,-2.64735746383667,-1.182111382484436,2.1045830249786377,4.191646099090576,0.30995428562164307,0.1768471747636795,0.2880456745624542,0.7920779585838318
226,87863,87860,-0.05062694475054741,0.012637760490179062,1.021133542060852,-0.23707325756549835,-5.703213214874268,-0.6793245077133179,2.1041476726531982,4.191512107849121,0.31030264496803284,0.1722577065229416,0.27390211820602417,0.7706108093261719
227,87873,87870,0.036650653928518295,-0.09350793063640594,0.965447187423706,-2.7751855850219727,-0.22148185968399048,-1.4785271883010864,2.1053428649902344,4.1903486251831055,0.3132975399494171,0.3086843490600586,0.24333131313323975,0.7364497780799866
228,87883,87880,0.043986689299345016,0.0070014228112995625,1.016420841217041,-2.8931996822357178,0.5919924974441528,-1.660792350769043,2.105529308319092,4.190295696258545,0.31378382444381714,0.16369163990020752,0.27136197686195374,0.7090069651603699
229,87893,87890,0.04272875189781189,-0.03231717646121979,0.9966101050376892,-3.113391399383545,5.744582176208496,-1.5566763877868652,2.107741594314575,4.189182758331299,0.3140939474105835,0.14379893243312836,0.2135149985551834,0.6688495874404907
230,87903,87900,0.04838088899850845,-0.05181581526994705,0.9677847027778625,-3.4992594718933105,8.661110877990723,-0.531231164932251,2.1088082790374756,4.189023494720459,0.3172104060649872,0.12383756786584854,0.2283163219690323,0.6528533101081848
231,87913,87910,0.07840937376022339,-0.054885752499103546,1.0141810178756714,-2.0424258708953857,6.195039749145508,-0.9078137874603271,2.108158826828003,4.187904357910156,0.31781068444252014,0.09523717314004898,0.17515993118286133,0.6317975521087646
232,87923,87920,0.022411255165934563,-0.03690303862094879,0.9833241701126099,-2.12054443359375,4.261260986328125,-1.1495935916900635,2.1085944175720215,4.187824249267578,0.3183901011943817,0.018155541270971298,0.13133390247821808,0.6234707236289978
233,87933,87930,0.013696525245904922,0.030590247362852097,1.0191045999526978,-2.3057360649108887,3.95324969291687,-1.9399276971817017,2.109180450439453,4.186635971069336,0.32105928659439087,-0.11692444235086441,0.16320744156837463,0.5741701722145081
234,87943,87940,0.007054378744214773,0.0309988372027874,0.988190770149231,-1.6903520822525024,1.6366549730300903,-1.4773238897323608,2.1110615730285645,4.18668794631958,0.32165467739105225,-0.14514853060245514,0.11705943197011948,0.5639448165893555
235,87953,87950,0.013085715472698212,0.07370250672101974,0.9628139138221741,-1.5903624296188354,-0.11691305786371231,-1.4079155921936035,2.111053228378296,4.186548709869385,0.322278767824173,-0.1486227959394455,0.07304605096578598,0.5604652166366577
236,87963,87960,-0.0006898267893120646,0.02394879050552845,0.9982995986938477,0.006717851851135492,-2.65982723236084,-1.2339948415756226,2.111395835876465,4.1852593421936035,0.32288166880607605,-0.11281432211399078,0.04804166778922081,0.5037496089935303
237,87973,87970,-0.010546689853072166,-0.033068276941776276,1.0429770946502686,0.9239745736122131,-2.9374213218688965,-1.3131259679794312,2.109173059463501,4.186622142791748,0.32004427909851074,-0.12985976040363312,0.12090430408716202,0.5691786408424377
238,87983,87980,-0.007625317666679621,-0.001961211673915386,1.0345133543014526,0.8368733525276184,-0.734856128692627,-0.9902775287628174,2.110341787338257,4.185297966003418,0.3204277753829956,-0.0047926101833581924,0.12215437740087509,0.5420395731925964
239,87993,87990,-0.07598987966775894,-0.0072453985922038555,0.9810371398925781,0.30518409609794617,0.33884143829345703,-0.946875274181366,2.110222339630127,4.185232162475586,0.32095271348953247,-0.06734459102153778,0.11962376534938812,0.5211088061332703
