,timestamp_start,timestamp_end,acc.x,acc.y,acc.z,gyro.x,gyro.y,gyro.z,stateEstimate.x,stateEstimate.y,stateEstimate.z,stabilizer.pitch,stabilizer.roll,stabilizer.yaw
0,20521,20518,-0.015890881419181824,0.03213759884238243,1.0088218450546265,-5.906320095062256,-4.820539951324463,-1.1315312385559082,1.9943957328796387,4.0620222091674805,0.18074120581150055,-0.24567276239395142,-0.7096121907234192,3.225224256515503
1,20531,20528,-0.01934841275215149,0.06880549341440201,1.0361080169677734,-4.795588970184326,-8.302111625671387,-0.8188390731811523,1.993260145187378,4.065166473388672,0.17983749508857727,-0.27223753929138184,-0.7570400834083557,3.2194037437438965
2,20541,20538,0.008792925626039505,-0.006438455078750849,1.0136117935180664,-1.7935068607330322,-9.07684326171875,-1.0031037330627441,1.9937130212783813,4.064242362976074,0.18139566481113434,-0.1796230971813202,-0.7843149900436401,3.2121527194976807
3,20551,20548,-0.017855340614914894,0.0011116459500044584,1.0616109371185303,2.553112745285034,-11.342551231384277,-0.8532472252845764,1.993120789527893,4.063652992248535,0.18303903937339783,0.018643343821167946,-0.8265519738197327,3.194960355758667
4,20561,20558,-0.02756420522928238,0.07324331253767014,0.9926390051841736,5.130483627319336,-9.228229522705078,-0.5769942402839661,1.9937204122543335,4.063785552978516,0.18385428190231323,0.2083345651626587,-0.805271327495575,3.181159257888794
5,20571,20568,-0.035230010747909546,0.06478072702884674,0.9909265637397766,6.030440330505371,-7.7065324783325195,-0.210567444562912,1.9936723709106445,4.065417766571045,0.18548965454101562,0.1394253969192505,-0.7477560639381409,3.1928446292877197
6,20581,20578,-0.0039078230038285255,-0.10286647826433182,1.081742763519287,6.162879467010498,-4.725870132446289,-0.1450333297252655,1.995442271232605,4.067203521728516,0.18724425137043,0.20490263402462006,-0.603548526763916,3.1965389251708984
7,20591,20588,0.033085860311985016,-0.07367563247680664,1.0095744132995605,4.678930282592773,-2.9505975246429443,-0.439182311296463,1.9963955879211426,4.067997932434082,0.18895529210567474,0.3072820007801056,-0.5546528697013855,3.191211700439453
8,20601,20598,-0.005375548731535673,-0.004789404105395079,1.0079221725463867,1.4288843870162964,0.30481934547424316,-0.44797781109809875,1.9948112964630127,4.069420337677002,0.1910848319530487,-0.08227095752954483,-0.3838014602661133,3.223706007003784
9,20611,20608,0.023457763716578484,-0.03617813438177109,1.018441915512085,-2.077462673187256,0.343269944190979,-1.3276054859161377,1.9974372386932373,4.071037292480469,0.19281885027885437,0.010138616897165775,-0.4177766740322113,3.2133617401123047
10,20621,20618,0.037191446870565414,-0.13536664843559265,1.0222067832946777,-3.540024757385254,-3.0542311668395996,-1.7018868923187256,1.9980909824371338,4.073908805847168,0.1948753446340561,0.09126491844654083,-0.4939512610435486,3.1957204341888428
11,20631,20628,-0.018014758825302124,-0.08814781159162521,0.9995641112327576,-4.429699897766113,-8.261580467224121,-1.6829997301101685,1.9970065355300903,4.07581090927124,0.19551505148410797,0.07333578169345856,-0.5116118788719177,3.181697130203247
12,20641,20638,-0.005115563049912453,-0.04805745556950569,0.9892892241477966,-3.7250990867614746,-12.559637069702148,-1.3129395246505737,1.99781334400177,4.075689792633057,0.19721616804599762,0.21285933256149292,-0.6080682873725891,3.159226655960083
13,20651,20648,-0.034843940287828445,0.09072510898113251,1.0343105792999268,-0.6913450956344604,-15.687169075012207,-0.9121065735816956,1.9975621700286865,4.075789928436279,0.19901825487613678,0.34330564737319946,-0.670534074306488,3.144695997238159
14,20661,20658,0.0070271785371005535,0.016746528446674347,1.0420602560043335,1.5146088600158691,-14.033910751342773,-1.1584924459457397,1.9974840879440308,4.075411796569824,0.19982436299324036,0.5698297619819641,-0.7603682279586792,3.1322429180145264
15,20671,20668,-0.029620766639709473,0.13966357707977295,0.9444146156311035,3.85506534576416,-9.711613655090332,-1.0486822128295898,1.997436285018921,4.077291011810303,0.20155178010463715,0.818874716758728,-0.730935275554657,3.1190743446350098
16,20681,20678,-0.04279675707221031,0.08717627078294754,1.057908058166504,6.579019069671631,-5.784313678741455,-1.4226239919662476,1.995937466621399,4.0757646560668945,0.20325154066085815,0.980740487575531,-0.6562691926956177,3.0993363857269287
17,20691,20688,0.011215321719646454,-0.021667275577783585,1.0976698398590088,5.966947555541992,-0.6855095624923706,-1.239545226097107,1.993126392364502,4.073164939880371,0.20496772229671478,0.7812750339508057,-0.7917091846466064,3.111525535583496
18,20701,20698,0.0039297109469771385,-0.015963632613420486,1.0435699224472046,6.1053571701049805,2.691588878631592,-1.216732144355774,1.9944244623184204,4.073807716369629,0.20871515572071075,0.8877752423286438,-0.7409176230430603,3.092668294906616
19,20711,20708,-0.054441239684820175,0.046370621770620346,1.051804542541504,5.664199352264404,4.837528228759766,-1.6943331956863403,1.9935073852539062,4.074807643890381,0.21071699261665344,0.3518278896808624,-0.10682788491249084,3.07867693901062
20,20721,20718,0.02086593396961689,-0.06829798966646194,1.0089932680130005,5.098647117614746,6.299197196960449,-1.6894378662109375,1.9965101480484009,4.069679260253906,0.21336452662944794,0.3724045157432556,-0.06825602799654007,3.0594143867492676
21,20731,20728,0.007117145229130983,-0.05996456369757652,1.0067627429962158,3.9799001216888428,-0.1465173214673996,-2.022348403930664,1.9972120523452759,4.0706305503845215,0.21365347504615784,0.3988896906375885,-0.043441858142614365,3.041442394256592
22,20741,20738,-0.012202305719256401,0.02488897368311882,1.0316784381866455,-2.274099588394165,-6.906503200531006,-1.864396095275879,1.9970331192016602,4.071060657501221,0.21582552790641785,0.5025759935379028,-0.13385342061519623,3.0266242027282715
23,20751,20748,-0.03955744206905365,0.07896534353494644,0.9618785381317139,-6.433211803436279,-12.49388313293457,-1.7422595024108887,1.9960618019104004,4.070171356201172,0.2181674838066101,0.6982846856117249,-0.20957307517528534,3.008244752883911
24,20761,20758,-0.053090132772922516,0.05767781659960747,0.9610804915428162,-8.260547637939453,-17.021953582763672,-1.7224171161651611,1.9956371784210205,4.07016134262085,0.22055085003376007,0.8168301582336426,-0.3336617052555084,2.998105525970459
25,20771,20768,-0.001381720881909132,-0.038823921233415604,0.9894371032714844,-7.8145551681518555,-16.11275291442871,-2.0874462127685547,1.9956222772598267,4.0706658363342285,0.22257107496261597,0.9678674340248108,-0.32760146260261536,2.9753482341766357
26,20781,20778,-0.06621410697698593,-0.044982876628637314,1.077152132987976,-3.625466823577881,-10.512207984924316,-1.9449372291564941,1.9950212240219116,4.069748878479004,0.22455649077892303,1.2384333610534668,-0.4436611235141754,2.9593822956085205
27,20791,20788,-0.00540041783824563,-0.0511905774474144,0.9979369044303894,-0.8839418292045593,-3.1927497386932373,-1.967306137084961,1.9935256242752075,4.069583892822266,0.22569818794727325,1.4061782360076904,-0.5866448879241943,2.9509642124176025
28,20801,20798,-0.007706301752477884,-0.0023565127048641443,0.9945405721664429,3.403024673461914,2.8581340312957764,-2.0949487686157227,1.9928841590881348,4.069833278656006,0.22763364017009735,1.4497445821762085,-0.5791416764259338,2.9317786693573
29,20811,20808,0.02328360266983509,-0.05322993919253349,0.9562928676605225,5.264325141906738,8.66564655303955,-1.5227385759353638,1.9926198720932007,4.068944454193115,0.22965022921562195,1.3918259143829346,-0.5233042240142822,2.9064385890960693
30,20821,20818,-0.016921307891607285,-0.01139978040009737,1.010162115097046,7.315204620361328,13.051626205444336,-1.2803955078125,1.9907019138336182,4.0699357986450195,0.23176318407058716,1.1689249277114868,-0.652716875076294,2.9155685901641846
31,20831,20828,-0.004735616501420736,0.0012415441451594234,0.9732041358947754,7.5865397453308105,14.684761047363281,-1.7497750520706177,1.990114688873291,4.071099281311035,0.23343609273433685,0.8308093547821045,-0.35803496837615967,2.875563383102417
32,20841,20838,-0.004195022396743298,-0.011403212323784828,0.9958128929138184,6.126498699188232,11.067741394042969,-1.3897733688354492,1.9908961057662964,4.068817138671875,0.2355499416589737,0.7351164221763611,-0.09800854325294495,2.8339388370513916
33,20851,20848,-0.0005668590310961008,0.002033135388046503,0.9901893734931946,5.058995723724365,5.392633438110352,-2.145148754119873,1.9909802675247192,4.068089008331299,0.23747360706329346,2.2568581104278564,0.7936660647392273,2.68477725982666
34,20861,20858,-0.0703086405992508,0.07746900618076324,0.9712396264076233,-1.2367603778839111,0.15203668177127838,-0.806950032711029,1.9775776863098145,4.059062480926514,0.2403659075498581,2.1033055782318115,0.7164519429206848,2.685206174850464
35,20871,20868,-0.05458292365074158,0.037290628999471664,0.9260032176971436,-12.356683731079102,4.379146575927734,-0.4725763499736786,1.9755120277404785,4.06015682220459,0.24329911172389984,1.9106669425964355,0.5243543386459351,2.7015907764434814
36,20881,20878,-0.005775325000286102,-0.026936829090118408,0.9290732741355896,-23.23517417907715,14.307657241821289,-0.33303311467170715,1.9759283065795898,4.061346530914307,0.24654801189899445,1.8029329776763916,0.2558101415634155,2.726064443588257
37,20891,20888,0.0848180428147316,-0.09948787838220596,0.9674555063247681,-27.91521453857422,22.210697174072266,-1.6128594875335693,1.9741296768188477,4.061737060546875,0.25053438544273376,1.5249378681182861,-0.17355118691921234,2.752157688140869
38,20901,20898,0.11022255569696426,-0.17878074944019318,0.9983131885528564,-28.63222312927246,30.31488037109375,-1.325321078300476,1.974320650100708,4.062819480895996,0.2529613673686981,1.2722935676574707,-0.552841067314148,2.7573182582855225
39,20911,20908,0.05324922874569893,-0.2087171971797943,1.0127570629119873,-22.103742599487305,35.3543701171875,-1.75204336643219,1.9729647636413574,4.061673641204834,0.25523945689201355,0.7319532632827759,-0.9011760950088501,2.736757516860962
40,20921,20918,-0.01283328514546156,0.04641730710864067,0.975843071937561,-11.332101821899414,34.1199836730957,-1.6275714635849,1.97334623336792,4.063552379608154,0.25753822922706604,0.4159334897994995,-1.169530987739563,2.7221813201904297
41,20931,20928,-0.007269598543643951,0.0037049383390694857,0.9625176191329956,0.8118429183959961,29.86421012878418,-1.328104019165039,1.9710787534713745,4.0632643699646,0.2578790485858917,0.06559514999389648,-1.3118294477462769,2.70255970954895
42,20941,20938,0.01693257875740528,-0.03905246779322624,0.9258865714073181,10.039626121520996,21.644912719726562,-1.6113508939743042,1.970173954963684,4.063536167144775,0.2597562372684479,-0.33220362663269043,-1.3312773704528809,2.6870317459106445
43,20951,20948,0.025934526696801186,-0.005109146703034639,0.9028178453445435,16.828737258911133,12.410196304321289,-2.096519708633423,1.9704005718231201,4.0645880699157715,0.26157528162002563,-0.5697059631347656,-1.130904197692871,2.65793514251709
44,20961,20958,0.014033369719982147,-0.03257821127772331,0.9232988357543945,20.77188491821289,3.000835657119751,-1.7303043603897095,1.9703881740570068,4.063727855682373,0.2621144652366638,-0.7914977669715881,-1.0685480833053589,2.6413090229034424
45,20971,20968,0.06124452129006386,0.0106056472286582,0.8886401057243347,19.35664939880371,-3.8565094470977783,-1.517327904701233,1.9706321954727173,4.06717586517334,0.2636428773403168,-0.7897546887397766,-1.0377185344696045,2.626222848892212
46,20981,20978,0.04911995679140091,0.10273582488298416,0.9074307680130005,12.692612648010254,-7.113285064697266,-1.466959834098816,1.96923828125,4.069815158843994,0.2650738060474396,-0.6992285847663879,-0.7438047528266907,2.6123299598693848
47,20991,20988,-0.001101134461350739,0.09713972359895706,0.9276585578918457,6.905325412750244,-6.664985179901123,-1.7145140171051025,1.9682714939117432,4.070549011230469,0.2674379348754883,-0.659517228603363,-0.7852050065994263,2.596153497695923
48,21001,20998,-0.014176969416439533,0.07580039650201797,0.9729416966438293,1.320703387260437,-3.86840558052063,-1.3352001905441284,1.967652678489685,4.07217264175415,0.26877063512802124,-0.6395776867866516,-0.9832165837287903,2.5671677589416504
49,21011,21008,-0.028038498014211655,0.043441541492938995,0.9798871278762817,-1.195845365524292,-0.15794320404529572,-1.7335065603256226,1.9662609100341797,4.073646068572998,0.26998892426490784,-0.6745802164077759,-0.9236217737197876,2.5579986572265625
50,21021,21018,0.012052750214934349,-0.03315819799900055,0.9000089764595032,0.4232580065727234,4.095064640045166,-2.1895382404327393,1.9667789936065674,4.074657917022705,0.27136915922164917,-0.6967748999595642,-0.8790625333786011,2.5432913303375244
51,21031,21028,0.04669595882296562,-0.07455256581306458,0.894885241985321,6.922693252563477,7.42413330078125,-1.879536509513855,1.9668453931808472,4.074318885803223,0.27144721150398254,-0.7737032175064087,-0.9258573055267334,2.5149312019348145
52,21041,21038,0.005329872947186232,0.019057003781199455,0.9231337904930115,12.71705150604248,6.675748825073242,-1.8389182090759277,1.966110348701477,4.075016975402832,0.2724962830543518,-0.9429847002029419,-0.7908478379249573,2.5075206756591797
53,21051,21048,-0.016024980694055557,0.014320737682282925,0.9670199155807495,17.34496307373047,5.7939534187316895,-1.9794394969940186,1.9668645858764648,4.074668884277344,0.27357083559036255,-0.9355083107948303,-0.7212026119232178,2.475799322128296
54,21061,21058,0.018707530573010445,-0.06992737203836441,0.8977453708648682,19.308887481689453,2.6412267684936523,-1.8035799264907837,1.9650195837020874,4.0757269859313965,0.27289777994155884,-1.0594079494476318,-0.5838621258735657,2.45599365234375
55,21071,21068,0.003003323683515191,-0.031447649002075195,0.9347180724143982,18.988052368164062,-0.0681726485490799,-1.1990442276000977,1.9646860361099243,4.076876163482666,0.27365341782569885,-1.0427844524383545,-0.2733794152736664,2.4514999389648438
56,21081,21078,0.037634801119565964,-0.2553856372833252,0.930504322052002,16.995887756347656,-3.3966963291168213,-1.767725944519043,1.9623010158538818,4.075348377227783,0.27442431449890137,-1.0506163835525513,-0.3020511865615845,2.407541036605835
57,21091,21088,0.03217047080397606,-0.12051095068454742,0.9303898215293884,12.852903366088867,-6.254810810089111,-1.7748305797576904,1.9619553089141846,4.078963279724121,0.2759452164173126,-1.00518798828125,0.02600201405584812,2.4183311462402344
58,21101,21098,-0.0183721836656332,-0.0030761421658098698,1.0022835731506348,10.24999713897705,-7.089725017547607,-1.9380145072937012,1.9614901542663574,4.07792854309082,0.2766956388950348,-0.9375724196434021,0.1298121064901352,2.396477222442627
59,21111,21108,-0.006060699466615915,0.006647793110460043,0.9824866652488708,7.495118618011475,-10.934762001037598,-2.1251420974731445,1.9596978425979614,4.078426361083984,0.27738937735557556,-0.8372542262077332,0.18721650540828705,2.369297981262207
60,21121,21118,-0.03895549476146698,-0.004178245551884174,0.9654321074485779,3.1541690826416016,-4.430293083190918,-2.0517807006835938,1.959348201751709,4.080057621002197,0.2779654264450073,-0.7592214345932007,0.18396317958831787,2.33571457862854
61,21131,21128,0.04351290315389633,-0.09098506718873978,0.9823063015937805,2.022578239440918,-1.6908628940582275,-1.839827299118042,1.9590681791305542,4.081493377685547,0.2792821228504181,-0.8054389357566833,0.30090421438217163,2.333828926086426
62,21141,21138,-0.02412346377968788,0.05610765144228935,1.0048130750656128,2.6695146560668945,0.11914058774709702,-2.086576223373413,1.9592499732971191,4.082669258117676,0.27997004985809326,-0.8067947030067444,0.3252009153366089,2.3168482780456543
63,21151,21148,-0.015111098065972328,0.008151248097419739,0.9815759062767029,4.848933219909668,-0.005370816215872765,-2.141895294189453,1.9587838649749756,4.0832743644714355,0.2805566191673279,-0.8251637816429138,0.3657502830028534,2.2963762283325195
64,21161,21158,0.007196552585810423,-0.061681006103754044,0.9584290981292725,6.2139763832092285,0.9320303201675415,-2.4240307807922363,1.9569981098175049,4.082147121429443,0.28164350986480713,-0.8434565663337708,0.438883900642395,2.279872417449951
65,21171,21168,0.012203536927700043,-0.0645560547709465,0.9544376730918884,7.584932327270508,-2.728276252746582,-2.333163022994995,1.956684947013855,4.082184791564941,0.28222694993019104,-0.8344208002090454,0.3061021864414215,2.2181832790374756
66,21181,21178,-0.04931749030947685,0.08064065873622894,0.9627479314804077,9.351175308227539,-5.9426727294921875,-1.7349369525909424,1.955626368522644,4.083400726318359,0.2827460467815399,-0.7698224782943726,0.45159533619880676,2.205779552459717
67,21191,21188,-0.0052230884321033955,-0.057240504771471024,1.0077909231185913,8.719768524169922,-8.810559272766113,-1.0997321605682373,1.9543304443359375,4.085016250610352,0.283107191324234,-0.6465664505958557,0.5295008420944214,2.186164379119873
68,21201,21198,0.004869511816650629,-0.10728612542152405,1.0449683666229248,8.83415412902832,-5.845737457275391,-1.6961545944213867,1.952272653579712,4.08467960357666,0.2835632860660553,-0.6120617389678955,0.6720668077468872,2.1786749362945557
69,21211,21208,-0.024750428274273872,0.02207670360803604,1.0205680131912231,7.923559665679932,-5.207388401031494,-1.3194448947906494,1.9524929523468018,4.084451675415039,0.28412026166915894,-0.597909152507782,0.7939047813415527,2.1653499603271484
70,21221,21218,-0.01823539286851883,-0.010429846122860909,1.0195069313049316,6.327010154724121,-3.665863037109375,-1.104296326637268,1.9526636600494385,4.083449840545654,0.2854854166507721,-0.6039410829544067,0.8140754699707031,2.138843297958374
71,21231,21228,-0.04554954171180725,-0.009876863099634647,1.0323712825775146,2.378361701965332,-4.085833549499512,-1.1338781118392944,1.9519060850143433,4.082388877868652,0.2860966920852661,-0.5353672504425049,0.8683627843856812,2.1309921741485596
72,21241,21238,0.0010840098839253187,-0.019422955811023712,0.98267662525177,-0.5681382417678833,-2.4433789253234863,-1.3533763885498047,1.9514707326889038,4.082592487335205,0.28675785660743713,-0.47822046279907227,0.8651041388511658,2.118370771408081
73,21251,21248,-0.029199710115790367,0.014132183976471424,0.990172803401947,-2.102332830429077,3.0502145290374756,-1.2079685926437378,1.9513076543807983,4.083129405975342,0.2873970568180084,-0.5559223294258118,0.9014825820922852,2.0990121364593506
74,21261,21258,-0.02701546438038349,0.13329002261161804,0.9872161746025085,-2.364766836166382,9.92232608795166,-0.79139643907547,1.951913833618164,4.083690166473389,0.2897065579891205,-0.6561629772186279,0.7630679607391357,2.0650277137756348
75,21271,21268,-0.0034544887021183968,0.026110073551535606,0.9929054975509644,-0.6033520698547363,14.58119010925293,-0.3972887098789215,1.9524638652801514,4.084479808807373,0.2903922498226166,-0.8457715511322021,0.8029776811599731,2.0584771633148193
76,21281,21278,0.04647242650389671,0.016870491206645966,1.0045579671859741,2.9739649295806885,15.506983757019043,-0.33993569016456604,1.9524290561676025,4.081473350524902,0.29106149077415466,-0.7719954252243042,0.8769963383674622,2.1006667613983154
77,21291,21288,0.022282078862190247,0.003724172944203019,0.9980617165565491,4.328222751617432,11.712388038635254,-1.0218946933746338,1.9503093957901,4.0811052322387695,0.29084768891334534,-0.9870525598526001,0.7584733366966248,2.064728021621704
78,21301,21298,0.009321478195488453,-0.04666908085346222,0.9731566905975342,3.851200819015503,8.628478050231934,-1.1316510438919067,1.9520378112792969,4.083723545074463,0.2914752960205078,-1.1383169889450073,0.8916165232658386,2.0627388954162598
79,21311,21308,-0.03260410204529762,0.016616418957710266,1.017795443534851,5.385197639465332,4.839569568634033,-0.9268499612808228,1.9523059129714966,4.083205699920654,0.29213279485702515,-1.1511236429214478,0.8670164346694946,2.0535972118377686
80,21321,21318,0.016166649758815765,-0.028009962290525436,0.9655860662460327,4.587012767791748,2.2717106342315674,-1.3862425088882446,1.9513959884643555,4.0832390785217285,0.2900162637233734,-1.1127550601959229,1.0061582326889038,2.067739725112915
81,21331,21328,0.019111527130007744,0.02116914838552475,0.9591507911682129,5.049546718597412,-0.5886142253875732,-1.1123360395431519,1.9492133855819702,4.080986499786377,0.29050421714782715,-1.1282769441604614,1.1296602487564087,2.0707340240478516
82,21341,21338,0.0030670713167637587,-0.0009665597463026643,0.989290714263916,2.4585940837860107,-0.32255011796951294,-1.2220968008041382,1.9490923881530762,4.080756664276123,0.29092344641685486,-1.180372714996338,1.072391390800476,2.033216714859009
83,21351,21348,-0.05455277860164642,0.057988349348306656,1.0339819192886353,1.1827127933502197,-1.8102859258651733,-0.6386046409606934,1.9481251239776611,4.080054759979248,0.2912430465221405,-1.136712908744812,1.1433993577957153,2.0354197025299072
84,21361,21358,-0.025398919358849525,0.016952339559793472,1.000338077545166,-0.7119234204292297,2.1545562744140625,-0.3940882384777069,1.9480395317077637,4.080995082855225,0.29403772950172424,-1.199697494506836,1.1810516119003296,2.0215940475463867
85,21371,21368,-0.0106656514108181,-0.015608338639140129,1.011872410774231,-3.1502530574798584,5.0832905769348145,-0.6924954652786255,1.948186993598938,4.0803446769714355,0.2945430278778076,-1.2337210178375244,1.176568865776062,2.0168023109436035
86,21381,21378,-0.021099774166941643,0.019724229350686073,1.0166668891906738,-4.321000099182129,7.116497039794922,-0.7530854344367981,1.9485400915145874,4.081089019775391,0.295070618391037,-1.310861587524414,1.1384788751602173,2.0068390369415283
87,21391,21388,0.07116609066724777,0.030308375135064125,0.916881799697876,-4.4263997077941895,6.846722602844238,-0.9856600761413574,1.948447585105896,4.081571102142334,0.2961651086807251,-1.408348560333252,1.0880732536315918,1.9968067407608032
88,21401,21398,0.0005988284829072654,-0.005865783896297216,0.9869791269302368,-4.120708465576172,4.187632083892822,-0.9801141619682312,1.9486631155014038,4.081615447998047,0.2966575622558594,-1.4667840003967285,1.0327504873275757,1.9884878396987915
89,21411,21408,-0.07355929166078568,-0.0028886389918625355,1.0005624294281006,-3.673069953918457,1.004309058189392,-0.761693000793457,1.9485210180282593,4.081743240356445,0.297162264585495,-1.4728901386260986,0.9853492975234985,1.9808275699615479
90,21421,21418,-0.0029127143789082766,-0.03165976330637932,0.9712720513343811,-2.3557469844818115,-0.25480198860168457,-1.2975642681121826,1.9480786323547363,4.083476543426514,0.2968476116657257,-1.512298583984375,0.9580056071281433,1.9668023586273193
91,21431,21428,0.004733799025416374,-0.04027315601706505,0.971997857093811,-0.4504689574241638,-4.641113758087158,-0.44675928354263306,1.9484659433364868,4.08326530456543,0.29723674058914185,-1.4213835000991821,1.0305380821228027,1.9892287254333496
92,21441,21438,-0.015040152706205845,-0.0032385876402258873,1.0096930265426636,0.9542408585548401,-6.356042861938477,-0.05462441220879555,1.9473258256912231,4.082282066345215,0.2977263033390045,-1.286376714706421,1.0399837493896484,2.0017755031585693
93,21451,21448,0.010624305345118046,-0.030765924602746964,0.9820454716682434,0.34693172574043274,-5.371557235717773,0.06331628561019897,1.9454373121261597,4.079948902130127,0.2973312437534332,-1.386793851852417,1.0521726608276367,1.974245309829712
94,21461,21458,0.00829223170876503,-0.020485317334532738,0.9920583367347717,-1.1537352800369263,-3.278913974761963,0.16994039714336395,1.9465206861495972,4.079803466796875,0.29762935638427734,-1.3383783102035522,1.0457271337509155,1.9724336862564087
95,21471,21468,0.0699501484632492,-0.16726627945899963,1.0341864824295044,-4.978792190551758,-1.2832542657852173,-0.18746286630630493,1.945871353149414,4.077704906463623,0.29790571331977844,-1.2463929653167725,0.9125573039054871,1.966187834739685
96,21481,21478,0.035870764404535294,-0.19845101237297058,1.0505225658416748,-7.773975372314453,0.7389967441558838,-0.6998975276947021,1.9455724954605103,4.0785908699035645,0.29831838607788086,-1.3352057933807373,0.8139446377754211,1.9383153915405273
97,21491,21488,0.060098107904195786,-0.044958557933568954,0.9097731709480286,-7.782533168792725,1.369911551475525,-0.4445092976093292,1.9461596012115479,4.0784125328063965,0.29811906814575195,-1.3879268169403076,0.6962683796882629,1.9185469150543213
98,21501,21498,-0.0035287069622427225,0.007008443120867014,0.9643763303756714,-6.777256488800049,-0.632984459400177,-0.34424155950546265,1.9460567235946655,4.077908515930176,0.2983742952346802,-1.3308378458023071,0.6620541214942932,1.9340612888336182
99,21511,21508,-0.0009373323409818113,-0.019961753860116005,0.9948610067367554,-4.418918132781982,-3.2776906490325928,-0.03601323068141937,1.945458173751831,4.077444076538086,0.29874974489212036,-1.3922560214996338,0.6526756882667542,1.9319860935211182
100,21521,21518,0.042022705078125,-0.03727513924241066,0.960637629032135,-0.795178234577179,-5.246228218078613,0.5961517095565796,1.9452866315841675,4.075523376464844,0.30036208033561707,-1.2591228485107422,0.6140788197517395,1.9481784105300903
101,21531,21528,0.043750613927841187,-0.06386137753725052,0.9495088458061218,0.9273970723152161,-6.472307205200195,0.8678299188613892,1.9430127143859863,4.073212623596191,0.3007214367389679,-1.2488861083984375,0.767008364200592,1.9779857397079468
102,21541,21538,-0.024024667218327522,-0.14466728270053864,1.0351558923721313,1.509183645248413,-6.718204975128174,1.1506016254425049,1.9440524578094482,4.072310447692871,0.300974577665329,-1.211776614189148,0.7722117900848389,1.9820218086242676
103,21551,21548,-0.03152400627732277,-0.17308273911476135,1.0217459201812744,-0.5158275365829468,-5.455921173095703,0.9369567632675171,1.9438279867172241,4.069775581359863,0.3000287413597107,-1.166442632675171,0.7656904458999634,1.983091115951538
104,21561,21558,-0.04611671715974808,-0.05896410718560219,0.9853416085243225,-5.083437442779541,-4.036422252655029,0.398406982421875,1.9448171854019165,4.069861888885498,0.30023327469825745,-1.1404355764389038,0.7776203155517578,1.989128589630127
105,21571,21568,-0.03957998380064964,-0.0036631363909691572,1.0207425355911255,-9.10953426361084,-1.6636488437652588,0.7807492017745972,1.9450160264968872,4.0672101974487305,0.3003847002983093,-1.0835233926773071,0.635779857635498,1.9838287830352783
106,21581,21578,-0.016786767169833183,0.021653950214385986,1.0147658586502075,-10.768306732177734,-2.424999237060547,0.40708306431770325,1.9443974494934082,4.065979480743408,0.3006441593170166,-0.9525002241134644,0.6088255047798157,2.0153844356536865
107,21591,21588,-0.04513312876224518,0.03280375897884369,1.0583717823028564,-10.798933982849121,-2.891679286956787,0.6866967082023621,1.9440933465957642,4.064371109008789,0.30001509189605713,-1.0473370552062988,0.48335400223731995,2.0026917457580566
108,21601,21598,-0.05256831645965576,0.01546965166926384,1.0060486793518066,-9.02427864074707,-3.6200289726257324,0.7979422211647034,1.945021629333496,4.06190824508667,0.3001554012298584,-0.8932539224624634,0.37289199233055115,2.018150806427002
109,21611,21608,-0.02338799089193344,0.01875169388949871,1.0221476554870605,-6.7726006507873535,-4.438555717468262,0.6907590627670288,1.9441134929656982,4.062078952789307,0.3005830645561218,-0.8958077430725098,0.2969553768634796,2.0231411457061768
110,21621,21618,0.030876414850354195,-0.04687081277370453,0.967751681804657,-3.7691726684570312,-4.6826605796813965,0.5237400531768799,1.9445496797561646,4.0601935386657715,0.2981586158275604,-0.8796261548995972,0.3417474031448364,2.0415074825286865
111,21631,21628,-0.005545699968934059,-0.016277939081192017,0.9882120490074158,-1.5048006772994995,-4.272546291351318,0.25729483366012573,1.9458637237548828,4.059494972229004,0.2982448637485504,-0.8627585768699646,0.2637961506843567,2.03340482711792
112,21641,21638,-0.008111933246254921,0.00042204721830785275,1.0242775678634644,-0.5982481241226196,-5.017149448394775,0.4040958285331726,1.9469232559204102,4.057940483093262,0.29834750294685364,-0.8315193057060242,0.21296200156211853,2.0338833332061768
113,21651,21648,-0.022516800090670586,-0.02189759351313114,1.017831802368164,-1.7381300926208496,-4.718931198120117,1.4340068101882935,1.9472851753234863,4.056242942810059,0.29895415902137756,-0.8714724183082581,0.24660004675388336,2.038132667541504
114,21661,21658,-0.026287132874131203,-0.019321514293551445,1.010401964187622,-5.331854343414307,-2.6468825340270996,1.7784841060638428,1.948606252670288,4.055389404296875,0.2990645170211792,-0.7721493244171143,0.23048155009746552,2.0566582679748535
115,21671,21668,0.024578440934419632,-0.0508890338242054,0.969028890132904,-5.992020130157471,-3.9977591037750244,1.629189133644104,1.9482084512710571,4.054502010345459,0.29927322268486023,-0.6045392751693726,0.10389725863933563,2.0724527835845947
116,21681,21678,-0.011202514171600342,-0.06310310959815979,1.0458247661590576,-7.149322986602783,-4.6460795402526855,1.4845234155654907,1.9481663703918457,4.0562262535095215,0.29964762926101685,-0.6567972898483276,0.12273566424846649,2.092074155807495
117,21691,21688,0.04856676608324051,-0.08307812362909317,0.9622790217399597,-7.565977096557617,-3.3889968395233154,1.0308550596237183,1.9494043588638306,4.05418062210083,0.2977408766746521,-0.47437363862991333,-0.03369675576686859,2.1027629375457764
118,21701,21698,-0.0646420270204544,0.06625422090291977,1.0235157012939453,-6.900043964385986,-3.4362449645996094,1.3097569942474365,1.9491727352142334,4.05449914932251,0.29800012707710266,-0.5304288268089294,-0.09809067100286484,2.115090847015381
119,21711,21708,-0.07937166839838028,0.0636000707745552,1.0300878286361694,-5.5043840408325195,-2.6188149452209473,1.5796390771865845,1.950713038444519,4.054903984069824,0.2980061173439026,-0.513336181640625,-0.07556332647800446,2.1348299980163574
120,21721,21718,-0.015133388340473175,0.0018597044982016087,1.0292589664459229,-3.6321117877960205,-2.384965419769287,1.5714446306228638,1.9515278339385986,4.053629398345947,0.2977382242679596,-0.5151863098144531,-0.11039227247238159,2.151724338531494
121,21731,21728,-0.008486474864184856,0.009500272572040558,1.0275306701660156,-2.2370188236236572,-2.954416275024414,1.9667974710464478,1.952883005142212,4.053686141967773,0.2978367805480957,-0.4346995949745178,-0.1226121038198471,2.168649673461914
122,21741,21738,0.004421560559421778,-0.020547043532133102,1.0366023778915405,-3.527545213699341,-1.6100455522537231,2.316262722015381,1.9528497457504272,4.053112506866455,0.2980389893054962,-0.586783230304718,-0.2061367928981781,2.187129259109497
123,21751,21748,0.06217954680323601,-0.06408818066120148,1.0515717267990112,-3.3179616928100586,-3.593075752258301,1.9950919151306152,1.9558942317962646,4.0535712242126465,0.299093633890152,-0.3975416421890259,-0.2109784185886383,2.207848310470581
124,21761,21758,0.05354801565408707,-0.06037876754999161,0.9874147772789001,-4.06871223449707,-7.386234283447266,2.110166549682617,1.9550399780273438,4.05203914642334,0.2995763123035431,-0.254108726978302,-0.30361875891685486,2.2252509593963623
125,21771,21768,-0.019722992554306984,0.009801729582250118,1.0520262718200684,-4.334719657897949,-8.589118003845215,2.3092384338378906,1.9552077054977417,4.0516815185546875,0.2999652624130249,-0.312208354473114,-0.39797714352607727,2.255265474319458
126,21781,21778,0.016820378601551056,-0.01850658655166626,1.0050028562545776,-3.2285709381103516,-10.60482120513916,2.653326988220215,1.957253098487854,4.052476406097412,0.3002053499221802,-0.028003046289086342,-0.32331499457359314,2.273867130279541
127,21791,21788,-0.0939476266503334,0.17934070527553558,0.9978504776954651,-1.4622859954833984,-6.593665599822998,2.5989458560943604,1.9568599462509155,4.052236557006836,0.29990455508232117,-0.09615691751241684,-0.3115789592266083,2.3033483028411865
128,21801,21798,-0.042980752885341644,0.045381348580121994,0.9779430031776428,-0.7717938423156738,-3.384204149246216,2.951540470123291,1.9593887329101562,4.051482200622559,0.30009740591049194,0.10114087909460068,-0.3620359003543854,2.3228108882904053
129,21811,21808,0.019451117143034935,-0.05791007727384567,0.9703593850135803,-0.8415448665618896,0.34753382205963135,3.013645648956299,1.9590364694595337,4.050710201263428,0.3005176782608032,0.06800585985183716,-0.33007559180259705,2.355945587158203
130,21821,21818,0.061254482716321945,-0.08361627161502838,0.9723847508430481,-3.102478265762329,4.5630645751953125,3.26723313331604,1.9601998329162598,4.049091815948486,0.30125734210014343,-0.1069658026099205,-0.4029320180416107,2.39705753326416
131,21831,21828,-0.023605354130268097,0.07198493927717209,1.011984944343567,-3.227238178253174,2.149531364440918,3.2998225688934326,1.962664008140564,4.048748970031738,0.3014388382434845,-0.021271521225571632,-0.47872450947761536,2.4269776344299316
132,21841,21838,0.00746193015947938,-0.014024723321199417,0.9801509380340576,-3.241271495819092,0.5161539316177368,3.8613672256469727,1.9618642330169678,4.049068927764893,0.3015791177749634,-0.08733431249856949,-0.48190850019454956,2.4641170501708984
133,21851,21848,0.04125486686825752,-0.02814916893839836,0.9509708881378174,-1.5187486410140991,-2.001439332962036,3.111846923828125,1.9636090993881226,4.049036026000977,0.30548128485679626,-0.1803949773311615,-0.46254295110702515,2.5071489810943604
134,21861,21858,0.041180506348609924,-0.03235440328717232,0.9879140853881836,-1.7753630876541138,-3.4820048809051514,3.156564235687256,1.9658209085464478,4.047725200653076,0.3059127628803253,-0.08833146095275879,-0.5216968059539795,2.5317089557647705
135,21871,21868,0.00181919289752841,0.002800695365294814,1.0024757385253906,-1.3818364143371582,-6.552402496337891,3.187819004058838,1.9664828777313232,4.047302722930908,0.3064585030078888,-0.029271768406033516,-0.5671948790550232,2.5583643913269043
136,21881,21878,-0.0028478458989411592,-0.03580748662352562,0.992974579334259,-0.6960020065307617,-8.90052604675293,3.1543619632720947,1.9686678647994995,4.04730224609375,0.3063459098339081,0.07081672549247742,-0.5999233722686768,2.590142250061035
137,21891,21888,0.06252387911081314,-0.0495930016040802,0.9838677644729614,0.5087649822235107,-9.271302223205566,3.1384196281433105,1.9700605869293213,4.047580242156982,0.30676791071891785,0.17481353878974915,-0.6171824932098389,2.6239309310913086
138,21901,21898,0.015825998038053513,-0.0020380886271595955,0.994598388671875,1.9201644659042358,-8.071404457092285,3.00704026222229,1.9692988395690918,4.047169208526611,0.3068033456802368,0.27747684717178345,-0.604739248752594,2.6458868980407715
139,21911,21908,0.022132130339741707,-0.03723866865038872,0.9748456478118896,2.7920773029327393,-5.794267177581787,2.8946855068206787,1.970928430557251,4.045483112335205,0.307576984167099,0.3471371829509735,-0.5755678415298462,2.676403045654297
140,21921,21918,-0.07372064888477325,0.01604621484875679,1.0229685306549072,3.435074806213379,-2.1547348499298096,2.8633792400360107,1.9708020687103271,4.044618129730225,0.30980178713798523,0.5259947180747986,-0.45670634508132935,2.683260202407837
141,21931,21928,-0.13263407349586487,0.08382830768823624,0.9703581929206848,3.507866144180298,1.9588165283203125,3.0659046173095703,1.9716320037841797,4.043521881103516,0.3109034597873688,0.3889518678188324,-0.41435837745666504,2.723665475845337
142,21941,21938,-0.048454880714416504,0.10609707236289978,0.904532790184021,0.7618023157119751,4.88505744934082,2.798368215560913,1.9732567071914673,4.0431599617004395,0.3113119900226593,0.3454004228115082,-0.47860732674598694,2.752553701400757
143,21951,21948,-0.021727880463004112,0.03353063389658928,0.9623613357543945,-1.5279313325881958,4.801171779632568,2.168818712234497,1.9750338792800903,4.043265342712402,0.3130233585834503,0.27854645252227783,-0.5037689208984375,2.7738680839538574
144,21961,21958,-0.011581572704017162,-0.02744811587035656,0.9720609784126282,-2.33959698677063,3.2783961296081543,2.6662049293518066,1.9750186204910278,4.042925834655762,0.31302571296691895,0.32176345586776733,-0.5449087023735046,2.7914133071899414
145,21971,21968,0.04846625775098801,-0.16151556372642517,0.9850949048995972,-2.2475790977478027,0.264333575963974,2.661498785018921,1.9750959873199463,4.041810035705566,0.31353265047073364,0.3253873288631439,-0.4360800087451935,2.791813373565674
146,21981,21978,0.025945032015442848,-0.08558359742164612,0.9959465861320496,-0.3372776508331299,-0.8745416402816772,2.5296077728271484,1.9760043621063232,4.0413713455200195,0.3120272755622864,0.4284079968929291,-0.4712601900100708,2.81622576713562
147,21991,21988,0.01994292438030243,-0.059273771941661835,0.9519064426422119,2.2831597328186035,-2.9449782371520996,2.4260945320129395,1.9751206636428833,4.040877819061279,0.3123796880245209,0.30838990211486816,-0.46997764706611633,2.8555097579956055
148,22001,21998,-0.01903447136282921,0.10185405611991882,0.9062085151672363,1.399234652519226,0.5449345111846924,2.719513416290283,1.9770523309707642,4.040992736816406,0.3125971257686615,0.40507423877716064,-0.5325140953063965,2.875415325164795
149,22011,22008,-0.029855802655220032,0.001993398880586028,0.9858763813972473,1.0917247533798218,1.9212050437927246,2.758497476577759,1.9770162105560303,4.040604114532471,0.31289994716644287,0.320883572101593,-0.5135546326637268,2.9107065200805664
150,22021,22018,-0.12015336751937866,-0.036594390869140625,1.0377799272537231,0.9310560822486877,3.194091320037842,2.9115047454833984,1.9785451889038086,4.039836406707764,0.31229814887046814,0.38060617446899414,-0.5009652376174927,2.919870376586914
151,22031,22028,-0.030150625854730606,-0.042813196778297424,0.9797321557998657,0.3667018413543701,5.419735431671143,3.1473608016967773,1.978474736213684,4.0394287109375,0.3124624490737915,0.24280433356761932,-0.4952584207057953,2.9596548080444336
152,22041,22038,0.009750010445713997,-0.036147814244031906,0.9642008543014526,1.1334433555603027,5.368719577789307,3.195852518081665,1.979790210723877,4.039524078369141,0.3125084936618805,0.2458828240633011,-0.4811123013496399,2.9825222492218018
153,22051,22048,-0.09154127538204193,-0.03003581054508686,0.9733546376228333,1.6964884996414185,3.021392345428467,3.0612189769744873,1.9800546169281006,4.039271354675293,0.3114401698112488,0.20545002818107605,-0.45577824115753174,3.0102670192718506
154,22061,22058,0.04729505255818367,-0.11205548793077469,0.9852846264839172,1.191545844078064,2.7326202392578125,3.5425515174865723,1.980486273765564,4.03807258605957,0.3114495873451233,0.23614846169948578,-0.515177845954895,3.0352559089660645
155,22071,22068,0.005440093576908112,-0.16013401746749878,0.9855661392211914,2.6643779277801514,0.8994658589363098,3.5686020851135254,1.9805964231491089,4.0388641357421875,0.31149107217788696,0.21589337289333344,-0.4736456871032715,3.0663866996765137
156,22081,22078,-0.016567768529057503,-0.11448287963867188,0.8956627249717712,2.566615343093872,-0.3115224540233612,3.8038523197174072,1.9807507991790771,4.03844690322876,0.3110415041446686,0.14516328275203705,-0.4985359013080597,3.1162831783294678
157,22091,22088,-0.013099203817546368,-0.01628282107412815,0.9640927314758301,2.0816292762756348,0.1084437295794487,3.9770047664642334,1.9819828271865845,4.0382513999938965,0.310912162065506,0.23313409090042114,-0.4473167657852173,3.1352577209472656
158,22101,22098,-0.012873532250523567,-0.013630827888846397,1.0055875778198242,1.6193079948425293,1.0174906253814697,3.876321792602539,1.98190438747406,4.037654399871826,0.3108117878437042,0.30304041504859924,-0.3320138156414032,3.1562507152557373
159,22111,22108,-0.010048715397715569,-0.025067757815122604,0.9801028966903687,1.8465750217437744,1.5867385864257812,4.069798469543457,1.9817858934402466,4.035690784454346,0.31068429350852966,0.20049533247947693,-0.3770936131477356,3.197695732116699
160,22121,22118,0.004490504041314125,-0.029855994507670403,0.9874745607376099,2.328489303588867,2.7845523357391357,4.55812406539917,1.9833256006240845,4.036175727844238,0.3120627701282501,0.2362535148859024,-0.3354986310005188,3.2266249656677246
161,22131,22128,-0.07158499211072922,0.010335804894566536,1.0950247049331665,1.9567043781280518,5.671975612640381,3.756340742111206,1.9835904836654663,4.035799026489258,0.31200844049453735,0.24220629036426544,-0.2985028624534607,3.265671730041504
162,22141,22138,0.007486189715564251,-0.11734748631715775,1.0962539911270142,1.0779672861099243,6.590816020965576,4.461719036102295,1.9834506511688232,4.034756183624268,0.3119519352912903,0.04537379369139671,-0.2823267877101898,3.3146603107452393
163,22151,22148,0.06913287192583084,-0.14419706165790558,1.055701732635498,1.6458048820495605,6.276934623718262,4.045637607574463,1.9852361679077148,4.03488826751709,0.31325942277908325,0.09581992030143738,-0.3275631368160248,3.3467674255371094
164,22161,22158,0.014175056479871273,-0.03416954353451729,0.9950025677680969,0.490233451128006,6.812018394470215,3.8200128078460693,1.9835892915725708,4.034699440002441,0.3134942948818207,-0.031221900135278702,-0.3080623149871826,3.3935811519622803
165,22171,22168,-0.01327608898282051,-0.01580076850950718,0.9859824180603027,0.7821556925773621,5.9570722579956055,3.9032928943634033,1.984381079673767,4.034164905548096,0.3136700689792633,-0.1354047954082489,-0.3649560809135437,3.4437332153320312
166,22181,22178,-0.03423458710312843,0.1408751904964447,0.9744434356689453,1.7280646562576294,3.822521686553955,3.9969043731689453,1.9850183725357056,4.035085201263428,0.3151838779449463,-0.37163257598876953,-0.3291260302066803,3.492465019226074
167,22191,22188,-0.04356532171368599,0.048258520662784576,1.0243686437606812,2.7749598026275635,-0.4866165816783905,3.3800454139709473,1.987168312072754,4.03493070602417,0.3153075873851776,-0.2603428363800049,-0.2670190930366516,3.5231895446777344
168,22201,22198,-0.016255244612693787,-0.008416460826992989,1.0194218158721924,3.0796637535095215,-1.890539526939392,3.898837089538574,1.9872164726257324,4.034735679626465,0.3156841993331909,-0.15292546153068542,-0.20670130848884583,3.5493481159210205
169,22211,22208,-0.033480431884527206,-0.1014929711818695,1.0287761688232422,3.163745164871216,-2.461578130722046,3.6545331478118896,1.9866647720336914,4.034478664398193,0.31539830565452576,-0.10250671207904816,-0.29714474081993103,3.5963804721832275
170,22221,22218,-0.022071730345487595,-0.07104891538619995,1.0562148094177246,3.1858973503112793,-2.876591920852661,3.403351068496704,1.9870491027832031,4.035556316375732,0.31564781069755554,-0.2173188179731369,-0.3067625164985657,3.62983775138855
171,22231,22228,-0.012894670478999615,-0.07061479240655899,1.018273949623108,2.754016637802124,-2.0060782432556152,3.507507562637329,1.9888172149658203,4.036839962005615,0.3158193826675415,-0.09095121920108795,-0.23487263917922974,3.678341865539551
172,22241,22238,0.007112844847142696,-0.04056642949581146,0.9936167597770691,3.764713764190674,-1.440471887588501,2.071932792663574,1.9886623620986938,4.036078453063965,0.316260427236557,0.0020846824627369642,-0.24489377439022064,3.6939830780029297
173,22251,22248,0.07702745497226715,-0.21960611641407013,1.0001806020736694,4.144436359405518,0.3376201093196869,2.675886631011963,1.9886410236358643,4.036534786224365,0.3140072226524353,-0.09932541102170944,-0.24398840963840485,3.722813606262207
174,22261,22258,0.02311183698475361,-0.07763015478849411,0.9952094554901123,4.506266117095947,1.6131902933120728,2.447899580001831,1.9899853467941284,4.036402702331543,0.3141140639781952,-0.028996393084526062,-0.21725372970104218,3.7380595207214355
175,22271,22268,-0.10379195958375931,-0.02971539832651615,1.001198649406433,3.5515682697296143,3.9677977561950684,2.25104022026062,1.9898157119750977,4.0366902351379395,0.31432071328163147,0.0018463185988366604,-0.11984019726514816,3.7398569583892822
176,22281,22278,-0.028991660103201866,-0.03212185949087143,0.9940683245658875,4.066004276275635,5.541163444519043,3.2633073329925537,1.9898263216018677,4.036471366882324,0.31168168783187866,-0.09203659743070602,-0.10976153612136841,3.7809176445007324
177,22291,22288,-0.007033537607640028,-0.010342961177229881,0.9864010810852051,3.9218852519989014,6.886316776275635,2.5542545318603516,1.9908899068832397,4.036336421966553,0.3116322457790375,-0.27370092272758484,-0.016570324078202248,3.8242738246917725
178,22301,22298,0.08541932702064514,-0.0871487632393837,0.9965819120407104,5.050390243530273,5.9469099044799805,1.9977715015411377,1.9923689365386963,4.037105560302734,0.3115217089653015,-0.38305532932281494,0.0022883780766278505,3.8488621711730957
179,22311,22308,0.022906318306922913,-0.14987614750862122,1.0056957006454468,4.505704402923584,4.502721309661865,1.7339433431625366,1.9931365251541138,4.037761211395264,0.30899685621261597,-0.4529954195022583,0.02970348671078682,3.8714213371276855
180,22321,22318,-0.01576361060142517,-0.10717150568962097,0.9215322732925415,3.624591827392578,0.888237714767456,1.9589893817901611,1.9938527345657349,4.037883758544922,0.3087669014930725,-0.39667508006095886,0.1255314201116562,3.874579906463623
181,22331,22328,-0.023590967059135437,-0.006200803443789482,0.9622413516044617,2.620516061782837,-2.044342517852783,1.9930671453475952,1.9937126636505127,4.0381083488464355,0.3086305558681488,-0.370412677526474,0.12386962026357651,3.9182653427124023
182,22341,22338,-0.1542184054851532,0.06654760241508484,1.1144248247146606,1.7337231636047363,-2.7090513706207275,1.6358813047409058,1.993836522102356,4.037993907928467,0.3084166646003723,-0.2981809377670288,0.18981176614761353,3.924504280090332
183,22351,22348,-0.11820092797279358,0.11516277492046356,0.983445942401886,1.5748541355133057,-1.6236541271209717,1.9941223859786987,1.9943962097167969,4.0377044677734375,0.30637454986572266,-0.32309502363204956,0.08974642306566238,3.936979293823242
184,22361,22358,-0.058296218514442444,0.12455680966377258,0.9329183101654053,0.3087625503540039,-0.10604570806026459,1.705815315246582,1.9954688549041748,4.038459777832031,0.30601125955581665,-0.3962517976760864,0.05485419183969498,3.9424006938934326
185,22371,22368,0.042497120797634125,-0.0474664606153965,1.0232913494110107,-0.37756216526031494,2.454633951187134,2.4404544830322266,1.996332049369812,4.0391316413879395,0.3056294023990631,-0.33507513999938965,0.08389680832624435,3.964078426361084
186,22381,22378,0.0492507629096508,-0.08040162920951843,1.0604268312454224,1.4763833284378052,0.7912039160728455,1.7582186460494995,1.9967925548553467,4.0389084815979,0.306947261095047,-0.43074971437454224,0.12716862559318542,3.989722490310669
187,22391,22388,0.0382283553481102,-0.04527822881937027,0.9446044564247131,3.477268934249878,2.1753122806549072,1.5378139019012451,1.9989086389541626,4.038682460784912,0.30668866634368896,-0.5191872119903564,0.130452960729599,3.990767478942871
188,22401,22398,0.015038850717246532,-0.020677443593740463,0.9879063963890076,4.7413787841796875,1.0094656944274902,1.8230770826339722,2.000404119491577,4.039011001586914,0.30640485882759094,-0.44023868441581726,0.2338351458311081,4.010497093200684
189,22411,22408,0.029265424236655235,-0.15268148481845856,1.0664231777191162,4.675806045532227,-0.07479063421487808,1.8707456588745117,1.9997167587280273,4.038760185241699,0.30584195256233215,-0.4896698296070099,0.25705236196517944,4.039737224578857
190,22421,22418,-0.006163049954921007,-0.04915237799286842,1.0545175075531006,4.840035915374756,-1.7476016283035278,1.5845988988876343,2.0011351108551025,4.039276599884033,0.3055157959461212,-0.4483960270881653,0.2919665277004242,4.036722660064697
191,22431,22428,-0.01894708350300789,0.06629107892513275,0.9578426480293274,3.159264087677002,-3.137998342514038,1.6456202268600464,2.0018012523651123,4.038844585418701,0.30531764030456543,-0.43079233169555664,0.3401568531990051,4.052326679229736
192,22441,22438,-0.07543563842773438,0.016622526571154594,1.0699914693832397,1.0904861688613892,-2.8399901390075684,1.6448553800582886,2.002117156982422,4.038489818572998,0.30574554204940796,-0.2478535920381546,0.42780616879463196,4.075850486755371
193,22451,22448,0.011636343784630299,-0.04242318123579025,1.0134040117263794,-0.13817857205867767,-3.903017282485962,1.375794529914856,2.0016205310821533,4.038515567779541,0.30568307638168335,-0.2544390559196472,0.3036293387413025,4.084108352661133
194,22461,22458,-0.014994706958532333,-0.003462533000856638,1.0317648649215698,-1.2625596523284912,-3.783926248550415,1.4903616905212402,2.0022356510162354,4.039860725402832,0.3055585026741028,-0.25767984986305237,0.318302720785141,4.096485137939453
195,22471,22468,0.016546012833714485,-0.037640973925590515,1.0043206214904785,-0.631499171257019,-1.720314383506775,0.9736498594284058,2.003441333770752,4.040046691894531,0.3054608404636383,-0.1299104243516922,0.33197373151779175,4.114020347595215
196,22481,22478,-0.01584072783589363,-0.0017727490048855543,1.0513023138046265,-0.7328369617462158,-0.5228864550590515,1.369526982307434,2.00307035446167,4.039913654327393,0.3077522814273834,-0.26048681139945984,0.343722939491272,4.117445945739746
197,22491,22488,0.01065197866410017,-0.03268861398100853,0.9973005652427673,0.5693937540054321,1.1813697814941406,0.8284112215042114,2.0048301219940186,4.039590835571289,0.3077777624130249,-0.1775970160961151,0.36559587717056274,4.1228227615356445
198,22501,22498,-0.05629926174879074,0.03636007755994797,1.0334672927856445,0.57342529296875,0.8534202575683594,0.9219831228256226,2.0042293071746826,4.039801597595215,0.3080241084098816,-0.18591716885566711,0.390320360660553,4.152332305908203
199,22511,22508,-0.03647509962320328,0.011612857691943645,1.0298048257827759,0.10149777680635452,-0.47845298051834106,0.2958362400531769,2.0046021938323975,4.038414001464844,0.309438019990921,-0.19614939391613007,0.39251601696014404,4.134550094604492
200,22521,22518,0.017884012311697006,-0.14642848074436188,0.9745851159095764,-0.3302667438983917,0.4672197699546814,0.8626514673233032,2.0057873725891113,4.039468288421631,0.309673011302948,-0.16201189160346985,0.3582969903945923,4.150542259216309
201,22531,22528,0.048141513019800186,-0.16063565015792847,1.026328206062317,-0.7682678699493408,-0.3369975984096527,0.5107996463775635,2.006063938140869,4.039509296417236,0.31003251671791077,-0.14342135190963745,0.3660444915294647,4.162472248077393
202,22541,22538,0.028443116694688797,-0.056774064898490906,0.9931904077529907,-2.091540813446045,0.4863954484462738,0.39565080404281616,2.00667667388916,4.039322376251221,0.3131406307220459,-0.2861027121543884,0.2789669632911682,4.137886047363281
203,22551,22548,0.003513479372486472,-0.012666678056120872,0.9889541864395142,-1.5840932130813599,0.3134952187538147,0.4122576415538788,2.008819103240967,4.039576053619385,0.3135010004043579,-0.19244378805160522,0.27591970562934875,4.131080150604248
204,22561,22558,-0.020470313727855682,0.001517985831014812,0.9953405857086182,-0.7079024910926819,-0.752056896686554,-0.02943817712366581,2.0093066692352295,4.038555145263672,0.3140607476234436,-0.17256535589694977,0.3512793183326721,4.122140407562256
205,22571,22568,-0.023594221100211143,0.06797263771295547,1.0742504596710205,0.6130983233451843,-1.7339866161346436,-0.33472928404808044,2.0100836753845215,4.037982940673828,0.314534455537796,-0.28493502736091614,0.3644433617591858,4.113815784454346
206,22581,22578,-0.035785119980573654,0.03780991956591606,1.0575181245803833,0.3091152310371399,-4.763099193572998,0.8254777193069458,2.0116100311279297,4.037837028503418,0.3163015842437744,-0.13603271543979645,0.3812519907951355,4.122955799102783
207,22591,22588,0.04825836047530174,-0.09765568375587463,0.9848592877388,-0.22622939944267273,-1.7879371643066406,-0.34928226470947266,2.0106985569000244,4.037646293640137,0.3170613646507263,-0.3114238977432251,0.38411110639572144,4.111316680908203
208,22601,22598,0.09845340996980667,-0.06782332807779312,1.0196837186813354,-2.5492992401123047,0.32562318444252014,-0.17961619794368744,2.013495922088623,4.0381011962890625,0.31757351756095886,-0.27931347489356995,0.28084540367126465,4.120960712432861
209,22611,22608,0.03493116796016693,-0.11904936283826828,1.0813817977905273,-3.7234959602355957,-1.3082654476165771,-0.5430459976196289,2.0141758918762207,4.039030075073242,0.31516894698143005,-0.2165037840604782,0.09118976444005966,4.136208534240723
210,22621,22618,0.036311108618974686,-0.06243985891342163,0.9602141380310059,-5.14004373550415,-2.1256842613220215,-1.208511233329773,2.0142059326171875,4.040874004364014,0.3156847357749939,-0.1541387438774109,0.1987643986940384,4.128668785095215
211,22631,22628,0.005705231335014105,-0.005266442429274321,0.9545108079910278,-2.420715808868408,-3.6554794311523438,-0.7751884460449219,2.0153706073760986,4.040114402770996,0.31683236360549927,-0.08268994837999344,0.15497975051403046,4.122252941131592
212,22641,22638,4.01437864638865e-05,-0.024714060127735138,0.9572462439537048,-2.1873557567596436,-2.8796873092651367,-1.7048449516296387,2.0147223472595215,4.039495944976807,0.31952884793281555,0.05981002375483513,0.2109411060810089,4.095712661743164
213,22651,22648,0.024844493716955185,-0.0997968465089798,0.9779475331306458,-2.263488531112671,-2.7557272911071777,-1.9867618083953857,2.014824151992798,4.038937091827393,0.3208632171154022,-0.1917080134153366,0.09846590459346771,4.082685470581055
214,22661,22658,-0.026998722925782204,-0.011879711411893368,0.9328182935714722,-0.6689832806587219,-1.3093712329864502,-1.7966760396957397,2.0170061588287354,4.038812160491943,0.3207273781299591,-0.05414045602083206,0.10127914696931839,4.063873767852783
215,22671,22668,0.023573553189635277,0.010003644973039627,0.8892632126808167,-0.5626866817474365,-0.018648050725460052,-2.0877199172973633,2.016737699508667,4.039905548095703,0.32141992449760437,-0.11230283230543137,0.10455689579248428,4.0583977699279785
216,22681,22678,0.028870796784758568,-0.01387547142803669,0.9110448360443115,0.10334456712007523,-2.2588741779327393,-1.6000826358795166,2.0174872875213623,4.040002346038818,0.3184144198894501,-0.21574020385742188,0.11913419514894485,4.041766166687012
217,22691,22688,0.007803041022270918,-0.09956882148981094,1.1071197986602783,-0.2897048592567444,-1.0946335792541504,-2.1942505836486816,2.0190510749816895,4.04000186920166,0.3185427784919739,-0.13912354409694672,0.12683287262916565,4.007662296295166
218,22701,22698,0.02763601392507553,-0.05122344195842743,0.9705994725227356,0.4533405005931854,-0.21459920704364777,-3.2818899154663086,2.0194437503814697,4.04028844833374,0.31874287128448486,-0.09936483204364777,0.21102206408977509,4.006221294403076
219,22711,22708,0.012108933180570602,0.026852624490857124,0.9102715253829956,-1.8091603517532349,-1.4135547876358032,-2.644998788833618,2.0204033851623535,4.039161682128906,0.3179875314235687,-0.12170998752117157,0.1984296441078186,3.9846582412719727
220,22721,22718,0.0001340576563961804,-0.014836033806204796,0.9469101428985596,-3.2401106357574463,-2.9852328300476074,-3.3299765586853027,2.021576166152954,4.040140151977539,0.31805017590522766,-0.043532274663448334,0.15780183672904968,3.970663547515869
221,22731,22728,0.008182071149349213,-0.03064029850065708,0.8854859471321106,-4.70664644241333,-3.527406692504883,-2.7579691410064697,2.0231263637542725,4.039858341217041,0.31806623935699463,-0.03681594133377075,0.020829102024435997,3.9118356704711914
222,22741,22738,-0.008226647041738033,0.0006540523027069867,0.9454020261764526,-3.7510204315185547,-4.264737606048584,-2.9363865852355957,2.0227344036102295,4.040442943572998,0.31542670726776123,-0.01654779724776745,-0.03804503008723259,3.883457899093628
223,22751,22748,0.05225915461778641,-0.04222778230905533,0.8897517919540405,-3.1095962524414062,-2.16510009765625,-3.030241012573242,2.023944616317749,4.039822578430176,0.31512001156806946,0.0572984553873539,-0.07896656543016434,3.8265645503997803
224,22761,22758,0.01360789593309164,0.04003986716270447,1.0314056873321533,-0.9255962371826172,-3.890486240386963,-2.619870662689209,2.0244805812835693,4.038928985595703,0.31479236483573914,0.004408617038279772,-0.022015415132045746,3.76434063911438
225,22771,22768,-0.029601125046610832,0.07776877284049988,0.9916231632232666,1.4297871589660645,-1.8821539878845215,-2.138840436935425,2.0262622833251953,4.038080215454102,0.312892884016037,0.00575711764395237,-0.0036552941892296076,3.7290470600128174
226,22781,22778,-0.017821205779910088,0.00324073014780879,0.962483286857605,2.4806110858917236,-1.366503119468689,-2.150482654571533,2.0270586013793945,4.037786960601807,0.3123457431793213,0.14179396629333496,0.03738122060894966,3.723606824874878
227,22791,22788,-0.02005097270011902,0.04384886100888252,1.0611430406570435,2.3715245723724365,0.288066565990448,-2.59568452835083,2.02707839012146,4.037930965423584,0.3119578957557678,0.03208265081048012,0.006617103237658739,3.7002077102661133
228,22801,22798,-0.012599356472492218,-0.0023947067093104124,1.0270802974700928,0.31768542528152466,1.6904875040054321,-3.0019285678863525,2.029254674911499,4.037827968597412,0.31134262681007385,-0.02079547382891178,0.03215532377362251,3.6550333499908447
229,22811,22808,0.007074085064232349,-0.04524190351366997,0.9736985564231873,-1.244160771369934,1.255122423171997,-3.065716505050659,2.0310745239257812,4.037692546844482,0.310190886259079,0.08277647942304611,0.03093012236058712,3.6129300594329834
230,22821,22818,-0.05074528232216835,4.923230517306365e-05,0.9667834043502808,-0.8424021005630493,-1.8279188871383667,-3.1181163787841797,2.0311782360076904,4.0380706787109375,0.30982840061187744,0.13796241581439972,-0.12507566809654236,3.594007730484009
231,22831,22828,-0.03428000584244728,-0.023332636803388596,0.9667454361915588,-1.347747802734375,-2.35366153717041,-2.827928066253662,2.031336545944214,4.039483070373535,0.30935147404670715,0.2753017842769623,-0.1191880851984024,3.5792810916900635
232,22841,22838,-0.008996293880045414,0.03263365104794502,0.9720853567123413,0.41314172744750977,-0.09186983108520508,-3.327268123626709,2.031456232070923,4.039247989654541,0.31233125925064087,0.2987630367279053,-0.10369905084371567,3.523810863494873
233,22851,22848,0.030474679544568062,0.0071845934726297855,1.0315985679626465,1.0874948501586914,0.5562906861305237,-2.2155601978302,2.0320801734924316,4.038660526275635,0.31203997135162354,0.08658149093389511,-0.07123202085494995,3.483696460723877
234,22861,22858,-0.05010918900370598,0.062108173966407776,0.9940382242202759,5.463994026184082,0.5731484293937683,-2.361152172088623,2.0350325107574463,4.039056301116943,0.311594694852829,0.19341400265693665,0.020688261836767197,3.4342451095581055
235,22871,22868,-0.039540845900774,0.034369051456451416,1.0188168287277222,3.901003122329712,4.798101425170898,-2.399322748184204,2.0353684425354004,4.038424015045166,0.3139127492904663,0.1724977195262909,0.11046357452869415,3.4208850860595703
236,22881,22878,-0.02603002078831196,0.0855979174375534,1.056514024734497,4.470012664794922,1.404090166091919,-3.14453387260437,2.036416530609131,4.037778854370117,0.3137371242046356,0.012218417599797249,0.11719005554914474,3.396430492401123
237,22891,22888,-0.04353957995772362,0.07421603798866272,0.9994056820869446,1.4401414394378662,1.2757844924926758,-2.939518690109253,2.038905143737793,4.0387139320373535,0.3134829103946686,0.010497302748262882,0.1554565131664276,3.3618574142456055
238,22901,22898,-0.09816820174455643,0.12486729770898819,0.9692789316177368,-0.8879995346069336,0.3418917953968048,-3.0758721828460693,2.0394392013549805,4.039000034332275,0.31351807713508606,0.09352846443653107,0.18054437637329102,3.3358564376831055
239,22911,22908,-0.05606939271092415,0.08079946041107178,1.0147396326065063,-1.3010907173156738,-2.215256690979004,-3.9558773040771484,2.0407581329345703,4.039758682250977,0.3107403516769409,0.04843415319919586,0.09012254327535629,3.2811920642852783
