,timestamp_start,timestamp_end,acc.x,acc.y,acc.z,gyro.x,gyro.y,gyro.z,stateEstimate.x,stateEstimate.y,stateEstimate.z,stabilizer.pitch,stabilizer.roll,stabilizer.yaw
0,27371,27370,0.016283540055155754,-0.03409992903470993,0.9833595156669617,6.586825847625732,13.0548677444458,-0.2403370887041092,1.8458552360534668,4.025460243225098,0.166368767619133,0.4202635586261749,0.642412006855011,1.9662331342697144
1,27381,27380,0.06024479866027832,-0.03913085535168648,0.9742823839187622,5.724726676940918,12.32690143585205,-0.7206623554229736,1.8469226360321045,4.026094913482666,0.16654691100120544,0.06468890607357025,0.739178478717804,1.9370301961898804
2,27391,27390,0.027683718129992485,-0.04552746191620827,0.9981405735015869,4.780361652374268,7.873769760131836,-0.21840226650238037,1.8459223508834839,4.027150630950928,0.1683918535709381,0.07949899882078171,0.8238347768783569,1.9458104372024536
3,27401,27400,0.04448145255446434,-0.02922889217734337,1.0480128526687622,2.7224631309509277,4.0813374519348145,-0.10726991295814514,1.8441016674041748,4.0254130363464355,0.17041301727294922,-0.15879665315151215,0.878896951675415,1.9238859415054321
4,27411,27410,-0.06565381586551666,-0.02566785179078579,1.0589735507965088,-0.36088627576828003,4.849630832672119,-0.28686705231666565,1.8433223962783813,4.02498722076416,0.17284426093101501,-0.24545320868492126,0.9701475501060486,1.9263697862625122
5,27421,27420,0.043791014701128006,0.05878004804253578,1.0207042694091797,-2.1401748657226562,3.981703996658325,0.3371591567993164,1.8423317670822144,4.0263543128967285,0.17482773959636688,-0.398776113986969,1.0062626600265503,1.9080253839492798
6,27431,27430,0.015520761720836163,0.03662676364183426,0.9615437984466553,-4.621275901794434,2.913679599761963,0.2988986670970917,1.8394179344177246,4.027470588684082,0.1768149435520172,-0.4555014371871948,0.9948626756668091,1.9090543985366821
7,27441,27440,0.01830861158668995,0.04266463965177536,1.0502971410751343,-4.772747039794922,1.2088829278945923,0.3252236247062683,1.839522123336792,4.0272345542907715,0.1785026341676712,-0.5584399700164795,1.0241963863372803,1.9073827266693115
8,27451,27450,0.007730701006948948,-0.049355946481227875,1.0062813758850098,-5.086452960968018,-0.4485348165035248,0.13336974382400513,1.8370592594146729,4.028023719787598,0.18036328256130219,-0.6231990456581116,1.1011056900024414,1.930649757385254
9,27461,27460,0.00352893746457994,-0.001349779893644154,1.037755012512207,-5.150740146636963,-1.9225555658340454,-0.379006952047348,1.8360278606414795,4.029860973358154,0.18243543803691864,-0.6535468101501465,1.0815790891647339,1.931990146636963
10,27471,27470,-0.016876546666026115,0.006572697311639786,1.0059940814971924,-6.587797164916992,-3.9086337089538574,0.018518928438425064,1.8362185955047607,4.031760215759277,0.1840142160654068,-0.6459063291549683,1.0479785203933716,1.931591510772705
11,27481,27480,-0.017325235530734062,-0.00047608569730073214,1.0307111740112305,-7.86624813079834,-5.4899983406066895,0.14070186018943787,1.8374321460723877,4.0371994972229,0.18669913709163666,-0.6057385206222534,0.40229541063308716,1.8393141031265259
12,27491,27490,0.04527846723794937,0.04012153297662735,1.014620065689087,-8.469561576843262,-6.5368218421936035,0.3284413814544678,1.8375493288040161,4.037998676300049,0.18878623843193054,-0.6094631552696228,0.3302276134490967,1.8304433822631836
13,27501,27500,-0.023883629590272903,-0.06779152899980545,1.0290762186050415,-4.942245960235596,-5.778057098388672,0.03155611827969551,1.8417720794677734,4.040313720703125,0.1906493455171585,-0.9540287256240845,0.17653033137321472,1.755306363105774
14,27511,27510,0.011121172457933426,-0.07209184020757675,0.9780663251876831,0.6128212213516235,-6.536679744720459,0.9592432975769043,1.84489107131958,4.040804862976074,0.1939154863357544,-1.0959645509719849,0.16332176327705383,1.7344105243682861
15,27521,27520,0.005978173576295376,0.027535289525985718,1.0440239906311035,6.197045803070068,-8.771774291992188,1.1898243427276611,1.8502284288406372,4.045079708099365,0.19331206381320953,-1.7761125564575195,-0.42686036229133606,1.5244256258010864
16,27531,27530,0.029558591544628143,0.03642287477850914,1.0078110694885254,12.097271919250488,-14.576383590698242,1.9551725387573242,1.8496092557907104,4.045840263366699,0.19731658697128296,-1.428507924079895,-0.3233550190925598,1.5805296897888184
17,27541,27540,0.017267417162656784,0.05037427321076393,1.0450383424758911,17.56759262084961,-22.785390853881836,1.8590378761291504,1.8494936227798462,4.04550838470459,0.20161834359169006,-1.1040575504302979,-0.06605173647403717,1.6554795503616333
18,27551,27550,0.01779036968946457,-0.05450861528515816,0.9651509523391724,21.490713119506836,-29.831825256347656,1.7698092460632324,1.846916913986206,4.0473222732543945,0.2049875408411026,-0.6030071973800659,0.32589036226272583,1.7697596549987793
19,27561,27560,-0.0007491577998735011,0.015770453959703445,1.043640375137329,21.918222427368164,-32.8041877746582,0.8716580867767334,1.8465369939804077,4.047165870666504,0.20742923021316528,-0.32742103934288025,0.5282869338989258,1.7853212356567383
20,27571,27570,0.021008173003792763,-0.020582405850291252,0.9886276125907898,15.858746528625488,-28.142139434814453,0.5172669887542725,1.8464590311050415,4.046287536621094,0.2099292129278183,0.0672343373298645,0.9455882906913757,1.8402634859085083
21,27581,27580,0.0331697091460228,-0.0591648705303669,0.9735793471336365,8.339546203613281,-20.5704345703125,-0.037353914231061935,1.8481605052947998,4.045231342315674,0.21229615807533264,0.2293509840965271,1.2440621852874756,1.8509546518325806
22,27591,27590,0.04174648970365524,-0.08530204743146896,0.923507571220398,-2.7251129150390625,-12.453853607177734,0.2589443624019623,1.847928762435913,4.044201850891113,0.21466967463493347,0.5093458294868469,1.3938255310058594,1.8580759763717651
23,27601,27600,-0.06577398627996445,0.11186814308166504,0.9551075100898743,-11.024560928344727,-6.742220878601074,0.20994852483272552,1.848608136177063,4.044211387634277,0.2172102928161621,0.6765636801719666,1.4448696374893188,1.8616101741790771
24,27611,27610,-0.013886767439544201,-0.11737559735774994,0.9602044224739075,-18.36776351928711,-0.5978145599365234,-0.31983035802841187,1.8485944271087646,4.044102668762207,0.21968749165534973,0.8696588277816772,1.3396828174591064,1.8723244667053223
25,27621,27620,0.029248591512441635,-0.05530508607625961,0.9629765748977661,-20.801881790161133,2.4261434078216553,-0.40222233533859253,1.8482495546340942,4.043729782104492,0.22195160388946533,1.0232468843460083,1.1166309118270874,1.8876264095306396
26,27631,27630,0.005468680988997221,0.009322545491158962,0.995098888874054,-19.674774169921875,3.277008295059204,-0.740165650844574,1.8485324382781982,4.0435380935668945,0.22415712475776672,1.0360456705093384,0.9359189867973328,1.8888641595840454
27,27641,27640,0.013066815212368965,0.08329293131828308,0.9595832824707031,-14.779841423034668,2.3035926818847656,-0.7995045185089111,1.8488719463348389,4.043611526489258,0.22556355595588684,1.0132085084915161,0.7047212719917297,1.884320855140686
28,27651,27650,0.013167881406843662,-0.04082862660288811,0.9525926113128662,-7.950460910797119,2.4166300296783447,-0.6219143271446228,1.8466382026672363,4.041099548339844,0.22751739621162415,1.286340594291687,0.8385656476020813,1.9205929040908813
29,27661,27660,0.038326554000377655,-0.04169418662786484,0.935086190700531,-1.1765896081924438,2.213303804397583,-0.9966875910758972,1.8477240800857544,4.04130220413208,0.2299729734659195,1.0958096981048584,0.6833546161651611,1.8902662992477417
30,27671,27670,0.012015772983431816,0.006424551829695702,0.9829422235488892,1.7903339862823486,2.980698585510254,-0.5461407899856567,1.8474689722061157,4.037791728973389,0.23180730640888214,1.072454810142517,0.994054913520813,1.8677839040756226
31,27681,27680,0.04217420145869255,0.06063639372587204,0.967430055141449,0.9409513473510742,3.2403526306152344,-0.5990030169487,1.8480963706970215,4.03810977935791,0.233832448720932,1.0260473489761353,1.0156100988388062,1.860425591468811
32,27691,27690,0.026808355003595352,0.0012002274161204696,0.9444319605827332,-3.3173575401306152,2.6117825508117676,-0.6183342933654785,1.847257375717163,4.0366926193237305,0.2358463555574417,0.9765084385871887,1.0180268287658691,1.8530502319335938
33,27701,27700,0.00965545978397131,0.026402682065963745,0.9644743800163269,-9.719738006591797,3.0173373222351074,-0.6111152768135071,1.84345543384552,4.036520004272461,0.23785383999347687,1.102895975112915,0.8875615000724792,1.8849016427993774
34,27711,27710,-0.04523541405797005,0.001248461427167058,0.9671118259429932,-14.920760154724121,2.3859455585479736,-0.6323109865188599,1.8425742387771606,4.035121917724609,0.23837602138519287,1.0446122884750366,0.8776147365570068,1.8675217628479004
35,27721,27720,-0.04047996923327446,-0.08075450360774994,0.9480242133140564,-21.291851043701172,7.4300642013549805,-0.09784048050642014,1.8417938947677612,4.033495903015137,0.2401798665523529,1.0963202714920044,0.680101752281189,1.8737841844558716
36,27731,27730,0.042391903698444366,-0.1791301816701889,0.931491494178772,-22.44761848449707,7.626333236694336,0.3919942378997803,1.843187689781189,4.031152725219727,0.24190141260623932,0.9551485180854797,0.6217730641365051,1.8651278018951416
37,27741,27740,0.02733660489320755,-0.16843801736831665,0.9723085165023804,-21.126367568969727,7.151792049407959,0.3673131465911865,1.8424592018127441,4.036067962646484,0.24318459630012512,0.7415439486503601,0.31296929717063904,1.8654967546463013
38,27751,27750,-0.05125020816922188,0.1337077021598816,0.9989154934883118,-18.265810012817383,7.006929397583008,1.294092059135437,1.8430163860321045,4.036815166473389,0.24483206868171692,0.6286429166793823,0.03449822589755058,1.871047019958496
39,27761,27760,-0.034461963921785355,-0.018878662958741188,0.9927380681037903,-14.24498176574707,5.779083251953125,0.8254457116127014,1.8416954278945923,4.036739826202393,0.2465105950832367,0.7428658604621887,-0.11303728818893433,1.8956446647644043
40,27771,27770,-0.0032364458311349154,-0.08427263051271439,0.9557151794433594,-8.817752838134766,3.5728206634521484,0.7887424230575562,1.8429253101348877,4.036064147949219,0.2494361251592636,0.6398088932037354,-0.2613659203052521,1.8999420404434204
41,27781,27780,0.009012163616716862,-0.013473967090249062,0.9459952712059021,-4.431399345397949,4.34443998336792,0.926528811454773,1.842267632484436,4.036369800567627,0.25116658210754395,0.564645528793335,-0.4012845456600189,1.90749990940094
42,27791,27790,-0.014724857173860073,0.03255832567811012,1.0000253915786743,-0.7430936098098755,3.0520713329315186,1.39578115940094,1.8408734798431396,4.035114765167236,0.2528594434261322,0.5608490109443665,-0.3993944525718689,1.9117960929870605
43,27801,27800,0.011664340272545815,-0.006853122729808092,0.9471467137336731,-0.2805393934249878,3.3325252532958984,1.5659068822860718,1.8420615196228027,4.036251068115234,0.25466716289520264,0.5580891966819763,-0.3540470004081726,1.927310824394226
44,27811,27810,0.03233755752444267,0.06215410679578781,0.9248298406600952,-0.5828278064727783,2.204397678375244,1.4393718242645264,1.8426750898361206,4.036075115203857,0.2574335038661957,0.481265664100647,-0.37079891562461853,1.9411592483520508
45,27821,27820,0.033032916486263275,-0.027907200157642365,0.9225404858589172,-3.6637327671051025,3.2228147983551025,0.8745267987251282,1.8427075147628784,4.035830020904541,0.2590446174144745,0.41693127155303955,-0.39898157119750977,1.9562221765518188
46,27831,27830,-0.00792780239135027,-0.016998913139104843,0.9636759161949158,-6.568462371826172,3.1130456924438477,0.6756814122200012,1.8427709341049194,4.036012172698975,0.2606334388256073,0.3505565822124481,-0.5414537787437439,1.97185480594635
47,27841,27840,-0.004907635971903801,0.005568655673414469,0.9780905246734619,-9.140536308288574,5.1989216804504395,0.7418210506439209,1.8402198553085327,4.035778522491455,0.2602550685405731,0.5668500065803528,-0.6433148980140686,1.974590539932251
48,27851,27850,0.008513372391462326,0.014593360014259815,0.990067720413208,-10.065528869628906,5.331686019897461,0.5230352282524109,1.8418277502059937,4.037922382354736,0.26169276237487793,0.4431605637073517,-0.7784174084663391,1.9885172843933105
49,27861,27860,-0.008994895033538342,-0.004999671597033739,0.9679508805274963,-8.781606674194336,5.310545921325684,1.0655323266983032,1.841335654258728,4.035998344421387,0.2630542516708374,0.3878314793109894,-0.7725025415420532,1.9889198541641235
50,27871,27870,0.021284395828843117,-0.0063987295143306255,0.9604105949401855,-5.45188045501709,6.5433502197265625,1.163236379623413,1.8408758640289307,4.035641670227051,0.26079511642456055,0.32452327013015747,-0.8946819305419922,1.997787356376648
51,27881,27880,0.0038482695817947388,0.0022764778696000576,0.9777977466583252,-2.383249282836914,7.740104675292969,1.2351930141448975,1.8399817943572998,4.036251068115234,0.26184704899787903,0.31907251477241516,-1.0292998552322388,2.005159378051758
52,27891,27890,-0.04992048814892769,0.056063130497932434,0.9960097670555115,1.6559849977493286,7.4678053855896,1.2191767692565918,1.839967966079712,4.035515308380127,0.26296621561050415,0.2246037721633911,-1.0251542329788208,2.0178070068359375
53,27901,27900,0.0013460837071761489,-0.0268979724496603,0.9464131593704224,2.96868634223938,6.667306900024414,1.3011010885238647,1.840760588645935,4.034653663635254,0.265350341796875,0.13280901312828064,-0.9655461311340332,2.0295794010162354
54,27911,27910,-0.0027237171307206154,0.007112695835530758,0.9460231065750122,4.075361251831055,5.590461730957031,1.04868483543396,1.8405622243881226,4.034985065460205,0.2664361298084259,0.05638550966978073,-0.960230827331543,2.041825771331787
55,27921,27920,0.000791648868471384,0.0400698259472847,1.005338191986084,4.2861328125,5.270115852355957,1.2054930925369263,1.8409556150436401,4.035174369812012,0.2674795389175415,-0.07709149271249771,-0.938896656036377,2.0600314140319824
56,27931,27930,0.002069977344945073,-0.011033548973500729,0.9958799481391907,3.306403160095215,4.843703269958496,0.9753428101539612,1.8402857780456543,4.035575866699219,0.2685118615627289,-0.043191857635974884,-0.9071473479270935,2.059296131134033
57,27941,27940,0.010500887408852577,0.017637236043810844,0.9952390789985657,2.329479932785034,3.576932430267334,0.09168543666601181,1.838562250137329,4.035804748535156,0.271067351102829,-0.01266306173056364,-0.8870387077331543,2.0576775074005127
58,27951,27950,-0.0025201814714819193,0.03397881239652634,0.9753488898277283,0.35859414935112,2.328496217727661,0.22183649241924286,1.836491346359253,4.035735130310059,0.27207520604133606,0.17485256493091583,-0.8101505637168884,2.030256509780884
59,27961,27960,-0.007557952310889959,0.0026838777121156454,0.9898048639297485,-0.5818948745727539,4.431302547454834,-0.03752285987138748,1.8367198705673218,4.035099983215332,0.27325913310050964,0.05541849136352539,-0.76396244764328,2.0442488193511963
60,27971,27970,-0.0601273849606514,0.1288793981075287,0.9773682355880737,-1.4457404613494873,6.256282806396484,-0.8651031255722046,1.8366661071777344,4.035211086273193,0.2728339433670044,-0.009712147526443005,-0.813795268535614,2.045304298400879
61,27981,27980,-0.027400266379117966,0.09113288670778275,0.9263176321983337,-1.9835193157196045,9.351521492004395,-0.8620765209197998,1.8357138633728027,4.035763740539551,0.27378103137016296,-0.03671422228217125,-0.8690267205238342,2.030693292617798
62,27991,27990,-0.025069328024983406,0.06080884113907814,0.9613192677497864,-1.1869763135910034,9.378630638122559,-0.6168932914733887,1.8362451791763306,4.037433624267578,0.274732381105423,-0.17756518721580505,-0.8500115275382996,2.030651092529297
63,28001,28000,-0.010582270100712776,0.021863790228962898,0.9963912963867188,0.8032081723213196,9.767162322998047,-0.6810951828956604,1.8376930952072144,4.037248611450195,0.27371516823768616,-0.25483864545822144,-0.8983206152915955,2.0180294513702393
64,28011,28010,-0.03142647445201874,-0.031195899471640587,0.9798499345779419,2.5229012966156006,8.963005065917969,-1.1713446378707886,1.8371447324752808,4.035524368286133,0.2744916081428528,-0.47028160095214844,-0.8308941125869751,2.027369499206543
65,28021,28020,-0.05831609293818474,-0.040152087807655334,0.9844897389411926,3.6205673217773438,9.026786804199219,-0.6392645239830017,1.835898995399475,4.036696434020996,0.2752509117126465,-0.6502938270568848,-0.8120913505554199,2.0278992652893066
66,28031,28030,-0.013204574584960938,0.044559355825185776,0.9757445454597473,3.3987367153167725,5.545175075531006,-0.6196710467338562,1.8361679315567017,4.03717565536499,0.2759571969509125,-0.8163663148880005,-0.8532518148422241,2.0231354236602783
67,28041,28040,0.000843966321554035,0.0579347126185894,1.0067901611328125,3.1663010120391846,1.0616240501403809,-0.5275105237960815,1.8339571952819824,4.036242961883545,0.27776676416397095,-0.701468288898468,-0.8147649765014648,1.9940992593765259
68,28051,28050,0.006656787823885679,0.0752449482679367,0.9642983078956604,2.792339563369751,-2.4272704124450684,0.0690465122461319,1.8328814506530762,4.0355916023254395,0.27853521704673767,-0.606972336769104,-0.7784819006919861,1.9739083051681519
69,28061,28060,0.051139913499355316,0.07459933310747147,0.9712874889373779,3.608886957168579,-4.604990005493164,0.41655150055885315,1.8323447704315186,4.03652811050415,0.27925926446914673,-0.544623613357544,-0.7422775626182556,1.9698975086212158
70,28071,28070,0.0626261979341507,0.016180433332920074,0.9754576086997986,4.135411262512207,-4.65638542175293,0.3845125436782837,1.8320993185043335,4.038074970245361,0.27892088890075684,-0.5358607172966003,-0.8438072800636292,1.9626997709274292
71,28081,28080,0.018800094723701477,-0.0714673176407814,0.953603982925415,4.567317485809326,-1.5508711338043213,0.769241213798523,1.8333920240402222,4.038398265838623,0.2796247601509094,-0.5982514023780823,-0.767232358455658,1.9856131076812744
72,28091,28090,0.004289336036890745,0.14790600538253784,1.0009746551513672,4.396864891052246,1.2852498292922974,0.7075902223587036,1.8338266611099243,4.039345741271973,0.2802720069885254,-0.6245943307876587,-0.6915730834007263,2.0032503604888916
73,28101,28100,-0.0037796904798597097,-0.043465856462717056,0.9725219011306763,5.55386209487915,2.5499267578125,0.945902943611145,1.8334665298461914,4.039102554321289,0.2819119393825531,-0.6155067682266235,-0.6129271984100342,2.0114352703094482
74,28111,28110,-0.01224400382488966,-0.12872475385665894,0.9651119112968445,5.152074813842773,4.9669189453125,0.465135782957077,1.8317368030548096,4.03938102722168,0.28253448009490967,-0.4824514091014862,-0.529690682888031,2.0045106410980225
75,28121,28120,-0.055928777903318405,-0.045895300805568695,0.9983649253845215,3.7206976413726807,4.417414665222168,0.14462484419345856,1.8318203687667847,4.039348602294922,0.2831590175628662,-0.6010177135467529,-0.4479382336139679,2.0219128131866455
76,28131,28130,0.02628438174724579,-0.05138595402240753,0.9987791776657104,1.9885519742965698,5.185390949249268,0.20691533386707306,1.8311231136322021,4.038549423217773,0.28371626138687134,-0.6293962001800537,-0.3906269371509552,2.0249764919281006
77,28141,28140,0.043391622602939606,-0.044110942631959915,1.013669729232788,0.5696805119514465,2.224242925643921,-0.1118907704949379,1.8317166566848755,4.038517951965332,0.28195130825042725,-0.7347890734672546,-0.3643907606601715,2.0356698036193848
78,28151,28150,0.007399925030767918,0.004253050312399864,1.0058300495147705,-0.6631205081939697,1.5563849210739136,-0.04304242134094238,1.8316196203231812,4.038858413696289,0.2824007570743561,-0.8059977889060974,-0.3639042377471924,2.038639545440674
79,28161,28160,0.03750127553939819,-0.050426606088876724,0.961733877658844,-0.8024162650108337,-0.16510009765625,-0.16603858768939972,1.8301879167556763,4.039647102355957,0.2828746438026428,-0.7013326287269592,-0.45371657609939575,2.016784429550171
80,28171,28170,-0.03336314484477043,0.008218902163207531,1.0282816886901855,0.5289480090141296,-2.466564416885376,-0.4307749569416046,1.8302700519561768,4.039344310760498,0.28356030583381653,-0.7269526720046997,-0.4573753774166107,2.017745018005371
81,28181,28180,0.022986609488725662,-0.04641805589199066,0.973298966884613,3.6438724994659424,-2.440077304840088,-0.14359615743160248,1.8288475275039673,4.037961959838867,0.2840377390384674,-0.7317864894866943,-0.43658730387687683,2.0179483890533447
82,28191,28190,0.012347521260380745,0.019986404106020927,1.0320320129394531,5.766916275024414,-1.616197109222412,-0.20179392397403717,1.827422022819519,4.0393500328063965,0.2844890356063843,-0.73298180103302,-0.36837923526763916,2.0223915576934814
83,28201,28200,0.01834365911781788,0.014866696670651436,1.0423667430877686,7.014065265655518,-1.5434064865112305,-0.40145576000213623,1.8275636434555054,4.039628028869629,0.28461700677871704,-0.7290551066398621,-0.3442728817462921,2.0169284343719482
84,28211,28210,-0.017271339893341064,-0.03470887616276741,0.9967620968818665,6.384242534637451,-1.253998875617981,-0.4581488072872162,1.828041911125183,4.039054870605469,0.28512606024742126,-0.8129287958145142,-0.2278198003768921,2.027003288269043
85,28221,28220,-0.05859842151403427,0.04899346083402634,0.9973174333572388,4.914097785949707,-0.8404005169868469,-0.6965222358703613,1.826581358909607,4.038203239440918,0.2856522798538208,-0.6541945934295654,-0.12429896742105484,2.0202064514160156
86,28231,28230,-0.01849222742021084,0.11279846727848053,0.9712895154953003,2.483689308166504,0.2267969250679016,-0.17076432704925537,1.8274860382080078,4.039878845214844,0.2862117886543274,-0.8200423121452332,-0.20235523581504822,1.9999802112579346
87,28241,28240,0.02835717238485813,-0.011493314988911152,1.0101016759872437,0.34260931611061096,-0.6477087736129761,-0.0965024009346962,1.827787160873413,4.039798259735107,0.2867051661014557,-0.8298002481460571,-0.15866930782794952,1.9997142553329468
88,28251,28250,0.01656128466129303,-0.02462710626423359,0.984950840473175,-0.38318875432014465,-2.0437161922454834,-0.2878651022911072,1.8274255990982056,4.039662837982178,0.2871544361114502,-0.8143277168273926,-0.14845368266105652,1.9986217021942139
89,28261,28260,0.019353633746504784,-0.1473618447780609,0.9876564741134644,0.17911303043365479,-0.08217775076627731,-0.47720861434936523,1.8276575803756714,4.040568828582764,0.2876616418361664,-0.7916222214698792,-0.1451166570186615,1.9968534708023071
90,28271,28270,-0.04393241927027702,-0.13895240426063538,1.0619539022445679,1.6413490772247314,4.3427510261535645,-0.8744502663612366,1.8281325101852417,4.041290283203125,0.28582441806793213,-0.8057762980461121,-0.12856489419937134,1.9957365989685059
91,28281,28280,0.00588722201064229,-0.18504779040813446,0.9774163365364075,2.3755578994750977,10.387537002563477,-0.9787200093269348,1.8278602361679077,4.040868759155273,0.2862128019332886,-0.8220055103302002,-0.08760235458612442,1.9893383979797363
92,28291,28290,-0.01945958100259304,-0.02965897135436535,1.0185139179229736,2.5537538528442383,15.56776237487793,-1.2742185592651367,1.8296233415603638,4.042963981628418,0.2865873873233795,-1.0164930820465088,-0.11458424478769302,1.9734376668930054
93,28301,28300,0.10957469791173935,0.006316705606877804,0.9627698659896851,2.9947996139526367,15.91440486907959,-1.318301796913147,1.8308032751083374,4.0439910888671875,0.28907454013824463,-1.2012934684753418,-0.05827696621417999,1.9662593603134155
94,28311,28310,-0.06327982991933823,-0.024455741047859192,1.068947196006775,1.8770018815994263,14.935891151428223,-0.7960584759712219,1.830838918685913,4.045550346374512,0.2895108759403229,-1.4412211179733276,-0.008321145549416542,1.9574253559112549
95,28321,28320,0.01539656426757574,-0.12093862146139145,1.0111103057861328,0.758507251739502,9.594724655151367,-0.9555546641349792,1.8314857482910156,4.046407699584961,0.2900596857070923,-1.5679148435592651,0.02436749078333378,1.951035499572754
96,28331,28330,0.023592408746480942,-0.06769472360610962,1.0001548528671265,0.39797359704971313,2.729431390762329,-0.748530387878418,1.8319718837738037,4.046990394592285,0.2913801372051239,-1.6755621433258057,0.042001351714134216,1.9431548118591309
97,28341,28340,-0.004942768253386021,-0.01576436124742031,0.9999074935913086,-0.6725940108299255,-3.0723164081573486,-0.9634994864463806,1.831963300704956,4.046715259552002,0.29202699661254883,-1.661658763885498,0.04341671243309975,1.9362989664077759
98,28351,28350,-0.010799788869917393,0.03709475323557854,1.006874918937683,-0.03496019169688225,-7.9369425773620605,-0.5453479290008545,1.8314766883850098,4.046817302703857,0.2927010655403137,-1.5550249814987183,0.03663325309753418,1.9284436702728271
99,28361,28360,-0.03811737522482872,0.07280964404344559,1.0357794761657715,0.4008074104785919,-8.295878410339355,-0.8021597266197205,1.8306533098220825,4.047101974487305,0.29338300228118896,-1.39004385471344,0.040495820343494415,1.924831748008728
100,28371,28370,-0.0286385640501976,-0.024323921650648117,0.9979003071784973,0.21117793023586273,-6.6830735206604,-1.3407701253890991,1.8308745622634888,4.0476579666137695,0.29316139221191406,-1.2936433553695679,-0.022889122366905212,1.9032102823257446
101,28381,28380,-0.0032933957409113646,0.012869199737906456,1.0284358263015747,0.1001489982008934,-2.400200366973877,-0.9554369449615479,1.8304164409637451,4.046902179718018,0.29378411173820496,-1.1787643432617188,-0.004814079962670803,1.8943129777908325
102,28391,28390,0.012036631815135479,0.010912253521382809,1.0035899877548218,0.8902345299720764,2.577512741088867,-1.3373463153839111,1.8312183618545532,4.047216415405273,0.2943960726261139,-1.2269132137298584,0.008414873853325844,1.8837400674819946
103,28401,28400,-0.008129614405333996,0.024764077737927437,0.9782461524009705,-0.2079298496246338,6.672924995422363,-1.1160484552383423,1.8325729370117188,4.045977592468262,0.2959118187427521,-1.3423992395401,0.09728369116783142,1.8849835395812988
104,28411,28410,0.041991058737039566,-0.08131902664899826,0.9508669376373291,-0.13036561012268066,8.47938060760498,-1.2010984420776367,1.833876371383667,4.0460004806518555,0.29659199714660645,-1.43096923828125,0.09272611886262894,1.8732306957244873
105,28421,28420,-0.024587290361523628,0.003996008541435003,1.0184768438339233,-1.0786381959915161,6.469642639160156,-1.708030104637146,1.834399700164795,4.046710014343262,0.29721522331237793,-1.5252209901809692,0.08394302427768707,1.8589560985565186
106,28431,28430,0.025418728590011597,-0.028110936284065247,0.9718030095100403,-1.567408561706543,4.269227981567383,-1.860058069229126,1.8348021507263184,4.046722888946533,0.2975105345249176,-1.5798914432525635,0.0625048577785492,1.8403226137161255
107,28441,28440,0.01273258961737156,-0.13033825159072876,1.0209670066833496,-1.6144154071807861,0.3716716170310974,-2.208320379257202,1.8354346752166748,4.046273231506348,0.29817020893096924,-1.5643314123153687,0.03701134771108627,1.8221746683120728
108,28451,28450,0.008800873532891273,-0.15383395552635193,0.99741530418396,-1.6482644081115723,-2.5796473026275635,-2.903712749481201,1.8366960287094116,4.045996189117432,0.29868724942207336,-1.6437692642211914,0.011946616694331169,1.7951310873031616
109,28461,28460,0.01876228302717209,-0.03379615768790245,0.9993119239807129,-0.2310875654220581,-3.9102425575256348,-3.2519052028656006,1.8370167016983032,4.04642391204834,0.29950255155563354,-1.6045348644256592,-0.0018508690409362316,1.7694697380065918
110,28471,28470,-0.015291363000869751,0.034595590084791183,1.023382306098938,0.6175264120101929,-6.249994277954102,-2.9445130825042725,1.8362928628921509,4.046377658843994,0.3002825081348419,-1.3852946758270264,0.000501857663039118,1.7464386224746704
111,28481,28480,0.08647418022155762,0.017706895247101784,0.9203351140022278,1.692171573638916,-5.422913074493408,-2.861245632171631,1.837271809577942,4.046088218688965,0.30088508129119873,-1.4159871339797974,0.015666155144572258,1.7149461507797241
112,28491,28490,-0.010487795807421207,0.009558464400470257,1.0085859298706055,1.7089180946350098,-3.96329665184021,-3.0450403690338135,1.8393607139587402,4.0467305183410645,0.3013625144958496,-1.508489727973938,0.0456746369600296,1.683117151260376
113,28501,28500,-0.03227844834327698,0.019419778138399124,1.019997477531433,2.273871421813965,-4.02382230758667,-2.735847234725952,1.8393474817276,4.047531604766846,0.30192264914512634,-1.3619552850723267,0.07579425722360611,1.6586252450942993
114,28511,28510,0.005965187679976225,-0.06064971163868904,0.9836091995239258,0.29147690534591675,-2.8956611156463623,-2.7824411392211914,1.8407351970672607,4.047947406768799,0.30242884159088135,-1.414817214012146,0.09422434866428375,1.6288148164749146
115,28521,28520,-0.025405459105968475,-0.0869455635547638,1.0049768686294556,-0.6405181884765625,-2.7857205867767334,-2.380213499069214,1.8421010971069336,4.0487494468688965,0.3030516803264618,-1.3684083223342896,0.0958927795290947,1.6058522462844849
116,28531,28530,-0.04395236819982529,-0.008130445145070553,1.0206358432769775,-1.6596016883850098,-3.8095650672912598,-2.1752982139587402,1.8424519300460815,4.048555374145508,0.3033751845359802,-1.3821382522583008,0.08556743711233139,1.5766607522964478
117,28541,28540,-0.07290811091661453,0.0031325737945735455,1.0025594234466553,-1.8738672733306885,-5.015693187713623,-2.111109495162964,1.841769814491272,4.050406455993652,0.30395638942718506,-1.3097652196884155,0.0604919008910656,1.552643060684204
118,28551,28550,-0.016785936430096626,-0.06067328527569771,0.9594707489013672,-1.5428466796875,-5.4875168800354,-1.523247480392456,1.841083288192749,4.049022674560547,0.3045623302459717,-1.2203642129898071,0.03051891177892685,1.529395580291748
119,28561,28560,0.05436132103204727,-0.11283013224601746,0.9572040438652039,-1.0426523685455322,-6.455288410186768,-1.9985706806182861,1.8443468809127808,4.049172878265381,0.30396726727485657,-1.3475466966629028,0.009330482222139835,1.5038726329803467
120,28571,28570,-0.012988835573196411,0.055025290697813034,1.00711989402771,0.032590895891189575,-6.636373043060303,-1.6172516345977783,1.8456107378005981,4.050315856933594,0.30444228649139404,-1.275261402130127,0.0019899026956409216,1.4875849485397339
121,28581,28580,-0.010926870629191399,0.008349339477717876,0.9956157207489014,0.7084364295005798,-8.531232833862305,-1.7856426239013672,1.8457368612289429,4.050446033477783,0.304991751909256,-1.1189900636672974,0.009201068431138992,1.4764660596847534
122,28591,28590,0.017962409183382988,-0.04041527211666107,0.9618954062461853,1.6052595376968384,-9.479063034057617,-2.034252643585205,1.8483797311782837,4.050386428833008,0.30559009313583374,-0.9527096152305603,0.10076585412025452,1.4751814603805542
123,28601,28600,0.0005552489310503006,-0.00372183951549232,1.0148214101791382,2.3724381923675537,-9.816946983337402,-2.315561532974243,1.8507030010223389,4.0508317947387695,0.30747851729393005,-0.992967963218689,0.13107779622077942,1.4506826400756836
124,28611,28610,0.005808447487652302,0.010921861976385117,1.015861988067627,1.3356016874313354,-8.122010231018066,-2.17919921875,1.8513942956924438,4.053578853607178,0.30821651220321655,-0.7221715450286865,0.08821602910757065,1.429636836051941
125,28621,28620,0.014658800326287746,-0.021234523504972458,0.9761157631874084,-0.03390771895647049,-6.255418300628662,-2.90966796875,1.8535798788070679,4.0545854568481445,0.3087314963340759,-0.728508710861206,0.10495355725288391,1.4048385620117188
126,28631,28630,0.0357537567615509,-0.08256247639656067,0.9701974987983704,-2.521350622177124,-3.2968926429748535,-2.2867648601531982,1.8541337251663208,4.054529190063477,0.3095148503780365,-0.7044663429260254,0.08115695416927338,1.3723746538162231
127,28641,28640,0.00028818316059187055,-0.049670733511447906,0.9632531404495239,-1.8866673707962036,-3.2616677284240723,-2.73684024810791,1.8565834760665894,4.05723762512207,0.310058057308197,-0.6995160579681396,0.0358802005648613,1.3548909425735474
128,28651,28650,-0.002825698582455516,0.00035191065398976207,0.9845771193504333,-1.6662389039993286,-3.1775434017181396,-2.7573115825653076,1.8574146032333374,4.0550217628479,0.3104653060436249,-0.7599385976791382,0.08460166305303574,1.333046793937683
129,28661,28660,0.006279474589973688,0.012364109046757221,0.9857334494590759,-0.7323402166366577,-4.080483913421631,-2.253840446472168,1.8574432134628296,4.055741786956787,0.3100893497467041,-0.5805612206459045,0.05770867317914963,1.3109780550003052
130,28671,28670,-0.008099136874079704,-0.013386309146881104,0.9967624545097351,-0.5471015572547913,-5.768090724945068,-2.4815499782562256,1.8583341836929321,4.05813455581665,0.31067490577697754,-0.3904683589935303,0.04020475596189499,1.300560712814331
131,28681,28680,0.010626976378262043,-0.17640212178230286,1.0063047409057617,0.6997445821762085,-6.4133992195129395,-2.599353313446045,1.8599451780319214,4.058535099029541,0.3110826015472412,-0.4338143765926361,0.03330511599779129,1.2740179300308228
132,28691,28690,-0.00965973362326622,-0.0023275280836969614,1.0154727697372437,-0.7754210829734802,-5.176275253295898,-2.2256762981414795,1.861846685409546,4.059487342834473,0.31151333451271057,-0.38519760966300964,0.03436485677957535,1.2552558183670044
133,28701,28700,-0.011516827158629894,-0.09932847321033478,0.9999041557312012,0.4208608865737915,-5.33002233505249,-2.4583921432495117,1.8644311428070068,4.060270309448242,0.30959352850914,-0.5628735423088074,0.025036655366420746,1.2286392450332642
134,28711,28710,0.011900153011083603,-0.1331215351819992,0.9386847019195557,0.4276803135871887,-4.021627426147461,-2.251094341278076,1.867464542388916,4.06137752532959,0.3098021149635315,-0.5908478498458862,0.03194058686494827,1.2093818187713623
135,28721,28720,-0.002984949853271246,-0.053486134856939316,0.9734984040260315,0.5491941571235657,-5.781064033508301,-2.506509304046631,1.8663969039916992,4.060882568359375,0.3104638457298279,-0.29551634192466736,0.11060040444135666,1.1973903179168701
136,28731,28730,0.0020873593166470528,-0.008341031149029732,0.9714382290840149,1.1456204652786255,-7.11331844329834,-2.467257022857666,1.8687479496002197,4.060700416564941,0.30919593572616577,-0.30023565888404846,0.11344176530838013,1.1691391468048096
137,28741,28740,0.006955674383789301,-0.03191271796822548,0.9719333052635193,0.9113247990608215,-6.900890827178955,-2.102827787399292,1.8681529760360718,4.060976505279541,0.3094858229160309,-0.0587710402905941,0.12376336753368378,1.1484055519104004
138,28751,28750,-0.0044942996464669704,0.00138564791996032,1.0050122737884521,-0.6319259405136108,-6.81995153427124,-2.3223512172698975,1.8691295385360718,4.061769962310791,0.3096448481082916,0.010590548627078533,0.12172438204288483,1.1345746517181396
139,28761,28760,0.020687375217676163,-0.014228537678718567,0.9780700206756592,-2.339050054550171,-5.2118940353393555,-2.3757998943328857,1.8721163272857666,4.0626091957092285,0.3080558180809021,-0.08198748528957367,0.09488832950592041,1.1069785356521606
140,28771,28770,0.009182206355035305,-0.034380726516246796,0.9837038516998291,-3.398608922958374,-2.8775393962860107,-1.9328352212905884,1.872779369354248,4.063126087188721,0.3081033527851105,0.03579717129468918,0.044317472726106644,1.0884952545166016
141,28781,28780,-0.00012443495506886393,-0.020961878821253777,0.9930070638656616,-3.7546935081481934,-1.5660369396209717,-2.0319809913635254,1.8737369775772095,4.0629048347473145,0.30816638469696045,0.11281730979681015,0.05465569347143173,1.069850206375122
142,28791,28790,-0.030730506405234337,-0.015534713864326477,0.9793978333473206,-3.6584908962249756,-0.9941021800041199,-2.2179388999938965,1.8772410154342651,4.06190824508667,0.30735859274864197,-0.05362207815051079,0.060031671077013016,1.042682409286499
143,28801,28800,0.0063946424052119255,0.0017650643130764365,0.9944627285003662,-2.4361319541931152,0.6471160650253296,-1.8578205108642578,1.877507209777832,4.0632429122924805,0.3074278235435486,0.07623231410980225,-0.009520730935037136,1.0370882749557495
144,28811,28810,0.01494616735726595,-0.04689129441976547,0.9796571731567383,-1.5826385021209717,-0.0032971547916531563,-1.7829651832580566,1.880818247795105,4.062727451324463,0.3072409927845001,-0.04377862066030502,-0.055362164974212646,1.0049628019332886
145,28821,28820,-0.022888315841555595,0.1309787780046463,1.0249073505401611,-0.9239016771316528,-0.4759272634983063,-1.6466795206069946,1.8802579641342163,4.062655925750732,0.3073309063911438,0.0709652453660965,-0.08730439096689224,0.9878072738647461
146,28831,28830,0.02365422435104847,0.005433260928839445,0.9953231811523438,0.4560699164867401,-2.822577476501465,-1.647857666015625,1.8817453384399414,4.062525272369385,0.3071935176849365,0.12351685762405396,-0.10081654042005539,0.971170961856842
147,28841,28840,-0.008442645892500877,0.045644573867321014,1.0033527612686157,1.2825599908828735,-3.5677876472473145,-1.14667809009552,1.8836957216262817,4.062577724456787,0.3070192039012909,0.044779032468795776,-0.09595437347888947,0.9531509280204773
148,28851,28850,0.015048859640955925,0.1332159787416458,0.9745141863822937,1.862992286682129,-4.097102165222168,-1.3362314701080322,1.88320791721344,4.061103343963623,0.30707868933677673,0.20681212842464447,-0.0012025623582303524,0.936246931552887
149,28861,28860,-0.015070464462041855,0.05918032303452492,1.052040934562683,2.286309003829956,-3.161604404449463,-0.348859578371048,1.884196162223816,4.062022686004639,0.3101663291454315,0.2983550727367401,0.02304583229124546,0.9310275316238403
150,28871,28870,0.02673112042248249,-0.00038214930100366473,0.9739605784416199,0.8225089311599731,-1.2449673414230347,-0.2534272372722626,1.886854648590088,4.062259674072266,0.31018969416618347,0.06387417763471603,-0.03320813551545143,0.9300318956375122
151,28881,28880,0.004890932235866785,-0.049200475215911865,1.0406776666641235,-0.45314955711364746,-0.38891175389289856,-0.6932488083839417,1.8869391679763794,4.062861442565918,0.3105241358280182,0.22050175070762634,-0.09931786358356476,0.9362570643424988
152,28891,28890,-0.0032533700577914715,-0.040015190839767456,1.0050945281982422,-1.5913530588150024,1.6535815000534058,-0.13266080617904663,1.889163851737976,4.063807487487793,0.3114355802536011,0.17488659918308258,-0.11364728212356567,0.9376692175865173
153,28901,28900,0.017530320212244987,-0.03565153107047081,1.000922679901123,-1.4415029287338257,1.0162739753723145,0.06384239345788956,1.8882098197937012,4.06577205657959,0.311694860458374,0.11517821997404099,-0.059509746730327606,0.9634154438972473
154,28911,28910,-0.003727804636582732,0.0183306485414505,1.0377322435379028,0.19805318117141724,-0.1324952244758606,0.40819522738456726,1.888685703277588,4.065834045410156,0.3120725750923157,0.21187342703342438,-0.08137137442827225,0.9657059907913208
155,28921,28920,0.009355979971587658,-0.031667567789554596,0.9938047528266907,0.26932862401008606,-1.0862696170806885,0.2120439112186432,1.889198660850525,4.065393924713135,0.31235674023628235,0.2471834123134613,-0.08163908123970032,0.9695271849632263
156,28931,28930,0.0025612404569983482,-0.014117934741079807,1.010701298713684,1.0472745895385742,-1.5569043159484863,0.5115852355957031,1.8909612894058228,4.066184043884277,0.31209102272987366,0.14785610139369965,-0.07501491904258728,0.983187198638916
157,28941,28940,0.00995248556137085,-0.0015653660520911217,1.0179468393325806,1.2537821531295776,-2.785277843475342,0.2818310856819153,1.8913933038711548,4.066252708435059,0.3123936057090759,0.21834498643875122,-0.05888902023434639,0.9880374073982239
158,28951,28950,-0.005050065461546183,-0.02230929583311081,0.9974695444107056,1.102512240409851,-3.3167734146118164,0.18975497782230377,1.8904354572296143,4.066334247589111,0.3128909170627594,0.37667933106422424,0.029632531106472015,0.9956437945365906
159,28961,28960,-0.018079848960042,-0.009892882779240608,1.0099996328353882,0.19340956211090088,-3.1412014961242676,0.5733699798583984,1.89308762550354,4.065784931182861,0.31077513098716736,0.29904860258102417,0.03389289975166321,0.9894558191299438
160,28971,28970,0.045659229159355164,-0.022779496386647224,0.9762060642242432,-1.1707868576049805,-1.3776142597198486,0.43621984124183655,1.8945428133010864,4.065812587738037,0.3108847737312317,0.2821369469165802,0.02342398092150688,0.9931660294532776
161,28981,28980,-0.05860069394111633,0.04764383286237717,1.012439489364624,-2.4851150512695312,0.4467596113681793,0.3204871416091919,1.8966132402420044,4.0654520988464355,0.31102174520492554,0.2602579891681671,-0.0094872135668993,0.9917998909950256
162,28991,28990,0.02795986458659172,-0.0074874600395560265,0.971143364906311,-2.789973735809326,3.597050666809082,-0.23584476113319397,1.8974038362503052,4.06544828414917,0.3100445568561554,0.21354787051677704,-0.05724651366472244,0.998821496963501
163,29001,29000,0.05446610599756241,-0.01390762161463499,0.9732855558395386,-2.126847505569458,1.0214885473251343,0.1385914534330368,1.899371862411499,4.0664191246032715,0.31016603112220764,0.22514431178569794,-0.10041070729494095,1.0139776468276978
164,29011,29010,-0.017290083691477776,-0.010358684696257114,1.0037142038345337,-0.38452237844467163,-0.6924229860305786,-0.38324037194252014,1.9006903171539307,4.066265106201172,0.31024616956710815,0.25221163034439087,-0.1322607547044754,1.0168559551239014
165,29021,29020,0.009419037029147148,-0.03356817364692688,0.9929379224777222,1.4964479207992554,-0.6059206128120422,-0.6033744215965271,1.900012493133545,4.066126823425293,0.31049808859825134,0.3657197952270508,-0.051591191440820694,1.0209999084472656
166,29031,29030,0.038839757442474365,0.004973937291651964,0.98134446144104,3.6870133876800537,-1.364591121673584,-0.48908206820487976,1.8999863862991333,4.066618919372559,0.3115033507347107,0.4793792963027954,-0.0900816097855568,1.0223424434661865
167,29041,29040,0.02731984481215477,-0.048894260078668594,1.011346697807312,4.050806999206543,-1.477245569229126,-0.35746628046035767,1.9025214910507202,4.0667266845703125,0.3115733563899994,0.34802114963531494,-0.029651237651705742,1.0146427154541016
168,29051,29050,-0.020971303805708885,-0.020622659474611282,1.0216492414474487,3.1748335361480713,-0.3671201467514038,-0.17555248737335205,1.9020806550979614,4.066951274871826,0.3118075132369995,0.45961183309555054,0.03169700503349304,1.0197272300720215
169,29061,29060,0.07179002463817596,-0.09435854852199554,0.995537281036377,1.6675081253051758,2.945143938064575,-0.261405348777771,1.9020088911056519,4.068387985229492,0.31057602167129517,0.44177502393722534,0.06805407255887985,1.0398478507995605
170,29071,29070,0.005230954848229885,-0.05237331613898277,1.0288013219833374,0.369000107049942,2.1036288738250732,-0.35325250029563904,1.9029232263565063,4.068949222564697,0.3106473684310913,0.41414010524749756,0.08397555351257324,1.0508251190185547
171,29081,29080,0.08439525961875916,-0.11125656217336655,0.9962356090545654,-1.2052656412124634,3.2505850791931152,-0.5318542718887329,1.9042654037475586,4.069964408874512,0.31079211831092834,0.4384414851665497,0.07075943052768707,1.055067539215088
172,29091,29090,0.02240770310163498,-0.18667103350162506,0.9979667663574219,-2.446866989135742,4.289013862609863,-0.553855836391449,1.9061925411224365,4.069765567779541,0.31088513135910034,0.2979642152786255,0.033987462520599365,1.0520648956298828
173,29101,29100,0.036861248314380646,-0.06411270797252655,0.9928335547447205,-2.943089246749878,5.180398464202881,-0.7877711653709412,1.9073656797409058,4.069739818572998,0.31093958020210266,0.2374018132686615,0.058446165174245834,1.0455119609832764
174,29111,29110,-0.014775484800338745,-0.023796191439032555,0.9968708753585815,-2.633070468902588,4.107354164123535,-0.923660397529602,1.9093378782272339,4.069143772125244,0.311021625995636,0.17560657858848572,0.0010671463096514344,1.0240976810455322
175,29121,29120,0.011383946053683758,-0.016145974397659302,1.0039528608322144,-1.3890420198440552,3.2411811351776123,-0.47690489888191223,1.9098072052001953,4.070137977600098,0.31119677424430847,0.20179161429405212,-0.039828017354011536,1.033725619316101
176,29131,29130,-0.00442762766033411,0.00928966049104929,1.027637004852295,-0.4052852988243103,1.931569218635559,-0.3865322768688202,1.911167025566101,4.070566177368164,0.3118587136268616,0.08293907344341278,-0.06511470675468445,1.036749243736267
177,29141,29140,0.02487999014556408,0.0325845442712307,1.0317213535308838,0.4515586495399475,0.14252245426177979,-0.7453004121780396,1.9111385345458984,4.072208404541016,0.31219854950904846,0.15265512466430664,-0.07145120948553085,1.0642962455749512
178,29151,29150,-0.002134280279278755,-0.02078177034854889,1.0039620399475098,0.7405520081520081,-0.9080427885055542,-1.0277155637741089,1.911686897277832,4.070695877075195,0.31234633922576904,0.17045877873897552,0.013427005149424076,1.0340932607650757
179,29161,29160,0.0370200090110302,-0.06511154025793076,1.0509347915649414,1.1802970170974731,-1.3737695217132568,-1.2098642587661743,1.912968397140503,4.070938587188721,0.312799334526062,0.20103341341018677,0.015385368838906288,1.0371078252792358
180,29171,29170,0.03625334054231644,-0.05768940970301628,0.9967339038848877,1.2333897352218628,-0.6937539577484131,-1.2522051334381104,1.912867546081543,4.070174694061279,0.3130507171154022,0.227911576628685,0.02763882651925087,1.019219160079956
181,29181,29180,-0.0001749169605318457,-0.023346329107880592,1.0048770904541016,0.7631219625473022,1.2865002155303955,-1.135359525680542,1.9136136770248413,4.070268630981445,0.3133164048194885,0.2309165894985199,0.03420415148139,1.01106595993042
182,29191,29190,-0.002767968224361539,0.007168362848460674,1.0138089656829834,-0.46963557600975037,3.682819366455078,-1.0373564958572388,1.9130501747131348,4.069822788238525,0.31353995203971863,0.2751357853412628,0.028309591114521027,1.0006563663482666
183,29201,29200,0.02707459218800068,-0.03297654539346695,0.9900155663490295,-1.689058542251587,5.700259208679199,-1.2137733697891235,1.9134511947631836,4.070014953613281,0.3138265013694763,0.26607614755630493,0.0062891580164432526,0.9896795153617859
184,29211,29210,-0.008210704661905766,0.011328710243105888,1.0113377571105957,-1.9329793453216553,7.221755027770996,-1.2019857168197632,1.914344072341919,4.069828510284424,0.314171701669693,0.22745126485824585,-0.03091663308441639,0.9792801141738892
185,29221,29220,0.019633490592241287,-0.04830503463745117,0.9634285569190979,-1.3865940570831299,7.604211330413818,-1.4856764078140259,1.9163776636123657,4.070276737213135,0.31494438648223877,0.019753433763980865,-0.06428716331720352,0.9641720652580261
186,29231,29230,-0.01788719743490219,0.009485006332397461,1.0215504169464111,-0.3679182827472687,9.381710052490234,-1.323691725730896,1.916351079940796,4.069171905517578,0.31531259417533875,0.03511999920010567,-0.007103997282683849,0.9443944096565247
187,29241,29240,0.03541339188814163,-0.013120568357408047,0.980783998966217,0.7919279336929321,5.4699625968933105,-1.1680271625518799,1.917742133140564,4.069774627685547,0.3155806362628937,-0.11056133359670639,-0.01915748231112957,0.9424968957901001
188,29251,29250,0.033880919218063354,0.016760017722845078,1.0091569423675537,0.023570837453007698,3.09852933883667,-1.014710783958435,1.9179905652999878,4.069324493408203,0.315982848405838,-0.11866778135299683,-0.019295651465654373,0.918013334274292
189,29261,29260,-0.013390048407018185,-0.010924370028078556,0.9988527297973633,-0.43409404158592224,0.8528159260749817,-0.3410355746746063,1.9194785356521606,4.0688066482543945,0.31509894132614136,-0.2342010885477066,-0.02599727362394333,0.9242820739746094
190,29271,29270,0.07006748020648956,-0.11364195495843887,0.9741272330284119,-0.8860039710998535,0.7085508108139038,-0.2854333519935608,1.9184716939926147,4.069303035736084,0.31538084149360657,-0.1865813285112381,-0.04394260421395302,0.9207105040550232
191,29281,29280,0.06247281655669212,-0.0369802750647068,0.9814578890800476,-1.0779259204864502,-2.135300636291504,-0.4891681969165802,1.919622540473938,4.069723129272461,0.31553253531455994,-0.24410273134708405,-0.06636408716440201,0.9310035109519958
192,29291,29290,-0.028090164065361023,-0.0017306985100731254,1.008357048034668,-1.387834072113037,-2.308788537979126,-0.38360705971717834,1.9194780588150024,4.069797992706299,0.31630584597587585,-0.12243029475212097,-0.0851714164018631,0.9289069771766663
193,29301,29300,0.002658491488546133,-0.05965784564614296,0.9502791166305542,-0.8319882154464722,-2.2498161792755127,-0.5353922247886658,1.9229944944381714,4.069517612457275,0.31638526916503906,-0.32093197107315063,-0.10836336761713028,0.9119755625724792
194,29311,29310,0.02750435471534729,-0.03679085150361061,0.9825817346572876,-1.7456361055374146,0.5241310596466064,-0.35719728469848633,1.9228323698043823,4.069488525390625,0.3166751265525818,-0.2684199810028076,-0.12599191069602966,0.9102861285209656
195,29321,29320,0.010744217783212662,0.012239521369338036,1.023807406425476,0.8114191293716431,-1.0664349794387817,-0.20222052931785583,1.922733187675476,4.068743705749512,0.3173840045928955,-0.164515882730484,-0.04973350465297699,0.9043256640434265
196,29331,29330,0.04268195480108261,-0.05253902077674866,0.9596862196922302,1.0615222454071045,-0.5341982841491699,0.16933350265026093,1.9257090091705322,4.069530963897705,0.3174772560596466,-0.2898876965045929,-0.04183507710695267,0.9176194071769714
197,29341,29340,0.025136327371001244,-0.049163930118083954,0.9709922075271606,1.3166499137878418,-0.483483225107193,0.449893593788147,1.9251731634140015,4.068801403045654,0.3177436590194702,-0.17643408477306366,-0.022274479269981384,0.9213197827339172
198,29351,29350,0.002226326148957014,-0.041646625846624374,0.9742451310157776,-0.0535992793738842,-1.2045621871948242,-0.27422818541526794,1.9258347749710083,4.069431781768799,0.31791186332702637,-0.155339777469635,-0.02462671510875225,0.9325053095817566
199,29361,29360,6.990999827394262e-05,-0.07927104830741882,0.9624767303466797,-0.7163146138191223,-1.5110883712768555,-0.1856357902288437,1.9271827936172485,4.070014476776123,0.3147781193256378,-0.1301070749759674,0.03348159044981003,0.9514374136924744
200,29371,29370,-0.010781829245388508,0.0744377076625824,0.9613238573074341,-0.9720829725265503,-1.605682134628296,-0.7597918510437012,1.9257042407989502,4.0696611404418945,0.31475138664245605,-0.028336472809314728,0.0021770258899778128,0.9435474872589111
201,29381,29380,-0.004358966834843159,0.01645299419760704,1.0104475021362305,-2.328000783920288,-0.43297266960144043,-1.0840178728103638,1.9288926124572754,4.069923400878906,0.3145076334476471,-0.23967447876930237,-0.0317726694047451,0.9342566728591919
202,29391,29390,-0.008704494684934616,-0.024829154834151268,0.98227858543396,-3.965365409851074,1.8118780851364136,-0.8820415139198303,1.9297902584075928,4.069994926452637,0.3142309784889221,-0.23050646483898163,-0.10189314931631088,0.9273147583007812
203,29401,29400,0.012578334659337997,-0.03605133667588234,0.9866328835487366,-3.123748779296875,2.2797954082489014,-0.23522214591503143,1.9299118518829346,4.0703887939453125,0.31414908170700073,-0.15934184193611145,-0.16586832702159882,0.9222711324691772
204,29411,29410,-0.004042790271341801,0.04075805842876434,1.0422687530517578,-2.369980573654175,1.806130290031433,-0.42920777201652527,1.930655837059021,4.0702738761901855,0.31398096680641174,-0.17862658202648163,-0.21857498586177826,0.9152997136116028
205,29421,29420,0.04795268923044205,-0.014277994632720947,0.9993519186973572,-0.008867060765624046,0.3203703761100769,-0.1230238601565361,1.931736707687378,4.069448947906494,0.3138536214828491,-0.2127830535173416,-0.16586017608642578,0.9127471446990967
206,29431,29430,-0.035371776670217514,-0.006067286245524883,1.023328185081482,1.9171582460403442,-1.8851276636123657,0.038181331008672714,1.9313985109329224,4.068567276000977,0.313907653093338,0.001089634606614709,-0.07068322598934174,0.9101860523223877
207,29441,29440,0.015288039110600948,-0.01597548834979534,0.9865802526473999,1.7340854406356812,-1.2631925344467163,0.764542818069458,1.9335005283355713,4.069143772125244,0.3137768805027008,-0.13549548387527466,-0.13581714034080505,0.912095308303833
208,29451,29450,-0.01898910477757454,-0.02033030055463314,1.0270426273345947,0.8776119947433472,-0.357150137424469,0.835290253162384,1.9339513778686523,4.069879055023193,0.31662797927856445,-0.03887047618627548,-0.12334311008453369,0.9379287958145142
209,29461,29460,-0.015135623514652252,-0.037284936755895615,1.0275548696517944,0.05172513425350189,0.20871295034885406,0.6010727286338806,1.9349701404571533,4.0687336921691895,0.3166622519493103,-0.10885301232337952,-0.11836223304271698,0.9187345504760742
210,29471,29470,-0.03484707698225975,-0.043478839099407196,1.0129317045211792,-0.9357861876487732,1.1848816871643066,1.0456925630569458,1.9350581169128418,4.068431854248047,0.31680238246917725,-0.1101774126291275,-0.13585469126701355,0.9233222007751465
211,29481,29480,0.020522668957710266,0.007256781682372093,1.01723051071167,-1.7081794738769531,1.164803385734558,1.2603679895401,1.9351189136505127,4.068272113800049,0.31699883937835693,-0.04760068282485008,-0.15846601128578186,0.9345356822013855
212,29491,29490,-0.008340807631611824,-0.03136186674237251,0.993317186832428,-1.8658185005187988,0.9422773718833923,1.053340196609497,1.9353525638580322,4.068506717681885,0.3161139488220215,-0.06320628523826599,-0.19659414887428284,0.952120840549469
213,29501,29500,0.010594641789793968,-0.02043623849749565,1.0015937089920044,-1.1218808889389038,0.9591876268386841,0.8262388706207275,1.9370492696762085,4.068487167358398,0.31624194979667664,-0.08217185735702515,-0.145152747631073,0.9804377555847168
214,29511,29510,-0.008200502954423428,-0.003907251637428999,1.0207613706588745,-0.4425051808357239,1.3815090656280518,0.9858517646789551,1.9384273290634155,4.068805694580078,0.31636714935302734,-0.09963832795619965,-0.16152483224868774,0.9881730675697327
215,29521,29520,0.01725100167095661,-0.005489490460604429,1.0074632167816162,0.07141871005296707,1.3973125219345093,0.8947557806968689,1.9386333227157593,4.069318771362305,0.3167443573474884,-0.04092448577284813,-0.16288727521896362,1.0072203874588013
216,29531,29530,0.011503724381327629,-0.03127163276076317,0.9905340075492859,-0.12619730830192566,1.0428391695022583,1.0962330102920532,1.9363759756088257,4.071109294891357,0.3168818950653076,0.020638518035411835,-0.16515471041202545,1.0703717470169067
217,29541,29540,0.006864440161734819,-0.009770423173904419,1.030329942703247,-0.37746480107307434,4.290726184844971,0.20952849090099335,1.9369698762893677,4.071207523345947,0.3170195519924164,-0.02084636501967907,-0.17607472836971283,1.079422116279602
218,29551,29550,0.01970347948372364,-0.0031028687953948975,1.0030667781829834,0.3484254479408264,3.7217226028442383,0.5907236933708191,1.9376863241195679,4.071050643920898,0.3178582489490509,-0.014999672770500183,-0.17880719900131226,1.0700247287750244
219,29561,29560,0.04119899496436119,-0.1036875769495964,1.002868413925171,0.6113467812538147,4.320991516113281,-0.013906443491578102,1.939975380897522,4.069952487945557,0.3179793059825897,-0.23538309335708618,-0.16856707632541656,1.0611037015914917
220,29571,29570,-0.0028427999932318926,-0.025476204231381416,1.0390855073928833,-0.5852970480918884,5.99320125579834,0.32134151458740234,1.9400250911712646,4.069611072540283,0.3182750642299652,-0.24541155993938446,-0.17984867095947266,1.061000943183899
221,29581,29580,0.021804381161928177,-0.05994921922683716,0.954817533493042,0.06205252185463905,5.216807842254639,-0.027020595967769623,1.9409878253936768,4.069480895996094,0.31845441460609436,-0.33593302965164185,-0.18394295871257782,1.0560297966003418
222,29591,29590,-0.013944576494395733,-0.009253299795091152,0.9959653615951538,0.04642392694950104,4.084578990936279,0.039625491946935654,1.9411900043487549,4.069565773010254,0.31746983528137207,-0.329067200422287,-0.18590965867042542,1.054880142211914
223,29601,29600,0.008962105959653854,-0.02551373653113842,0.987440824508667,-0.19155173003673553,2.470069408416748,0.6140562295913696,1.9416273832321167,4.069417953491211,0.3176698088645935,-0.3013432025909424,-0.1866481751203537,1.0557739734649658
224,29611,29610,0.00987166166305542,0.0027583707123994827,1.009830355644226,-0.8150808215141296,1.6359342336654663,0.6278420686721802,1.9439724683761597,4.069404602050781,0.31766068935394287,-0.4989534616470337,-0.19911828637123108,1.0659353733062744
225,29621,29620,0.07285325229167938,-0.1398988664150238,0.9917926788330078,0.9679097533226013,-0.7043843269348145,-0.09240701049566269,1.9438652992248535,4.06970739364624,0.31625157594680786,-0.43337416648864746,-0.20875711739063263,1.0833766460418701
226,29631,29630,-0.014065084047615528,-0.033539824187755585,1.0260146856307983,1.3236507177352905,-2.511725664138794,0.32650113105773926,1.944050669670105,4.069458961486816,0.31638115644454956,-0.31722283363342285,-0.18413744866847992,1.0830327272415161
227,29641,29640,0.004747959319502115,-0.052167732268571854,0.9531183242797852,2.167307138442993,-3.3173484802246094,0.39894285798072815,1.9442367553710938,4.069294452667236,0.31646767258644104,-0.26663100719451904,-0.15749935805797577,1.0846680402755737
228,29651,29650,0.022186052054166794,-0.026298345997929573,0.9896881580352783,3.104637384414673,-2.689476490020752,0.11091356724500656,1.9451520442962646,4.068915367126465,0.3187263607978821,-0.21470005810260773,-0.09763836115598679,1.0875877141952515
229,29661,29660,0.012128192000091076,0.1567324548959732,1.0127280950546265,2.3129429817199707,0.6312584280967712,0.2454092651605606,1.946700096130371,4.069249153137207,0.3188215494155884,-0.3070683777332306,-0.13693416118621826,1.0819951295852661
230,29671,29670,0.054780445992946625,-0.007068886421620846,0.9405946731567383,2.1405773162841797,1.40748929977417,0.32965946197509766,1.9475244283676147,4.068493843078613,0.31900715827941895,-0.24158695340156555,-0.09112077206373215,1.039581537246704
231,29681,29680,-0.005381591152399778,-0.027873283252120018,0.9953367710113525,0.91124427318573,2.5586018562316895,0.47308239340782166,1.948706865310669,4.067368984222412,0.3191123902797699,-0.2819792628288269,-0.06368803232908249,1.0298066139221191
232,29691,29690,-0.04032045975327492,-0.03075571358203888,1.0056772232055664,-0.26312926411628723,3.0049493312835693,0.3521755635738373,1.9489330053329468,4.067115306854248,0.3203100860118866,-0.26218825578689575,-0.05980246514081955,1.024130940437317
233,29701,29700,0.022722667083144188,-0.018207330256700516,0.9731169939041138,-2.2618794441223145,2.7899508476257324,0.5797974467277527,1.951083779335022,4.067243576049805,0.3204260468482971,-0.3953680098056793,-0.0775710865855217,1.0294159650802612
234,29711,29710,0.004078192170709372,-0.011382833123207092,0.9923157095909119,-2.859525680541992,2.367155075073242,1.3044744729995728,1.950918436050415,4.067013263702393,0.3206880986690521,-0.3623991310596466,-0.043774206191301346,1.0478590726852417
235,29721,29720,-0.024991845712065697,-0.018497347831726074,0.9999771118164062,-2.216174364089966,0.7755638957023621,1.286888837814331,1.9521592855453491,4.067348957061768,0.32025596499443054,-0.3947826325893402,-0.09090949594974518,1.039802074432373
236,29731,29730,-0.00017631734954193234,-0.038577884435653687,0.9572285413742065,-1.410251498222351,-0.42272666096687317,0.7960959672927856,1.9529117345809937,4.0676069259643555,0.3204226791858673,-0.3407008647918701,-0.1366921067237854,1.0677436590194702
237,29741,29740,0.00622149184346199,0.0031320343259721994,1.0040040016174316,0.4442848265171051,-0.7927479147911072,0.9638848304748535,1.9522933959960938,4.069330215454102,0.32063326239585876,-0.2623901963233948,-0.1476164609193802,1.1234512329101562
238,29751,29750,0.005841935519129038,0.007654797285795212,1.0126416683197021,2.0213563442230225,-0.9831064939498901,0.5229276418685913,1.9542999267578125,4.069056987762451,0.32050207257270813,-0.3294597566127777,-0.13011044263839722,1.1314738988876343
