,timestamp_start,timestamp_end,acc.x,acc.y,acc.z,gyro.x,gyro.y,gyro.z,stateEstimate.x,stateEstimate.y,stateEstimate.z,stabilizer.pitch,stabilizer.roll,stabilizer.yaw
0,19940,19937,-0.024289945140480995,0.02458629012107849,1.0243924856185913,-38.572322845458984,8.137550354003906,0.915873646736145,1.9511994123458862,3.996206760406494,0.17486783862113953,0.5559827089309692,-0.2273944914340973,1.9428173303604126
1,19950,19947,-0.0079642990604043,0.007059995085000992,0.9804314970970154,-36.73590087890625,3.461094617843628,1.4168485403060913,1.950933575630188,3.9976751804351807,0.17750132083892822,0.4197791516780853,-0.8259605169296265,1.9795715808868408
2,19960,19957,0.01458120346069336,-0.006052839104086161,0.9784513711929321,-27.66695785522461,-0.3229632079601288,1.2527190446853638,1.9508299827575684,3.9981024265289307,0.17844676971435547,0.41916579008102417,-1.4106570482254028,2.0225541591644287
3,19970,19967,-0.025596659630537033,0.01255663763731718,1.033332347869873,-15.111273765563965,-1.805733323097229,1.479587435722351,1.9503568410873413,3.9973416328430176,0.180685356259346,0.4809446930885315,-1.6537150144577026,2.0350401401519775
4,19980,19977,0.03140821307897568,-0.023135947063565254,0.979189932346344,0.5265271663665771,-2.5348927974700928,1.806443214416504,1.9507927894592285,3.9963808059692383,0.18284669518470764,0.48772308230400085,-1.8044826984405518,2.0564088821411133
5,19990,19987,-0.012158757075667381,0.015686634927988052,1.044729232788086,12.118438720703125,-1.9325393438339233,2.2547624111175537,1.9510811567306519,3.998255491256714,0.1851758062839508,0.49782806634902954,-1.8563789129257202,2.0869812965393066
6,20000,19997,0.0024866624735295773,0.009701946750283241,1.0075129270553589,19.634166717529297,0.8005535006523132,2.428596019744873,1.9506456851959229,3.9996819496154785,0.18553075194358826,0.5766114592552185,-1.70103120803833,2.1016247272491455
7,20010,20007,-0.0014243153855204582,-0.03500434011220932,1.0041491985321045,22.060684204101562,1.7264660596847534,2.4685018062591553,1.949785828590393,3.9994356632232666,0.18772876262664795,0.6123213171958923,-1.4268648624420166,2.1160311698913574
8,20020,20017,-0.03851628303527832,0.00852210447192192,1.0663758516311646,17.535470962524414,5.602451324462891,1.9613150358200073,1.949501395225525,4.000295162200928,0.18983463943004608,0.6084622740745544,-1.373367190361023,2.1499695777893066
9,20030,20027,0.020588751882314682,-0.025768332183361053,0.9861482381820679,10.157275199890137,8.061413764953613,1.6756930351257324,1.949851632118225,4.000589370727539,0.1910214126110077,0.522845983505249,-1.244983196258545,2.171233892440796
10,20040,20037,0.0001915503671625629,-0.0069350250996649265,0.9832539558410645,2.3588016033172607,9.23734188079834,0.7339709401130676,1.9505189657211304,4.00408935546875,0.19314421713352203,0.3343832790851593,-1.3645750284194946,2.2197914123535156
11,20050,20047,0.0017155023524537683,0.002993736183270812,0.987361490726471,-2.1544315814971924,7.949948787689209,0.5286165475845337,1.9455372095108032,4.002142906188965,0.1950683891773224,0.7729322910308838,-1.4390649795532227,2.123680830001831
12,20060,20057,0.04203193634748459,0.04497307911515236,0.9347645044326782,-2.40413761138916,8.78217601776123,1.1508400440216064,1.9459543228149414,4.00320291519165,0.19551607966423035,0.5922077298164368,-1.5425395965576172,2.155460834503174
13,20070,20067,0.043490536510944366,0.040931858122348785,0.9662413001060486,2.143853187561035,8.619926452636719,1.0658036470413208,1.9450136423110962,4.001978874206543,0.19757570326328278,0.42247119545936584,-1.6046998500823975,2.1862080097198486
14,20080,20077,-0.019620921462774277,-0.13238759338855743,1.048156976699829,9.159565925598145,10.315164566040039,0.8014994263648987,1.9444537162780762,4.002030849456787,0.19949810206890106,0.33868250250816345,-1.57288658618927,2.1948766708374023
15,20090,20087,0.021684585139155388,-0.09176325798034668,0.9445932507514954,15.270744323730469,11.207575798034668,0.6132397055625916,1.94364333152771,4.003508567810059,0.20203682780265808,0.12692758440971375,-1.3384008407592773,2.210801124572754
16,20100,20097,0.026536183431744576,0.13250848650932312,0.9780334234237671,19.885953903198242,9.65423583984375,0.8267618417739868,1.9445054531097412,4.002520561218262,0.20067104697227478,-0.1851542890071869,-1.1552042961120605,2.2508277893066406
17,20110,20107,0.028433188796043396,0.08557498455047607,0.9533068537712097,21.519580841064453,7.908642768859863,0.8878039717674255,1.9434486627578735,4.0028395652771,0.20264562964439392,-0.39317360520362854,-1.0692740678787231,2.2862420082092285
18,20120,20117,0.007555644027888775,-0.039192017167806625,0.967603862285614,21.200332641601562,3.9840354919433594,1.1302306652069092,1.9436339139938354,4.002811908721924,0.2045392245054245,-0.46172967553138733,-0.7964345216751099,2.2964470386505127
19,20130,20127,-0.041794728487730026,-0.02759055234491825,0.954189658164978,18.283708572387695,-3.1180288791656494,0.8163235187530518,1.9425616264343262,4.00068473815918,0.20625704526901245,-0.4913526177406311,-0.40257716178894043,2.316051721572876
20,20140,20137,0.001025959849357605,-0.03662716597318649,0.9769801497459412,13.383667945861816,-5.239542484283447,0.9119839668273926,1.942734718322754,4.004476547241211,0.20818524062633514,-0.47148558497428894,-0.6135570406913757,2.3193557262420654
21,20150,20147,-0.026846429333090782,0.05165918916463852,1.016520619392395,7.240756034851074,-6.768113136291504,0.35064706206321716,1.9422423839569092,4.005800724029541,0.2101578563451767,-0.40734726190567017,-0.3527063727378845,2.3315236568450928
22,20160,20157,0.0027518896386027336,0.08408497273921967,0.9491297006607056,6.135949611663818,-8.551620483398438,0.4112628400325775,1.9423518180847168,4.006742477416992,0.21058550477027893,-0.3178946077823639,-0.3269202411174774,2.331329584121704
23,20170,20167,0.006267593242228031,0.09330146014690399,0.9895195364952087,6.225254058837891,-8.6092529296875,0.9122354388237,1.9431238174438477,4.008439540863037,0.21225890517234802,-0.3510446548461914,-0.1557927429676056,2.3594577312469482
24,20180,20177,-0.01426536776125431,0.04798831045627594,1.0403395891189575,8.758256912231445,-9.45833969116211,0.976298987865448,1.9423168897628784,4.007200241088867,0.21390791237354279,-0.20245517790317535,-0.05912461504340172,2.3646798133850098
25,20190,20187,-0.05109386518597603,-0.0031555129680782557,1.0587401390075684,8.731736183166504,-6.3176679611206055,0.8088281154632568,1.9420133829116821,4.0119452476501465,0.21667788922786713,-0.12559014558792114,-0.22745534777641296,2.359455108642578
26,20200,20197,-0.019490398466587067,0.002335116732865572,1.0646753311157227,11.581136703491211,-6.93493127822876,0.9373149871826172,1.9404006004333496,4.011270523071289,0.21839123964309692,-0.0414259172976017,-0.13017800450325012,2.366668224334717
27,20210,20207,0.013765428215265274,-0.06736156344413757,1.0851413011550903,11.706535339355469,-0.9709681868553162,1.9506278038024902,1.9400527477264404,4.010909557342529,0.22028718888759613,0.01427600346505642,0.08055093139410019,2.386744737625122
28,20220,20217,0.04079084470868111,-0.10987179726362228,1.022242784500122,13.614721298217773,-0.42706555128097534,1.7489994764328003,1.9399715662002563,4.012621879577637,0.22219465672969818,-0.13136401772499084,0.14595958590507507,2.4090089797973633
29,20230,20227,-0.010555765591561794,0.02472582459449768,1.0328876972198486,11.670692443847656,0.008864889852702618,1.4044252634048462,1.9385240077972412,4.010050296783447,0.22623296082019806,-0.12020893394947052,0.37413856387138367,2.4288105964660645
30,20240,20237,0.02303561009466648,-0.08050788193941116,0.939815104007721,11.116576194763184,-4.559263706207275,1.6468610763549805,1.9372185468673706,4.010690212249756,0.22834131121635437,-0.02981843240559101,0.5662354826927185,2.445573091506958
31,20250,20247,-0.06362633407115936,-0.2122865915298462,1.062893033027649,8.562725067138672,-3.5241382122039795,1.219489336013794,1.935782551765442,4.008923530578613,0.2303999960422516,-0.02609643153846264,0.574009358882904,2.4552359580993652
32,20260,20257,0.06609466671943665,-0.02516269125044346,0.9487094283103943,5.93116569519043,-2.2098281383514404,0.9617993235588074,1.9346903562545776,4.00836706161499,0.23270830512046814,0.014702281914651394,0.7708724737167358,2.4720001220703125
33,20270,20267,0.02680019661784172,0.023805707693099976,0.9437466859817505,2.5714550018310547,-5.087315559387207,1.0993878841400146,1.9337737560272217,4.008274078369141,0.23484763503074646,0.11599882692098618,0.7650838494300842,2.4807159900665283
34,20280,20277,-0.09849133342504501,0.072300985455513,0.9764534831047058,-0.035982515662908554,-5.807353973388672,0.706494152545929,1.9334865808486938,4.008969306945801,0.23693400621414185,0.19304455816745758,0.6271893978118896,2.4832262992858887
35,20290,20287,-0.06342050433158875,0.028797689825296402,0.9849276542663574,-1.1561036109924316,-5.052012920379639,0.8830272555351257,1.932877540588379,4.012251377105713,0.24160800874233246,0.26335057616233826,0.5448561310768127,2.488476514816284
36,20300,20297,-0.03566383197903633,0.040384355932474136,0.9733408689498901,0.728385865688324,-3.3169682025909424,0.8036839962005615,1.9324604272842407,4.012263298034668,0.24382250010967255,0.33595773577690125,0.619339644908905,2.5010533332824707
37,20310,20307,-0.03771000728011131,0.019612615928053856,0.9559177756309509,4.336524963378906,-1.39505934715271,0.42288827896118164,1.931986689567566,4.01270866394043,0.24596446752548218,0.3698824644088745,0.6505476236343384,2.508167266845703
38,20320,20317,-0.02401169016957283,-0.00022818148136138916,0.9683753252029419,7.919267177581787,0.5300387740135193,0.32344940304756165,1.9316686391830444,4.012759685516357,0.24807579815387726,0.3586370348930359,0.6620107293128967,2.5109400749206543
39,20330,20327,-0.0008603856549598277,0.020488614216446877,0.9637017250061035,8.165698051452637,3.1895182132720947,-0.013633720576763153,1.932098388671875,4.011481285095215,0.24879804253578186,0.23825816810131073,0.8699389100074768,2.505851984024048
40,20340,20337,-0.05274103209376335,0.07396556437015533,0.9490233659744263,7.565812587738037,3.0011024475097656,-0.5060215592384338,1.9322187900543213,4.011617183685303,0.2508150637149811,0.10576214641332626,0.9880004525184631,2.492217540740967
41,20350,20347,-0.06450205296278,0.1600240170955658,0.9466785192489624,3.80787992477417,4.284158229827881,-0.942180871963501,1.931530475616455,4.010730743408203,0.2527671754360199,0.12462718784809113,1.0685826539993286,2.4920051097869873
42,20360,20357,-0.1009686067700386,0.2077888399362564,0.9107140898704529,1.931410312652588,-2.0838396549224854,-0.2893909811973572,1.931709885597229,4.010094165802002,0.2534065842628479,0.08137580007314682,1.1633843183517456,2.481795310974121
43,20370,20367,0.008037382736802101,0.014169295318424702,0.8779714703559875,-1.7271695137023926,-2.3259663581848145,-0.21010947227478027,1.9309070110321045,4.008238315582275,0.25510329008102417,0.08153742551803589,1.1967511177062988,2.475984573364258
44,20380,20377,0.08947993814945221,-0.009444348514080048,0.8823457956314087,-4.519169330596924,-2.26572847366333,-0.05582272633910179,1.9310438632965088,4.007753372192383,0.25679096579551697,-0.09119284898042679,1.0315616130828857,2.445551872253418
45,20390,20387,0.14690697193145752,-0.06795454770326614,0.8754567503929138,-5.703924179077148,-5.173805236816406,-0.16403408348560333,1.927966594696045,4.0088300704956055,0.25879552960395813,0.3551236689090729,0.9857385158538818,2.5041189193725586
46,20400,20397,0.07233743369579315,-0.039245955646038055,0.9133142828941345,-5.896216869354248,-8.211405754089355,-0.7397177219390869,1.9289960861206055,4.0079874992370605,0.2603820562362671,0.19619323313236237,0.9191291928291321,2.465559720993042
47,20410,20407,0.0008508511236868799,0.024894453585147858,0.9537051320075989,-4.220808506011963,-5.974015712738037,-0.32357504963874817,1.927241325378418,4.008231163024902,0.26175472140312195,0.47025492787361145,0.8670421242713928,2.490877866744995
48,20420,20417,0.0038627285975962877,-0.005368860438466072,0.9579842686653137,-1.7386293411254883,-2.4536070823669434,-0.593425452709198,1.9250552654266357,4.007968902587891,0.2628854811191559,0.7496930360794067,0.8476638793945312,2.5219972133636475
49,20430,20427,-0.016375768929719925,0.025712544098496437,1.0036526918411255,0.9454326629638672,3.1332035064697266,-0.8271476626396179,1.9268814325332642,4.0077362060546875,0.2629718780517578,0.466568261384964,0.9410731196403503,2.468198776245117
50,20440,20437,-0.08895192295312881,-0.04455381631851196,1.061110019683838,1.6184663772583008,8.588983535766602,-0.9574860334396362,1.9261821508407593,4.006602764129639,0.26408350467681885,0.469753235578537,0.9869888424873352,2.469759225845337
51,20450,20447,-0.02391606755554676,-0.0392095223069191,0.9652221202850342,1.145607352256775,11.022958755493164,-1.200167179107666,1.9223653078079224,4.008751392364502,0.2651441693305969,0.5710328817367554,0.7921900153160095,2.4985158443450928
52,20460,20457,-0.016186367720365524,0.010167548432946205,0.9608117938041687,0.33869433403015137,9.451942443847656,-1.056100606918335,1.922523856163025,4.008828639984131,0.26804378628730774,0.31540223956108093,0.9126859903335571,2.4629788398742676
53,20470,20467,-0.02163153700530529,-0.015232224017381668,0.9795439839363098,-2.182988166809082,13.449531555175781,-0.039361171424388885,1.9228241443634033,4.010763168334961,0.26927801966667175,0.0602743960916996,0.7660818696022034,2.4464898109436035
54,20480,20477,-0.0383700393140316,0.10590066015720367,0.9662688374519348,-3.3603193759918213,9.954699516296387,0.26439324021339417,1.923202633857727,4.008872985839844,0.27050668001174927,-0.14292725920677185,0.9008345603942871,2.428846836090088
55,20490,20487,0.007732989266514778,0.03341346234083176,0.9505630731582642,-3.735501766204834,5.32353401184082,0.29594308137893677,1.9228097200393677,4.010733127593994,0.2720789313316345,-0.21905703842639923,0.8555586934089661,2.4329190254211426
56,20500,20497,0.023675043135881424,0.15622341632843018,0.9766206741333008,-3.6668601036071777,-1.3245344161987305,0.034679289907217026,1.9225910902023315,4.009279727935791,0.2732241451740265,-0.28791454434394836,0.878366231918335,2.428546190261841
57,20510,20507,0.01826481893658638,0.005953049752861261,0.942802906036377,-3.0504274368286133,-7.091479778289795,-0.06881798803806305,1.9220740795135498,4.01229190826416,0.274393767118454,-0.23471610248088837,0.5904344916343689,2.430713415145874
58,20520,20517,0.00792350061237812,-0.03719174116849899,0.9623912572860718,-3.506594181060791,-10.064227104187012,0.03183941915631294,1.9207693338394165,4.008869647979736,0.2756568491458893,-0.10090199112892151,0.878006100654602,2.4377529621124268
59,20530,20527,0.05198054388165474,-0.03513231500983238,0.9869409799575806,-2.280775308609009,-11.07554817199707,-0.6867789626121521,1.9217171669006348,4.012993812561035,0.27903446555137634,-0.16529053449630737,0.4338890612125397,2.4056272506713867
60,20540,20537,0.0020522966515272856,0.021041063591837883,0.9990852475166321,-1.7610794305801392,-10.038434982299805,-0.1981847584247589,1.9122980833053589,4.009451389312744,0.28062325716018677,0.8814060091972351,0.5127384066581726,2.5259060859680176
61,20550,20547,-0.020760638639330864,0.10789640992879868,0.9754231572151184,-0.5652126669883728,-4.985110282897949,-1.1100448369979858,1.912060022354126,4.0094990730285645,0.28194066882133484,0.8920326828956604,0.5054147243499756,2.5070436000823975
62,20560,20557,-0.0036306814290583134,0.01313911285251379,0.9463101029396057,1.2253977060317993,3.980039358139038,-1.0202405452728271,1.91152822971344,4.010008811950684,0.28144291043281555,0.8402968645095825,0.5339909791946411,2.4875919818878174
63,20570,20567,0.07578180730342865,-0.03649769350886345,0.9173874258995056,1.249659776687622,16.868188858032227,-0.6200162172317505,1.9124765396118164,4.010402679443359,0.28269070386886597,0.5634827017784119,0.5664242506027222,2.4600770473480225
64,20580,20577,0.02766115590929985,-0.021034078672528267,0.9400926828384399,1.4022562503814697,24.067907333374023,-0.5410268902778625,1.9131273031234741,4.010359764099121,0.2837744653224945,0.23870199918746948,0.6131575107574463,2.441652774810791
65,20590,20587,0.00799415074288845,-0.03887711092829704,0.9446744322776794,0.20697152614593506,25.490455627441406,-0.5033310651779175,1.9116023778915405,4.010834217071533,0.28507840633392334,0.07149671763181686,0.6442188024520874,2.4472169876098633
66,20600,20597,0.025092419236898422,0.0034821464214473963,0.9173945784568787,-1.6343716382980347,23.945085525512695,-1.3105387687683105,1.9119361639022827,4.007366180419922,0.28605249524116516,-0.4272420406341553,0.7222242951393127,2.412097215652466
67,20610,20607,-0.0016988556599244475,-0.00973840057849884,0.9433715343475342,-3.9333901405334473,15.112459182739258,-0.9036438465118408,1.9109086990356445,4.009266376495361,0.2868956923484802,-0.5905455946922302,0.6808099746704102,2.409158945083618
68,20620,20617,-0.017620401456952095,-0.009668255224823952,1.0069326162338257,-6.014214515686035,7.298628807067871,-1.6178972721099854,1.9090666770935059,4.007081508636475,0.2861050069332123,-0.6954017281532288,0.6727554798126221,2.3995449542999268
69,20630,20627,-0.014561724849045277,-0.15936115384101868,0.9854743480682373,-6.322288513183594,-1.9674721956253052,-1.522725224494934,1.9087773561477661,4.007399559020996,0.28674477338790894,-0.7499690651893616,0.5695274472236633,2.3829562664031982
70,20640,20637,-0.016857773065567017,-0.0877828374505043,0.984631359577179,-4.910991191864014,-11.986220359802246,-1.7101346254348755,1.9060392379760742,4.007630348205566,0.2873876690864563,-0.5513734221458435,0.46155235171318054,2.375495433807373
71,20650,20647,-0.10119890421628952,-0.048804815858602524,1.0381392240524292,-4.46099853515625,-10.116236686706543,-1.559423565864563,1.9083361625671387,4.006322860717773,0.28806644678115845,-0.6626845598220825,0.5288429260253906,2.344325542449951
72,20660,20657,-0.019312892109155655,-0.043489180505275726,0.9847498536109924,-3.5727968215942383,-8.126875877380371,-1.5148036479949951,1.9078946113586426,4.005905628204346,0.28462737798690796,-0.5348151326179504,0.5246627926826477,2.3327581882476807
73,20670,20667,-0.01574018970131874,-0.04423363506793976,0.9804362058639526,-3.771484375,-7.251657009124756,-1.829179286956787,1.9074249267578125,4.00515079498291,0.28507259488105774,-0.42844635248184204,0.4423931837081909,2.3154149055480957
74,20680,20677,0.04146624356508255,0.03495829179883003,0.9755019545555115,-4.0752997398376465,-4.145653247833252,-1.442184329032898,1.9076358079910278,4.005594253540039,0.2854536771774292,-0.3654659390449524,0.43554991483688354,2.304198980331421
75,20690,20687,0.06109987944364548,0.02913077361881733,0.9694669842720032,-3.603698492050171,-0.342809796333313,-1.2703423500061035,1.9083853960037231,4.0058488845825195,0.2839001417160034,-0.4393836557865143,0.3508724272251129,2.2816052436828613
76,20700,20697,0.030092976987361908,-0.040059808641672134,0.9746220707893372,-3.5522289276123047,3.2411389350891113,-1.0043811798095703,1.9080326557159424,4.006004333496094,0.2841506004333496,-0.4863920509815216,0.27613556385040283,2.265915870666504
77,20710,20707,-0.02196452021598816,-0.08861950784921646,0.9948256611824036,-3.0627551078796387,4.558516502380371,-0.9757540225982666,1.907840609550476,4.00507926940918,0.28437095880508423,-0.567354679107666,0.3634006977081299,2.2643229961395264
78,20720,20717,-0.04435598850250244,-0.09479843080043793,0.9938074350357056,-3.227294683456421,2.785491466522217,-1.1253150701522827,1.9061250686645508,4.004823684692383,0.28733178973197937,-0.47282472252845764,0.37195345759391785,2.2613370418548584
79,20730,20727,-0.008976305834949017,-0.039362914860248566,0.9868348836898804,-4.349222660064697,1.3056401014328003,-0.9879158139228821,1.9056488275527954,4.005453586578369,0.2877654731273651,-0.5337237119674683,0.27995920181274414,2.245792865753174
80,20740,20737,-0.028583437204360962,-0.00331898988224566,0.9977744817733765,-5.359192371368408,-0.6974948644638062,-0.8785749673843384,1.9054325819015503,4.006046772003174,0.28810539841651917,-0.5483396649360657,0.3302299678325653,2.244671106338501
81,20750,20747,-0.025490572676062584,-0.009754190221428871,1.0379176139831543,-6.4685564041137695,-2.4503633975982666,-1.3325351476669312,1.9050389528274536,4.00621223449707,0.2885323464870453,-0.5136027932167053,0.20190158486366272,2.23069429397583
82,20760,20757,0.012831821106374264,-0.09291746467351913,1.036637783050537,-6.313955307006836,-4.173565864562988,-1.3164184093475342,1.90481436252594,4.00734806060791,0.28928011655807495,-0.5154677033424377,0.06941697746515274,2.212059736251831
83,20770,20767,-0.027521120384335518,-0.009193199686706066,1.048484206199646,-4.355784893035889,-5.445641040802002,-0.6952695846557617,1.9039685726165771,4.006004333496094,0.2896859347820282,-0.46184414625167847,0.09905393421649933,2.2111456394195557
84,20780,20777,0.0016355758998543024,-0.038738999515771866,0.9773505926132202,-3.648515224456787,-5.34807825088501,-0.7783841490745544,1.903857946395874,4.004919528961182,0.29012298583984375,-0.3828737437725067,0.15675410628318787,2.212388515472412
85,20790,20787,-0.010648343712091446,-0.027881287038326263,0.9677754640579224,-2.660717487335205,-5.019158840179443,-0.5043362975120544,1.9037271738052368,4.0056538581848145,0.29141464829444885,-0.36940738558769226,0.06875757873058319,2.197965145111084
86,20800,20797,0.009822708554565907,-0.012863656505942345,1.0017170906066895,-2.9208950996398926,-3.696504592895508,-0.10130449384450912,1.9026542901992798,4.004600524902344,0.2919601500034332,-0.3443371653556824,0.09207312017679214,2.2001242637634277
87,20810,20807,0.05834958329796791,-0.05299973860383034,0.9673895239830017,-3.4275012016296387,-4.056478977203369,-0.20552600920200348,1.9027693271636963,4.005422115325928,0.2925305664539337,-0.3824867606163025,-0.0018854312365874648,2.1894338130950928
88,20820,20817,0.009066404774785042,-0.12499110400676727,1.0361411571502686,-3.951674461364746,-2.5183022022247314,0.6218746900558472,1.9021164178848267,4.004075050354004,0.2900215685367584,-0.4098917245864868,0.05942375585436821,2.195838212966919
89,20830,20827,-0.002739681862294674,-0.2222183644771576,1.0945638418197632,-4.286479949951172,-2.1314055919647217,-0.08470030874013901,1.9024120569229126,4.00557279586792,0.29034602642059326,-0.35574641823768616,0.026774955913424492,2.2009828090667725
90,20840,20837,0.001432150835171342,-0.23339493572711945,1.0427159070968628,-5.036347389221191,2.518200397491455,-0.30018967390060425,1.9008978605270386,4.0045671463012695,0.2906980812549591,-0.300051212310791,-0.08771664649248123,2.1977601051330566
91,20850,20847,0.04921354725956917,-0.07610315829515457,0.9722763299942017,-4.437668323516846,10.083606719970703,-0.3075556755065918,1.901479959487915,4.0041728019714355,0.29170483350753784,-0.32742777466773987,-0.12652382254600525,2.198404312133789
92,20860,20857,0.008458190597593784,0.06142217293381691,1.0227330923080444,-4.3294196128845215,13.87183666229248,-0.6206737756729126,1.9015978574752808,4.004340648651123,0.2921482026576996,-0.4754572808742523,-0.16059792041778564,2.1958248615264893
93,20870,20867,0.12420289218425751,-0.0072950562462210655,0.9070879220962524,-5.034991264343262,18.915130615234375,-0.3536262512207031,1.9013521671295166,4.004706382751465,0.29264867305755615,-0.6064807176589966,-0.340536892414093,2.1800954341888428
94,20880,20877,0.13188141584396362,-0.0005505217704921961,0.9356275200843811,-3.3090269565582275,16.00566864013672,-0.30827268958091736,1.901153564453125,4.004342079162598,0.2931259274482727,-0.8130517601966858,-0.36383378505706787,2.1790966987609863
95,20890,20887,0.08282269537448883,-0.07578561455011368,0.9479868412017822,-1.10041344165802,11.89069652557373,-0.15983963012695312,1.9022451639175415,4.004493713378906,0.2949927747249603,-1.0717986822128296,-0.4453272819519043,2.1750190258026123
96,20900,20897,0.013591822236776352,-0.015453136526048183,1.0085127353668213,1.00303316116333,6.93817663192749,-0.27210885286331177,1.9014205932617188,4.005404949188232,0.2955244481563568,-1.1052335500717163,-0.48985880613327026,2.1659770011901855
97,20910,20907,0.0024533895775675774,-0.03847872093319893,1.0239242315292358,2.845602512359619,2.1773505210876465,0.12126212567090988,1.9009087085723877,4.005222797393799,0.2959633469581604,-1.1387954950332642,-0.49262917041778564,2.1610169410705566
98,20920,20917,-0.01272837445139885,0.08216239511966705,1.0488983392715454,4.941985130310059,-1.8203368186950684,0.36491674184799194,1.901291012763977,4.004788875579834,0.29220855236053467,-1.1620306968688965,-0.4548516273498535,2.163853645324707
99,20930,20927,0.013803609646856785,-0.032786209136247635,0.9833430647850037,6.0737385749816895,-3.03043794631958,0.55740886926651,1.9007965326309204,4.004321098327637,0.2924222946166992,-1.1224361658096313,-0.3892259895801544,2.1678597927093506
100,20940,20937,0.01819566637277603,-0.02238890528678894,0.9968652129173279,4.315992832183838,-2.1004769802093506,0.20532985031604767,1.9012964963912964,4.003326416015625,0.2925899624824524,-1.1343613862991333,-0.3071770966053009,2.1785099506378174
101,20950,20947,-0.0005039326497353613,0.028899967670440674,0.9784619808197021,1.161577820777893,2.475454330444336,-0.41368910670280457,1.9009929895401,4.0031843185424805,0.2921828031539917,-1.0803730487823486,-0.25407955050468445,2.1797120571136475
102,20960,20957,-0.057649243623018265,0.0988888144493103,1.031130075454712,-1.6774227619171143,4.295654296875,0.22398096323013306,1.9021109342575073,4.003922939300537,0.29227718710899353,-1.1590609550476074,-0.24538280069828033,2.1821694374084473
103,20970,20967,0.008207239210605621,-0.03142467886209488,0.9789567589759827,-1.9357202053070068,6.885009765625,-0.2337648570537567,1.902382254600525,4.003341197967529,0.2923823893070221,-1.331095576286316,-0.2998088002204895,2.1840949058532715
104,20980,20977,0.04718504473567009,-0.014843768440186977,0.9819109439849854,-2.381948947906494,9.00966739654541,-0.1264335960149765,1.9018323421478271,4.004484176635742,0.2925880253314972,-1.3480418920516968,-0.19765084981918335,2.195042371749878
105,20990,20987,0.07850471884012222,-0.08003723621368408,0.9943295121192932,-1.9631184339523315,5.324280261993408,0.10529055446386337,1.9021964073181152,4.003759860992432,0.2945307195186615,-1.4475029706954956,-0.2641099691390991,2.191922187805176
106,21000,20997,0.035901568830013275,-0.13588595390319824,1.0280424356460571,-3.103496551513672,3.310718059539795,0.43180546164512634,1.9023029804229736,4.003905773162842,0.2947577238082886,-1.4357448816299438,-0.29831117391586304,2.185177803039551
107,21010,21007,-0.024418240413069725,-0.16864797472953796,1.0917232036590576,-1.4032232761383057,-0.15749219059944153,0.4178641140460968,1.9026219844818115,4.004057884216309,0.29497355222702026,-1.4531147480010986,-0.3599076569080353,2.179509162902832
108,21020,21017,-0.02434057556092739,-0.24588580429553986,1.0693151950836182,1.1161829233169556,-2.1062233448028564,0.27836665511131287,1.9014095067977905,4.002448558807373,0.29372549057006836,-1.4098845720291138,-0.3955971300601959,2.1771790981292725
109,21030,21027,0.0013281843857839704,-0.14603875577449799,1.0322049856185913,4.477107524871826,-1.4103163480758667,0.8571008443832397,1.9020260572433472,4.003449440002441,0.29393452405929565,-1.4719666242599487,-0.38779956102371216,2.188225269317627
110,21040,21037,-0.010245338082313538,0.03827602416276932,1.0489501953125,6.225873947143555,-1.4747487306594849,0.6814193725585938,1.9014272689819336,4.00363302230835,0.29429227113723755,-1.3866292238235474,-0.3246435225009918,2.194993734359741
111,21050,21047,0.08021056652069092,0.01287048775702715,0.9873663783073425,5.690402030944824,-1.8519145250320435,0.6622194647789001,1.9024854898452759,4.004063606262207,0.2960629463195801,-1.4007292985916138,-0.23593133687973022,2.210007667541504
112,21060,21057,0.08973240107297897,-0.05204719677567482,1.0304951667785645,3.5289766788482666,-2.2623062133789062,0.8054841756820679,1.902771234512329,4.004628658294678,0.29654213786125183,-1.3436821699142456,-0.1602606475353241,2.2162327766418457
113,21070,21067,0.00014618702698498964,0.04284724220633507,0.9737821221351624,1.3894354104995728,-2.3498103618621826,0.8644775152206421,1.901892900466919,4.003711223602295,0.2970791161060333,-1.2753676176071167,-0.1151767298579216,2.2183802127838135
114,21080,21077,-0.030344944447278976,0.057070739567279816,1.04372239112854,-1.4936825037002563,-1.1803570985794067,0.5712487101554871,1.9026933908462524,4.004431247711182,0.29748931527137756,-1.3495596647262573,-0.10727857053279877,2.2281124591827393
115,21090,21087,0.056834761053323746,-0.044925421476364136,0.936255156993866,-1.9165973663330078,0.005344779696315527,0.5647515654563904,1.901373267173767,4.00351095199585,0.29880908131599426,-1.296743392944336,-0.1418055146932602,2.2288706302642822
116,21100,21097,0.05559533089399338,-0.0643995925784111,0.9757618308067322,-2.1505982875823975,0.23946945369243622,0.9246644377708435,1.9019147157669067,4.0039167404174805,0.29935333132743835,-1.267935872077942,-0.1892901510000229,2.224060297012329
117,21110,21107,0.038191840052604675,-0.13679185509681702,1.0304127931594849,-1.6582505702972412,-0.4090349078178406,1.1447687149047852,1.9043159484863281,4.003872394561768,0.2996600270271301,-1.5316041707992554,-0.16450099647045135,2.2587006092071533
118,21120,21117,0.006886598654091358,-0.1544908732175827,1.040010929107666,-0.07331657409667969,-1.5277355909347534,1.1642556190490723,1.9023823738098145,4.001278877258301,0.3004402220249176,-1.4360384941101074,-0.13274584710597992,2.275871515274048
119,21130,21127,-0.0023818612098693848,-0.10319889336824417,1.0338162183761597,0.8568934798240662,-3.7974016666412354,1.1951254606246948,1.902396321296692,4.000399589538574,0.30102095007896423,-1.3982983827590942,-0.15481632947921753,2.2837467193603516
120,21140,21137,0.003133316058665514,0.017854979261755943,0.9987152814865112,1.4914582967758179,-4.783689975738525,0.9153636693954468,1.90229332447052,3.998905897140503,0.30154818296432495,-1.410151720046997,-0.1570402979850769,2.2954375743865967
121,21150,21147,0.10060673207044601,0.020863622426986694,0.9143354892730713,1.695136308670044,-5.7279839515686035,1.0188748836517334,1.9040971994400024,3.998605728149414,0.3012664318084717,-1.488175868988037,-0.14772771298885345,2.30937123298645
122,21160,21157,0.01786217838525772,0.00973684061318636,1.0081883668899536,0.9982410669326782,-7.096989154815674,1.3932186365127563,1.9034029245376587,3.99749755859375,0.3019101917743683,-1.3074809312820435,-0.13257724046707153,2.3109941482543945
123,21170,21167,0.09169784933328629,-0.09102964401245117,1.0036981105804443,0.4915611743927002,-9.095499992370605,1.6897743940353394,1.9046180248260498,3.997697114944458,0.30235755443573,-1.2725261449813843,-0.13091330230236053,2.3228273391723633
124,21180,21177,0.09252216666936874,-0.17545431852340698,0.9811762571334839,-0.4463680684566498,-10.528016090393066,1.6114068031311035,1.9054499864578247,3.9987266063690186,0.30284687876701355,-1.2023775577545166,-0.21259236335754395,2.3241920471191406
125,21190,21187,-0.048053156584501266,0.024075346067547798,1.0454181432724,-0.047490764409303665,-10.841206550598145,1.81728994846344,1.9060297012329102,3.998783588409424,0.3005465567111969,-1.0930403470993042,-0.14377909898757935,2.350888967514038
126,21200,21197,-0.0046572391875088215,-0.04054536670446396,0.942444920539856,1.6419622898101807,-8.788615226745605,1.7779468297958374,1.9064218997955322,4.000096797943115,0.30090460181236267,-0.9716900587081909,-0.23052704334259033,2.35459303855896
127,21210,21207,0.06820442527532578,-0.1357513964176178,0.9582786560058594,2.877701759338379,-7.189530372619629,2.1371006965637207,1.9080430269241333,3.9996538162231445,0.30122074484825134,-0.8851709365844727,-0.20936870574951172,2.374974489212036
128,21220,21217,0.07072910666465759,-0.22586505115032196,0.9958232045173645,2.8059096336364746,-5.035518646240234,2.088082790374756,1.9089449644088745,3.9984145164489746,0.3023473024368286,-0.8109394311904907,-0.09037023782730103,2.4131875038146973
129,21230,21227,0.004783135373145342,-0.17933553457260132,1.050240397453308,2.7122561931610107,-3.4508845806121826,1.6826038360595703,1.9093292951583862,3.998016357421875,0.302674263715744,-0.66999351978302,-0.048568904399871826,2.435685634613037
130,21240,21237,0.019603312015533447,-0.07050879299640656,0.9777459502220154,1.3972851037979126,-1.4251010417938232,1.3113301992416382,1.9106217622756958,3.9981489181518555,0.3029666244983673,-0.6634340882301331,-0.08951755613088608,2.4494831562042236
131,21250,21247,-0.009319351054728031,-0.01679360680282116,0.9852903485298157,-0.5140991806983948,-0.8027569651603699,1.219204068183899,1.9122421741485596,3.9982266426086426,0.30314743518829346,-0.6974748969078064,-0.06769130378961563,2.46706223487854
132,21260,21257,0.0027695063035935163,0.08882921189069748,0.9921117424964905,-1.3526169061660767,-1.5745223760604858,1.4922586679458618,1.9147601127624512,3.9984054565429688,0.3033515214920044,-0.8167149424552917,-0.07341039180755615,2.4811904430389404
133,21270,21267,0.019672229886054993,0.07261612266302109,0.964180588722229,-1.7274839878082275,-3.1441028118133545,1.8133442401885986,1.9148168563842773,3.99847674369812,0.3037881851196289,-0.6883748769760132,-0.09783531725406647,2.4899308681488037
134,21280,21277,0.04154917970299721,0.0789518728852272,0.9766448140144348,-1.2588744163513184,-5.399156093597412,1.5743423700332642,1.9144541025161743,3.9991507530212402,0.30810701847076416,-0.5280095338821411,-0.12724606692790985,2.503985643386841
135,21290,21287,-0.0107119707390666,0.03903214633464813,1.0225944519042969,-0.4130340814590454,-8.12641429901123,1.6504878997802734,1.9151471853256226,3.9988272190093994,0.30865684151649475,-0.42405781149864197,-0.1478012353181839,2.518242597579956
136,21300,21297,-0.10841342806816101,0.031243719160556793,0.9854087829589844,0.7604731321334839,-7.975179195404053,1.9074013233184814,1.9165103435516357,4.000147819519043,0.3091236650943756,-0.41571542620658875,-0.15047593414783478,2.537912368774414
137,21310,21307,-0.04864427447319031,0.044905293732881546,1.0207290649414062,0.43889474868774414,-5.015285491943359,1.5926060676574707,1.9176685810089111,4.0010223388671875,0.30954429507255554,-0.4034874439239502,-0.2128627747297287,2.5534791946411133
138,21320,21317,0.0131717249751091,-0.003594975220039487,0.9531585574150085,1.4256166219711304,-3.9768216609954834,1.8659013509750366,1.9177474975585938,4.0005693435668945,0.308186411857605,-0.2739435136318207,-0.11300395429134369,2.5739293098449707
139,21330,21327,0.02668534778058529,-0.0798419937491417,0.9459320902824402,2.1627559661865234,-2.249826669692993,1.970820665359497,1.9189343452453613,4.0,0.30850115418434143,-0.3391115069389343,-0.09164062887430191,2.595315933227539
140,21340,21337,0.00018923587049357593,-0.011335468851029873,0.9606582522392273,1.251886010169983,-2.201201915740967,1.6919310092926025,1.9198083877563477,3.999462127685547,0.3088970482349396,-0.2597641348838806,0.0189267098903656,2.6162917613983154
141,21350,21347,-0.047429732978343964,0.15733702480793,1.0001651048660278,0.20964764058589935,-2.409619092941284,1.1092803478240967,1.9189051389694214,4.000397682189941,0.3085126280784607,-0.12747907638549805,-0.04380229115486145,2.6268675327301025
142,21360,21357,-0.0045605734921991825,0.10116617381572723,0.9140370488166809,-1.9530446529388428,-2.1701912879943848,1.3743069171905518,1.921408772468567,4.000466823577881,0.30873486399650574,-0.18008051812648773,0.028250260278582573,2.637756586074829
143,21370,21367,-0.010420825332403183,0.02054791897535324,0.9847382307052612,-2.086583137512207,-1.755824089050293,0.8709645867347717,1.9226869344711304,4.000446796417236,0.30888956785202026,-0.20700472593307495,-0.01267215795814991,2.648604393005371
144,21380,21377,0.03280580788850784,-0.11330819875001907,1.0161466598510742,-2.991128921508789,-1.6336112022399902,0.843044102191925,1.9231042861938477,4.000999927520752,0.31074726581573486,-0.15897926688194275,-0.14121021330356598,2.6616671085357666
145,21390,21387,0.014282903634011745,-0.07096747308969498,0.9796760082244873,-2.426067352294922,-4.37233304977417,1.4812418222427368,1.9242445230484009,4.000633239746094,0.3109675645828247,-0.1891936957836151,-0.19204109907150269,2.6733007431030273
146,21400,21397,0.055295180529356,-0.25430724024772644,1.0063810348510742,-1.0112320184707642,-2.3926613330841064,0.619666576385498,1.9242440462112427,4.000895023345947,0.31134575605392456,-0.015028076246380806,-0.2254171222448349,2.6809170246124268
147,21410,21407,0.02625327557325363,-0.14483126997947693,0.9794298410415649,2.34942889213562,-2.205655813217163,0.5003355145454407,1.9257404804229736,3.9997406005859375,0.3116459548473358,-0.018551724031567574,-0.15400376915931702,2.6896793842315674
148,21420,21417,-0.06628874689340591,-0.0673995167016983,0.99588543176651,2.8909714221954346,-0.07344997674226761,0.7402651309967041,1.9255162477493286,3.9995949268341064,0.311032772064209,0.1135900542140007,-0.12376696616411209,2.6918487548828125
149,21430,21427,-0.13093777000904083,0.11653055995702744,1.0103399753570557,2.9051694869995117,2.851560115814209,0.8959932327270508,1.9270501136779785,3.998995065689087,0.3111913800239563,0.04880185052752495,-0.07927312701940536,2.699375629425049
150,21440,21437,0.00673117907717824,-0.10308174788951874,0.9593421220779419,1.4156979322433472,5.026427745819092,1.2980440855026245,1.927457332611084,3.997941017150879,0.31147652864456177,0.08740457147359848,-0.036240506917238235,2.7004621028900146
151,21450,21447,-0.011854689568281174,-0.031782474368810654,1.0115269422531128,-0.1345592737197876,4.74482536315918,1.1236751079559326,1.9293193817138672,3.997978925704956,0.3120824694633484,-0.06868205964565277,-0.020611578598618507,2.7159061431884766
152,21460,21457,-0.028814086690545082,-0.11367456614971161,0.995428740978241,-1.3570592403411865,3.3288447856903076,0.3812224268913269,1.9304057359695435,3.997730255126953,0.31227099895477295,-0.0988946259021759,-0.022597284987568855,2.726632833480835
153,21470,21467,-0.06150110438466072,0.008776555769145489,1.0009403228759766,-2.926525354385376,1.8801708221435547,-0.03139771893620491,1.9309477806091309,3.9975080490112305,0.31248781085014343,-0.10367530584335327,-0.04032772406935692,2.733508586883545
154,21480,21477,-0.02063688263297081,0.04577416554093361,1.012130856513977,-3.622225522994995,0.2312551885843277,-0.14376486837863922,1.9330683946609497,3.9968764781951904,0.31033438444137573,-0.17243081331253052,-0.010024075396358967,2.7331466674804688
155,21490,21487,-0.01656620390713215,-0.039640989154577255,1.0240046977996826,-2.9906198978424072,-1.7334359884262085,0.26205986738204956,1.9337434768676758,3.9972424507141113,0.3104012608528137,-0.1456650346517563,-0.07938481867313385,2.736366033554077
156,21500,21497,-0.05498630926012993,-0.03338449448347092,1.0024070739746094,-1.5890370607376099,-2.7917089462280273,0.6876794099807739,1.9342436790466309,3.9971914291381836,0.3106100857257843,-0.014301094226539135,-0.06429082900285721,2.733725070953369
157,21510,21507,-0.0774153396487236,0.08711229264736176,0.9839794635772705,-0.2511824667453766,-3.2565362453460693,0.8228166103363037,1.9353615045547485,3.9979426860809326,0.31076985597610474,0.04512207210063934,-0.16608232259750366,2.7432098388671875
158,21520,21517,0.013046075589954853,-0.005159817636013031,0.9670348167419434,0.972792387008667,-2.104750156402588,0.889958381652832,1.9365719556808472,3.997023105621338,0.30874884128570557,-0.04173533245921135,-0.09663522988557816,2.7480251789093018
159,21530,21527,-0.0132408132776618,0.014549232088029385,1.0117688179016113,0.33909541368484497,3.1597046852111816,0.39893674850463867,1.935662031173706,3.997112989425659,0.3088236451148987,0.16206961870193481,-0.08981397747993469,2.748145341873169
160,21540,21537,0.01600808836519718,0.0038102625403553247,0.9543554186820984,1.67438805103302,2.144338846206665,0.945236325263977,1.9383265972137451,3.9980876445770264,0.3087017834186554,-0.0860331729054451,-0.1565597653388977,2.7638113498687744
161,21550,21547,-0.06694330275058746,0.10921570658683777,1.0228124856948853,1.792560338973999,2.863525152206421,0.9070783853530884,1.9380626678466797,3.998692274093628,0.3109040856361389,-0.0010991565650328994,-0.12771646678447723,2.784301996231079
162,21560,21557,-0.060285136103630066,0.07757020741701126,0.99663245677948,0.2634362578392029,4.432692527770996,1.1502171754837036,1.9394971132278442,3.9989070892333984,0.3109639286994934,-0.03799763694405556,-0.10416018962860107,2.793055295944214
163,21570,21567,0.010933290235698223,-0.03346162289381027,0.9978099465370178,-0.5002027750015259,2.211442708969116,1.1124684810638428,1.9398616552352905,3.999326467514038,0.31109294295310974,-0.01734650880098343,-0.10084572434425354,2.8019649982452393
164,21580,21577,-0.0007050760905258358,-0.018130555748939514,1.029263973236084,-0.4582996666431427,8.903257369995117,1.254530906677246,1.941645860671997,3.997736692428589,0.313184916973114,-0.1435530036687851,-0.03414122760295868,2.800928831100464
165,21590,21587,0.08937335759401321,0.0002511553466320038,1.0205029249191284,-0.14938926696777344,1.1294704675674438,1.4824365377426147,1.941629409790039,3.9980359077453613,0.3134737014770508,-0.1801098734140396,-0.06208668276667595,2.814816951751709
166,21600,21597,0.00632477505132556,-0.020230920985341072,1.0182609558105469,-0.4902241826057434,-2.657132148742676,1.7941474914550781,1.9416249990463257,3.9975175857543945,0.31379422545433044,-0.09940432012081146,-0.0715586319565773,2.8285000324249268
167,21610,21607,-0.039856918156147,0.03533080965280533,1.018052577972412,-0.35785022377967834,-4.172536849975586,2.2638118267059326,1.9426214694976807,3.9973807334899902,0.31229373812675476,-0.1181461364030838,-0.08331239223480225,2.8489317893981934
168,21620,21617,0.021804776042699814,0.0837169736623764,0.9684162139892578,-0.35532742738723755,-3.8827407360076904,2.4844861030578613,1.9433822631835938,3.9974660873413086,0.312407523393631,-0.1228351965546608,-0.0938527062535286,2.8719542026519775
169,21630,21627,0.05347364395856857,0.023197997361421585,1.0130425691604614,-0.43930160999298096,-3.0482189655303955,2.4179470539093018,1.9428457021713257,3.998584747314453,0.3126319944858551,0.012225141748785973,-0.18847167491912842,2.9086897373199463
170,21640,21637,0.09312079101800919,-0.11224726587533951,0.968331515789032,-0.19081427156925201,-2.0978732109069824,1.8232479095458984,1.9435144662857056,3.9978187084198,0.31278616189956665,0.047377314418554306,-0.11485764384269714,2.9198246002197266
171,21650,21647,-0.007862599566578865,0.01631372980773449,1.0610195398330688,0.9918521642684937,-0.4497404396533966,1.7934892177581787,1.9464772939682007,3.997084379196167,0.3153492510318756,-0.15884622931480408,-0.1201736107468605,2.9410576820373535
172,21660,21657,0.04764050990343094,-0.05603454262018204,0.9690250158309937,0.968366801738739,1.654893398284912,1.804992914199829,1.9467111825942993,3.9961655139923096,0.3156370222568512,-0.13424275815486908,-0.10617407411336899,2.9540481567382812
173,21670,21667,0.08642270416021347,-0.0986737385392189,0.984422504901886,-0.17870986461639404,2.191445827484131,2.2811999320983887,1.9465800523757935,3.9959967136383057,0.3160306513309479,-0.06212357431650162,-0.09593373537063599,2.9691836833953857
174,21680,21677,0.04563979431986809,-0.1350279599428177,1.0587232112884521,0.5335109233856201,-1.044803500175476,1.9094973802566528,1.946042776107788,3.9960947036743164,0.31875982880592346,0.01349431462585926,-0.10052323341369629,3.0018508434295654
175,21690,21687,0.03360229730606079,-0.20762474834918976,1.0234332084655762,-0.977342963218689,1.0250524282455444,1.31719970703125,1.9455853700637817,3.9958512783050537,0.31927743554115295,0.131889209151268,-0.09139684587717056,3.0210983753204346
176,21700,21697,0.006505162455141544,-0.08379168063402176,0.999400794506073,-1.2144964933395386,2.8817970752716064,1.6358693838119507,1.9472285509109497,3.995553970336914,0.3197397291660309,0.028441108763217926,-0.10529224574565887,3.0359396934509277
177,21710,21707,-0.0013611097820103168,0.014844837598502636,0.9560147523880005,-1.243065357208252,4.522096633911133,1.2180737257003784,1.9482121467590332,3.9955263137817383,0.3177414536476135,-0.023231733590364456,-0.11645963788032532,3.050743341445923
178,21720,21717,-0.06485976278781891,0.03778039664030075,1.004066824913025,-0.38529157638549805,2.039051055908203,1.239878535270691,1.9492619037628174,3.995914936065674,0.31807926297187805,-0.0935516357421875,-0.13340218365192413,3.0622220039367676
179,21730,21727,-0.10121147334575653,-0.05753789842128754,1.0784599781036377,-0.5106350779533386,2.3065102100372314,1.0264755487442017,1.94945228099823,3.9953551292419434,0.31847110390663147,-0.04062815010547638,-0.14461782574653625,3.065439462661743
180,21740,21737,-0.09837669134140015,-0.05571393668651581,1.1095341444015503,-0.3320024013519287,4.653227806091309,0.9753977060317993,1.950007677078247,3.9956278800964355,0.3188987076282501,-0.08111681789159775,-0.15008914470672607,3.0805246829986572
181,21750,21747,-0.05220671370625496,-0.0013228781754150987,1.052029013633728,0.43634048104286194,3.0778300762176514,1.3153717517852783,1.9510332345962524,3.9962921142578125,0.3194699287414551,-0.07992193847894669,-0.15189766883850098,3.103938341140747
182,21760,21757,0.039666980504989624,-0.08514080196619034,0.9710102081298828,0.9604689478874207,4.115442276000977,0.7738851308822632,1.951904296875,3.99619460105896,0.32003724575042725,-0.1501235067844391,-0.1446157693862915,3.1040971279144287
183,21770,21767,0.027216050773859024,-0.02375091426074505,0.9867900013923645,0.18019069731235504,6.383700847625732,0.29704904556274414,1.952368140220642,3.9964704513549805,0.32067346572875977,-0.15042844414710999,-0.13108158111572266,3.1170105934143066
184,21780,21777,0.005968144163489342,0.007301462348550558,0.9659388065338135,0.9724624156951904,0.16181831061840057,0.03820217028260231,1.9543935060501099,3.9964377880096436,0.32164084911346436,-0.3308334946632385,-0.1268533617258072,3.12188458442688
185,21790,21787,-0.05462007597088814,0.129755437374115,0.9994726777076721,-0.6986332535743713,1.2068474292755127,-0.014790304936468601,1.9552985429763794,3.996464967727661,0.32217949628829956,-0.4162680208683014,-0.11632997542619705,3.123812675476074
186,21800,21797,-0.012303804978728294,0.018598048016428947,0.9633582830429077,-0.7137163281440735,-0.32031625509262085,0.13238981366157532,1.955514669418335,3.995849609375,0.3228081166744232,-0.3358898460865021,-0.1267169713973999,3.1131246089935303
187,21810,21807,0.03907415643334389,-0.038937490433454514,0.9321317076683044,-0.8582223057746887,-2.5369014739990234,-0.8296292424201965,1.955135703086853,3.9960100650787354,0.32221975922584534,-0.23829354345798492,-0.13633236289024353,3.1042706966400146
188,21820,21817,-0.15374071896076202,0.05919130891561508,0.9802603721618652,-1.7437094449996948,-1.0885236263275146,0.1456342488527298,1.9558966159820557,3.9949285984039307,0.32266440987586975,-0.1709151715040207,0.014980815351009369,3.1084530353546143
189,21830,21827,-0.025530077517032623,0.037352416664361954,0.9566678404808044,-1.9827358722686768,-1.9892061948776245,-0.4526729881763458,1.9557716846466064,3.9959118366241455,0.3230532705783844,-0.13727951049804688,-0.1002611517906189,3.117784261703491
190,21840,21837,-0.0006818517576903105,0.049097947776317596,0.9488949775695801,-1.7768902778625488,0.20651385188102722,-0.5669223666191101,1.956671118736267,3.9964964389801025,0.323371946811676,-0.19022482633590698,-0.1364319920539856,3.115828514099121
191,21850,21847,-0.016064617782831192,0.02652045711874962,0.9561856389045715,-0.9900726675987244,0.6755273342132568,-0.6409944295883179,1.9574086666107178,3.9962594509124756,0.3217017352581024,-0.1932666152715683,-0.16916035115718842,3.111825704574585
192,21860,21857,0.03782004863023758,-0.07947744429111481,0.9436145424842834,-1.3977335691452026,2.815016031265259,-0.8747931718826294,1.958248257637024,3.997791290283203,0.32180365920066833,-0.21019966900348663,-0.26918163895606995,3.0992350578308105
193,21870,21867,0.029572203755378723,-0.09153056144714355,0.953330934047699,0.016214706003665924,3.755629539489746,-0.6858431696891785,1.9585119485855103,3.9977285861968994,0.32192376255989075,-0.1785673350095749,-0.2865022122859955,3.0989832878112793
194,21880,21877,-0.006293996702879667,0.040405116975307465,0.9832403659820557,1.170295000076294,3.761669158935547,-0.9907799363136292,1.9600461721420288,3.996734380722046,0.3222472369670868,-0.3238033354282379,-0.28115200996398926,3.080434560775757
195,21890,21887,-0.05716940015554428,0.09450263530015945,1.002453088760376,1.298566222190857,3.295717477798462,-1.422495722770691,1.9611055850982666,3.9966208934783936,0.3222678005695343,-0.3592011034488678,-0.2478063702583313,3.0703725814819336
196,21900,21897,-0.09310546517372131,0.15149304270744324,0.9733208417892456,1.6907274723052979,0.9772085547447205,-0.4319753646850586,1.9623111486434937,3.99654483795166,0.32227128744125366,-0.38591068983078003,-0.21043512225151062,3.058846950531006
197,21910,21907,0.01569007709622383,-0.035724855959415436,0.924220860004425,3.0564098358154297,-1.031464695930481,-0.968569815158844,1.962822437286377,3.996962785720825,0.32147645950317383,-0.3792239725589752,-0.24532730877399445,3.0545175075531006
198,21920,21917,0.0019404013874009252,-0.02286072075366974,0.9793516397476196,3.513166666030884,-2.1924571990966797,-0.8328419327735901,1.9626291990280151,3.996581554412842,0.32150188088417053,-0.26413485407829285,-0.1760806292295456,3.041944742202759
199,21930,21927,-0.01648479700088501,0.1002805233001709,0.9861415028572083,2.793417453765869,-3.0672242641448975,-0.40921175479888916,1.9631502628326416,3.9965600967407227,0.3213963806629181,-0.22751060128211975,-0.10891097784042358,3.044342517852783
200,21940,21937,-0.020121542736887932,0.02705293893814087,0.9604977965354919,1.421417474746704,-0.8967525959014893,-0.3035464584827423,1.96461021900177,3.9970297813415527,0.32043930888175964,-0.25722503662109375,-0.05679049342870712,3.038130760192871
201,21950,21947,0.044039513915777206,-0.09337445348501205,0.9286513328552246,0.8733982443809509,0.5752128958702087,-0.8630190491676331,1.9650129079818726,3.9974374771118164,0.3202049136161804,-0.23255133628845215,-0.03346169367432594,3.051520347595215
202,21960,21957,0.08112607151269913,-0.0930197685956955,1.007712483406067,-0.10953901708126068,1.6016277074813843,-0.6871490478515625,1.9671586751937866,3.9985954761505127,0.3198321461677551,-0.40240761637687683,-0.10215318202972412,3.0336413383483887
203,21970,21967,0.0725460946559906,-0.1250806599855423,1.0449488162994385,-0.5354746580123901,2.591273546218872,-1.4494527578353882,1.9671480655670166,3.9984512329101562,0.31965553760528564,-0.32022908329963684,-0.09877283126115799,3.0472617149353027
204,21980,21977,0.01639680191874504,-0.01024466473609209,0.9484243392944336,-0.40620800852775574,0.8482173085212708,-1.050687313079834,1.9676896333694458,3.998873710632324,0.32305094599723816,-0.34255659580230713,-0.09872416406869888,3.049023151397705
205,21990,21987,-0.09808991849422455,-0.00955167505890131,1.0577534437179565,0.4507714807987213,-0.6652568578720093,-0.9180170297622681,1.9691320657730103,3.99920654296875,0.32295510172843933,-0.3779081702232361,-0.09704229980707169,3.0403642654418945
206,22000,21997,-0.015222118236124516,-0.06637650728225708,1.0334051847457886,0.9273883104324341,-0.13161998987197876,-0.8785075545310974,1.9704930782318115,3.9997496604919434,0.3228667974472046,-0.4295332729816437,-0.0842810571193695,3.045952558517456
207,22010,22007,0.04160682484507561,-0.0366998165845871,0.9575044512748718,1.676893711090088,-2.4000439643859863,-1.1365492343902588,1.9711037874221802,4.000895023345947,0.3208695352077484,-0.38919657468795776,-0.1362987756729126,3.0339889526367188
208,22020,22017,-0.024989057332277298,0.08277400583028793,1.049566388130188,2.7242300510406494,-3.218782424926758,-0.5174046158790588,1.9724805355072021,3.9999396800994873,0.3207394480705261,-0.3939005732536316,-0.0922871083021164,3.030388832092285
209,22030,22027,-0.06953120231628418,-0.04503598064184189,1.0140761137008667,4.855437755584717,-6.1974873542785645,-0.49816375970840454,1.9718726873397827,3.9994773864746094,0.3208088278770447,-0.19938728213310242,-0.03206965699791908,3.0132288932800293
210,22040,22037,-0.12907369434833527,0.09309072047472,1.0109879970550537,3.340785503387451,-3.7966761589050293,-0.3543653190135956,1.972891926765442,4.0001983642578125,0.3197689354419708,-0.1285490244626999,-0.011770503595471382,3.015333414077759
211,22050,22047,-0.047892969101667404,0.11640547215938568,0.9446910619735718,0.9987679123878479,-0.9331547617912292,0.23632073402404785,1.974457025527954,3.999765157699585,0.31962427496910095,-0.1337454468011856,0.05294668301939964,3.0057239532470703
212,22060,22057,-0.02607160620391369,0.05452807992696762,1.0332611799240112,0.37071511149406433,1.7705081701278687,0.0282115675508976,1.9741108417510986,4.000467300415039,0.31955868005752563,-0.022092780098319054,0.0018763879779726267,2.9960310459136963
213,22070,22067,0.08467170596122742,-0.08817356079816818,0.9755998849868774,-1.4124877452850342,5.80929708480835,-0.21158111095428467,1.9749866724014282,4.000012397766113,0.31938910484313965,-0.035721201449632645,0.02381172776222229,3.004056930541992
214,22080,22077,0.06637018173933029,-0.0150375347584486,1.0103427171707153,-0.5712532997131348,3.279566764831543,-0.24999219179153442,1.9783084392547607,3.9999845027923584,0.3178947865962982,-0.34033143520355225,0.018922505900263786,2.9965975284576416
215,22090,22087,-0.012638039886951447,-0.07064559310674667,1.0137156248092651,0.25508376955986023,0.3918456435203552,-0.5166575312614441,1.9773796796798706,4.000761985778809,0.31783589720726013,-0.20348457992076874,0.02462618052959442,3.0041446685791016
216,22100,22097,0.06762779504060745,-0.06848412752151489,0.9235785603523254,0.6665117740631104,-0.9638631939888,-0.8996608853340149,1.9790196418762207,4.001368999481201,0.3174944519996643,-0.2774726450443268,0.04072127491235733,3.0115468502044678
217,22110,22107,-0.017723917961120605,0.001362908398732543,1.0146434307098389,1.3594101667404175,-2.9885008335113525,-0.6694241762161255,1.9787086248397827,4.001046657562256,0.31465283036231995,-0.1559610217809677,0.06602257490158081,2.9932079315185547
218,22120,22117,0.09213778376579285,-0.11446787416934967,0.9845103621482849,0.7858085632324219,-2.8905184268951416,-0.8070527911186218,1.979088306427002,4.002875804901123,0.31421682238578796,-0.10753408074378967,-0.06176302209496498,3.0054783821105957
219,22130,22127,0.03596537560224533,-0.1249801367521286,1.029873251914978,0.8803898096084595,-2.727468252182007,-0.9918286800384521,1.9803956747055054,4.002758502960205,0.313802570104599,-0.12203872948884964,-0.02696211263537407,3.0186777114868164
220,22140,22137,0.03583664447069168,-0.16425471007823944,0.9740723371505737,1.9093523025512695,-1.3408339023590088,-0.7082309722900391,1.982127070426941,4.004014015197754,0.31230223178863525,-0.22123029828071594,0.012906826101243496,3.0195183753967285
221,22150,22147,0.07560350000858307,-0.1235475242137909,0.9807820320129395,1.9351685047149658,-0.4831852614879608,-1.2034976482391357,1.982527256011963,4.003347396850586,0.31182533502578735,-0.15920215845108032,0.06825526058673859,3.0139222145080566
222,22160,22157,-0.012104375287890434,-0.022862328216433525,1.088546872138977,1.733896255493164,-2.105992078781128,-1.1620681285858154,1.9832639694213867,4.0037431716918945,0.3113415241241455,-0.11926648765802383,0.11435059458017349,3.0041465759277344
223,22170,22167,0.008127679117023945,-0.14156532287597656,1.0024213790893555,1.3044413328170776,-0.20914722979068756,-1.4048277139663696,1.9843363761901855,4.004817962646484,0.3098636269569397,-0.1351846307516098,0.07987762987613678,3.014730453491211
224,22180,22177,-0.015775149688124657,-0.014429496601223946,1.0388119220733643,0.8897676467895508,0.564987063407898,-1.5665583610534668,1.984330415725708,4.0053629875183105,0.30946552753448486,-0.03407738357782364,0.11613558232784271,3.0023982524871826
225,22190,22187,0.024151531979441643,-0.04526140168309212,1.0676295757293701,-0.335246741771698,0.41479113698005676,-0.8448501229286194,1.984715223312378,4.00532865524292,0.3089994788169861,-0.027094297111034393,0.14450374245643616,2.98171329498291
226,22200,22197,0.047331590205430984,-0.0665736049413681,1.0856635570526123,-0.0964919924736023,1.338037133216858,-1.314704418182373,1.9853819608688354,4.005384922027588,0.3085838258266449,-0.024407731369137764,0.1544099897146225,2.988184928894043
227,22210,22207,0.013683762401342392,0.02342401072382927,1.0252323150634766,-0.7192893028259277,1.8129963874816895,-1.4402599334716797,1.9872440099716187,4.006133079528809,0.30725160241127014,-0.12080851197242737,0.15890255570411682,2.9728541374206543
228,22220,22217,-0.04293418303132057,0.1269700527191162,1.1586270332336426,0.7598673701286316,-0.39642176032066345,-2.5390114784240723,1.9888838529586792,4.006979942321777,0.30683469772338867,-0.2005990594625473,0.1567944884300232,2.972576379776001
229,22230,22227,-0.07709786295890808,0.1015932485461235,1.0436159372329712,-1.0924383401870728,1.4254348278045654,-1.889221429824829,1.990152359008789,4.007786273956299,0.30649039149284363,-0.2603503465652466,0.0964922085404396,2.930936098098755
230,22240,22237,0.010391827672719955,-0.020724859088659286,1.0134650468826294,-0.7679742574691772,-0.6313758492469788,-2.1555140018463135,1.9912543296813965,4.007054805755615,0.305431991815567,-0.23657380044460297,0.09529490023851395,2.9103729724884033
231,22250,22247,0.02063879743218422,-0.04482157155871391,0.9787365794181824,0.09824927896261215,-0.6315616369247437,-2.6063053607940674,1.992864966392517,4.00656795501709,0.3051392436027527,-0.25756943225860596,0.09337691962718964,2.8825764656066895
232,22260,22257,-0.00325298635289073,0.006423458456993103,0.999884843826294,0.43000665307044983,-4.555080890655518,-1.8245794773101807,1.9943420886993408,4.007138252258301,0.3048563301563263,-0.2529010474681854,0.11159869283437729,2.8590309619903564
233,22270,22267,0.04152146726846695,-0.054555390030145645,0.9759561419487,1.072826862335205,-3.6144583225250244,-1.5505419969558716,1.9941545724868774,4.007011890411377,0.3033619821071625,-0.1482102870941162,0.1335912048816681,2.8490407466888428
234,22280,22277,0.038189180195331573,-0.12188258767127991,1.032070279121399,1.8402578830718994,-6.667594909667969,-1.4193319082260132,1.9954540729522705,4.007008075714111,0.30297645926475525,-0.10752509534358978,0.15830230712890625,2.8303844928741455
235,22290,22287,0.031154833734035492,-0.23258614540100098,1.1244890689849854,2.040462017059326,-9.823097229003906,-0.9490035772323608,1.9961631298065186,4.007772922515869,0.30264633893966675,0.008259912952780724,0.20104800164699554,2.8522653579711914
236,22300,22297,-0.006614293437451124,-0.1054907962679863,1.028123378753662,0.4962095022201538,-3.1366312503814697,-1.7497888803482056,1.9957714080810547,4.00806999206543,0.3024563789367676,0.18928325176239014,0.2424551099538803,2.8592896461486816
237,22310,22307,0.009740105830132961,-0.010419893078505993,0.977790892124176,-0.7634194493293762,0.04936998337507248,-1.995661735534668,1.9978893995285034,4.0089111328125,0.30273422598838806,0.08546984940767288,0.17431581020355225,2.838226318359375
238,22320,22317,0.03166099637746811,-0.12755395472049713,1.0689194202423096,-2.4022467136383057,1.996292233467102,-1.8273546695709229,1.999067783355713,4.0091352462768555,0.30248576402664185,0.028339574113488197,0.15812590718269348,2.824223756790161
239,22330,22327,0.06537766009569168,-0.255519300699234,1.049309492111206,-2.0200188159942627,3.8936216831207275,-1.7944304943084717,1.9986454248428345,4.009467124938965,0.302484929561615,0.13579604029655457,0.1247348040342331,2.7979040145874023
