,timestamp_start,timestamp_end,acc.x,acc.y,acc.z,gyro.x,gyro.y,gyro.z,stateEstimate.x,stateEstimate.y,stateEstimate.z,stabilizer.pitch,stabilizer.roll,stabilizer.yaw
0,21485,21482,-0.004815550986677408,0.01905428059399128,1.0222809314727783,11.61283016204834,6.745491027832031,0.9719411134719849,1.9082087278366089,3.9395976066589355,0.16281728446483612,1.3335567712783813,-0.21325992047786713,2.2347922325134277
1,21495,21492,-0.011506875976920128,-0.11136595904827118,1.0442464351654053,6.09363317489624,7.381597995758057,0.9323141574859619,1.9038833379745483,3.9419350624084473,0.1636389195919037,2.032688617706299,-0.03840227797627449,2.2111399173736572
2,21505,21502,0.01847807876765728,-0.027862822636961937,1.0199061632156372,0.7393451929092407,7.50894021987915,1.091398000717163,1.9036672115325928,3.9403529167175293,0.16598063707351685,1.8230072259902954,0.39494723081588745,2.1580069065093994
3,21515,21512,0.06555146723985672,-0.042487408965826035,1.036558985710144,-6.130971908569336,10.342604637145996,1.4791748523712158,1.9067425727844238,3.936631202697754,0.17031946778297424,0.9753289818763733,0.7408111095428467,2.101177453994751
4,21525,21522,0.02989186719059944,-0.044152501970529556,0.9989665150642395,-13.706024169921875,11.907086372375488,1.2721680402755737,1.9045573472976685,3.9405605792999268,0.1773063689470291,1.1251922845840454,-0.121571384370327,2.2744576930999756
5,21535,21532,-0.008008907549083233,0.01794729195535183,1.0522236824035645,-18.972087860107422,11.621981620788574,-0.10636268556118011,1.9045536518096924,3.9384381771087646,0.1787939816713333,0.9372042417526245,0.06360866874456406,2.2275800704956055
6,21545,21542,0.024692511186003685,0.07112161070108414,0.9639012813568115,-17.112266540527344,8.475218772888184,-0.07011711597442627,1.9040030241012573,3.939840793609619,0.18130023777484894,0.9768657684326172,-0.0634012445807457,2.2269535064697266
7,21555,21552,0.005267993547022343,0.07873554527759552,1.001219391822815,-11.731764793395996,3.433316707611084,0.4859708249568939,1.907804250717163,3.93565034866333,0.18367089331150055,0.3550688922405243,0.45672640204429626,2.088397979736328
8,21565,21562,-0.032442957162857056,-0.01598958484828472,1.108803629875183,-4.386320114135742,0.898465096950531,1.2771580219268799,1.9081097841262817,3.937135934829712,0.18756599724292755,0.36415591835975647,0.14773517847061157,2.120802879333496
9,21575,21572,0.03180217370390892,-0.037712596356868744,0.9761646389961243,-2.298318386077881,-4.134025573730469,1.3432698249816895,1.9059594869613647,3.937049150466919,0.190698504447937,0.48006671667099,-0.03918477147817612,2.1566948890686035
10,21585,21582,-0.013571035116910934,-0.06774705648422241,0.9992145299911499,-4.336754322052002,-7.1502366065979,0.9757514595985413,1.9054584503173828,3.9379258155822754,0.19359329342842102,0.5088532567024231,-0.18485134840011597,2.1827995777130127
11,21595,21592,0.036851443350315094,-0.03079528547823429,0.9708309173583984,-6.349726676940918,-7.525619029998779,0.7564493417739868,1.904566764831543,3.9380762577056885,0.196706160902977,0.6485375761985779,-0.41271549463272095,2.2150497436523438
12,21605,21602,0.0471208430826664,-0.02125324122607708,0.9561401605606079,-7.690217018127441,-7.767126083374023,0.36241286993026733,1.9020535945892334,3.939159631729126,0.19928522408008575,0.7878856062889099,-0.712605357170105,2.248950242996216
13,21615,21612,0.0440644845366478,-0.06035543605685234,1.0247681140899658,-5.6167521476745605,-5.411448001861572,-0.26072657108306885,1.9035362005233765,3.9404304027557373,0.2018129974603653,0.6990048289299011,-0.9183211326599121,2.259197950363159
14,21625,21622,0.06288217753171921,-0.11028961837291718,0.9590417146682739,-2.4330108165740967,-1.9450502395629883,-0.5625404715538025,1.901731252670288,3.940244436264038,0.20447228848934174,0.9334468841552734,-1.0064265727996826,2.263540029525757
15,21635,21632,0.06315384060144424,-0.06360095739364624,0.9485058784484863,4.868342399597168,1.9896739721298218,-0.9425516724586487,1.9048073291778564,3.940164089202881,0.2060866355895996,0.6689213514328003,-0.8066819906234741,2.23689866065979
16,21645,21642,0.00817044172435999,0.023963864892721176,0.9956063628196716,10.265101432800293,5.125527381896973,-0.9186508655548096,1.9059420824050903,3.94024920463562,0.20865309238433838,0.6643232703208923,-0.7345830202102661,2.2237045764923096
17,21655,21652,0.023111918941140175,-0.04407432675361633,0.9327322840690613,12.428374290466309,7.278169631958008,-1.9541043043136597,1.9051011800765991,3.9398646354675293,0.21126620471477509,0.7485092282295227,-0.5910359621047974,2.2061448097229004
18,21665,21662,0.062387771904468536,-0.055658407509326935,0.9180129766464233,11.7911958694458,5.64087438583374,-2.0285086631774902,1.8958293199539185,3.9409291744232178,0.21414898335933685,1.9648847579956055,-0.6282204389572144,2.1697041988372803
19,21675,21672,0.003076698165386915,-0.01096570398658514,0.974885880947113,8.309142112731934,6.717031002044678,-1.5850818157196045,1.8943467140197754,3.9428842067718506,0.2167174518108368,1.8678410053253174,-0.7250052690505981,2.1761648654937744
20,21685,21682,0.04003960266709328,-0.14518839120864868,0.9868962168693542,4.995947360992432,15.073099136352539,-1.449093222618103,1.8937928676605225,3.942103624343872,0.22045603394508362,1.5766667127609253,-0.5753572583198547,2.15800142288208
21,21695,21692,0.035926781594753265,-0.1641484647989273,1.029722809791565,1.6787948608398438,24.569780349731445,-1.2157760858535767,1.8930150270462036,3.942441701889038,0.22040770947933197,1.379080057144165,-0.5574729442596436,2.1496613025665283
22,21705,21702,-0.008917073719203472,0.1013028547167778,0.9981569051742554,0.6613751649856567,32.270835876464844,-1.2428351640701294,1.8941841125488281,3.9422073364257812,0.22322958707809448,0.8994144201278687,-0.583263635635376,2.149346113204956
23,21715,21712,0.022824959829449654,0.005391189828515053,0.9048730731010437,1.5000572204589844,34.52957534790039,-1.2663681507110596,1.8933466672897339,3.9425277709960938,0.2255326211452484,0.6292688846588135,-0.5388443470001221,2.126472234725952
24,21725,21722,0.02642006054520607,-0.04625378176569939,0.9141756296157837,3.841491937637329,31.127105712890625,-0.9066380262374878,1.8916932344436646,3.9440271854400635,0.22755958139896393,0.4004732370376587,-0.6848357915878296,2.127845525741577
25,21735,21732,-0.044675953686237335,-0.05753416195511818,0.9351497292518616,6.062503337860107,24.317045211791992,-1.7321327924728394,1.8910162448883057,3.9439730644226074,0.22734315693378448,0.013848270289599895,-0.5631373524665833,2.1084601879119873
26,21745,21742,-0.0370592400431633,-0.05017231032252312,0.9162164330482483,8.186673164367676,16.32293701171875,-1.5140633583068848,1.8907923698425293,3.9435243606567383,0.2294480800628662,-0.3915743827819824,-0.48575207591056824,2.0943856239318848
27,21755,21752,0.007163936272263527,0.06117623671889305,0.9097527265548706,10.220562934875488,9.390531539916992,-1.8858797550201416,1.8892494440078735,3.9445688724517822,0.23128250241279602,-0.5271947383880615,-0.5184485912322998,2.080674409866333
28,21765,21762,0.04603886231780052,-0.06424756348133087,0.9531479477882385,11.789083480834961,2.216944932937622,-1.943292498588562,1.8886053562164307,3.944021701812744,0.2317385971546173,-0.7451306581497192,-0.36514046788215637,2.0629355907440186
29,21775,21772,0.01604912057518959,-0.14209209382534027,1.0327281951904297,12.554763793945312,-2.2275078296661377,-2.131075382232666,1.8863136768341064,3.943484306335449,0.2334829717874527,-0.6990050077438354,-0.19122961163520813,2.0446019172668457
30,21785,21782,0.00679288012906909,-0.06534714996814728,0.9479072093963623,11.067941665649414,-4.865845203399658,-2.033348321914673,1.8856236934661865,3.9474544525146484,0.23507677018642426,-0.6699019074440002,-0.373084157705307,2.0092711448669434
31,21795,21792,-0.014343132264912128,-0.14560085535049438,0.9780798554420471,10.249391555786133,-2.0065696239471436,-1.9759654998779297,1.884760856628418,3.9474246501922607,0.23723560571670532,-0.6825303435325623,-0.18580009043216705,1.9939696788787842
32,21805,21802,0.00027546269120648503,-0.03555973246693611,0.973776638507843,10.037409782409668,0.6952325105667114,-2.05647873878479,1.884393334388733,3.9473118782043457,0.23890483379364014,-0.7225967645645142,-0.08567996323108673,1.974885106086731
33,21815,21812,-0.03277379274368286,-0.002791213570162654,0.9671541452407837,9.324455261230469,3.0394694805145264,-1.6699196100234985,1.8849250078201294,3.9479734897613525,0.24048903584480286,-0.800922155380249,-0.05930318683385849,1.9465280771255493
34,21825,21822,-0.011520951986312866,-0.011886758729815483,0.9622552990913391,9.623137474060059,2.7197415828704834,-1.7680282592773438,1.884492039680481,3.9475624561309814,0.24228501319885254,-0.8281974792480469,0.17833773791790009,1.943922996520996
35,21835,21832,0.02926500327885151,-0.1000421941280365,0.9596595168113708,8.385494232177734,5.028290748596191,-1.9048632383346558,1.8843660354614258,3.947800636291504,0.24306370317935944,-0.8611369132995605,0.32339414954185486,1.9334238767623901
36,21845,21842,0.04971928521990776,-0.06129957735538483,0.9342944622039795,7.588497638702393,1.7095317840576172,-1.8633613586425781,1.8835985660552979,3.947930097579956,0.2445635050535202,-0.9025170207023621,0.445787250995636,1.9215271472930908
37,21855,21852,0.03516250103712082,-0.1384189873933792,1.002940058708191,5.340780735015869,0.02263871394097805,-2.30820369720459,1.8838651180267334,3.948998212814331,0.2460489273071289,-0.9807116985321045,0.3957993686199188,1.8799105882644653
38,21865,21862,0.024360286071896553,-0.19847145676612854,0.9641898274421692,2.842660903930664,-1.7242664098739624,-2.599419593811035,1.883449673652649,3.9499752521514893,0.24600568413734436,-1.089119553565979,0.394797146320343,1.843684434890747
39,21875,21872,0.04162639006972313,-0.18961651623249054,0.9413060545921326,1.4716269969940186,-1.1534130573272705,-2.619272232055664,1.882199764251709,3.9505128860473633,0.24731898307800293,-1.0849742889404297,0.43800604343414307,1.8194365501403809
40,21885,21882,0.004108330234885216,0.01625477708876133,1.0155805349349976,2.489077091217041,-5.2483954429626465,-2.5636377334594727,1.8826931715011597,3.950385332107544,0.24865534901618958,-1.1370033025741577,0.5350543856620789,1.8043994903564453
41,21895,21892,0.07681920379400253,0.015083837322890759,0.9578725695610046,3.6515071392059326,-6.7263007164001465,-2.918339967727661,1.883065938949585,3.951589584350586,0.24781261384487152,-1.1382598876953125,0.4914991557598114,1.7624667882919312
42,21905,21902,0.11064483970403671,-0.010388677008450031,0.9558030962944031,4.18643045425415,-9.344882011413574,-2.855177879333496,1.8826075792312622,3.9519591331481934,0.2489863634109497,-1.0248247385025024,0.542786717414856,1.7413341999053955
43,21915,21912,0.11347653716802597,-0.05772116780281067,0.9851382970809937,5.194084644317627,-11.449378967285156,-2.7736544609069824,1.8818573951721191,3.951301097869873,0.2501866817474365,-0.8743513822555542,0.6747222542762756,1.7377219200134277
44,21925,21922,0.08551990240812302,-0.04845621436834335,1.0261822938919067,5.1476850509643555,-11.939735412597656,-2.8633105754852295,1.8844128847122192,3.953009843826294,0.25129392743110657,-0.9864471554756165,0.663412868976593,1.6736669540405273
45,21935,21932,0.04888998717069626,-0.033023759722709656,0.9939755797386169,3.3727760314941406,-10.774365425109863,-2.32918381690979,1.8828035593032837,3.953268527984619,0.2559168338775635,-0.7832872271537781,0.722764253616333,1.6550917625427246
46,21945,21942,0.022141821682453156,0.0017663146136328578,0.9987661242485046,1.3972774744033813,-8.80787467956543,-2.424839735031128,1.8825604915618896,3.953245162963867,0.2572634518146515,-0.6015542149543762,0.8256033658981323,1.6519275903701782
47,21955,21952,0.01155103649944067,0.11151721328496933,0.9758678674697876,0.5418856143951416,-7.71250057220459,-2.568042755126953,1.8831709623336792,3.954136848449707,0.258562833070755,-0.5328629016876221,0.822240948677063,1.6196534633636475
48,21965,21962,0.024938857182860374,-0.04017285257577896,0.9366738796234131,-0.31724533438682556,-5.963103771209717,-2.307938575744629,1.8834078311920166,3.955122232437134,0.2582394480705261,-0.47971853613853455,0.7294734120368958,1.5705103874206543
49,21975,21972,0.00426952401176095,0.005991525016725063,1.0238291025161743,-0.8164348602294922,-4.517018795013428,-1.9954683780670166,1.8840153217315674,3.9546587467193604,0.25945454835891724,-0.4509008824825287,0.8471925258636475,1.563069462776184
50,21985,21982,-0.013956903479993343,0.022848594933748245,1.0135977268218994,-0.04541591554880142,-4.0995306968688965,-2.2450461387634277,1.88446044921875,3.954796075820923,0.2606187164783478,-0.4437779486179352,0.8720359206199646,1.5427405834197998
51,21995,21992,0.02043825387954712,-0.05105850100517273,0.9404637813568115,-0.286600261926651,-3.613210916519165,-1.9384491443634033,1.8820202350616455,3.955320119857788,0.259348601102829,-0.2941429615020752,0.8266240358352661,1.5298466682434082
52,22005,22002,0.020042838528752327,-0.04503832012414932,0.9610493183135986,-0.46536603569984436,-3.516385316848755,-2.056469440460205,1.8834266662597656,3.954617500305176,0.2603764832019806,-0.4481673240661621,0.9304890036582947,1.498745322227478
53,22015,22012,0.00970782246440649,-0.04403926432132721,0.9788280725479126,-0.2010604441165924,-4.9666829109191895,-1.9403241872787476,1.8836591243743896,3.95463490486145,0.2613782286643982,-0.33562594652175903,0.9469023942947388,1.4908167123794556
54,22025,22022,-0.05888747796416283,-0.07262258231639862,0.99647057056427,-1.4425078630447388,-5.74762487411499,-2.314589500427246,1.8864874839782715,3.9553112983703613,0.26285460591316223,-0.43457964062690735,0.9575266242027283,1.4478332996368408
55,22035,22032,-0.017394892871379852,-0.03083639033138752,0.9974806904792786,-3.0732645988464355,-7.87307596206665,-2.1444435119628906,1.886698842048645,3.9561517238616943,0.2638317942619324,-0.3600989878177643,0.8690032958984375,1.4157646894454956
56,22045,22042,-0.008658423088490963,-0.025479452684521675,0.9907376766204834,-4.561882019042969,-9.502208709716797,-1.6426798105239868,1.8871862888336182,3.9575605392456055,0.2647665739059448,-0.33102840185165405,0.762294590473175,1.3762823343276978
57,22055,22052,0.008186019957065582,-0.09659739583730698,1.001665472984314,-4.538856506347656,-11.657997131347656,-1.4937126636505127,1.8863145112991333,3.958207845687866,0.2657890319824219,-0.11846883594989777,0.7179316282272339,1.378047227859497
58,22065,22062,0.04219358041882515,-0.19858644902706146,1.0002834796905518,-3.64056396484375,-12.067910194396973,-1.6345077753067017,1.8893848657608032,3.958726167678833,0.2678259611129761,-0.18211190402507782,0.7461533546447754,1.3426507711410522
59,22075,22072,0.006453432142734528,-0.03297675773501396,1.0205891132354736,-1.5905882120132446,-12.263910293579102,-1.1238696575164795,1.8896372318267822,3.9598777294158936,0.26889926195144653,-0.0011583914747461677,0.7854540944099426,1.342270016670227
60,22085,22082,0.01438099518418312,-0.11210325360298157,1.0153002738952637,0.1935179978609085,-11.369139671325684,-0.9378567337989807,1.8898050785064697,3.96075439453125,0.269963800907135,0.24237032234668732,0.7738290429115295,1.3478541374206543
61,22095,22092,0.02499413676559925,-0.06440071761608124,1.0163943767547607,-0.2481193244457245,-9.151307106018066,-1.2176611423492432,1.8925127983093262,3.9612550735473633,0.2687378525733948,0.16983892023563385,0.7817321419715881,1.305723786354065
62,22105,22102,-0.014323444105684757,-0.13348641991615295,1.0323593616485596,-1.7815067768096924,-6.388917922973633,-0.7918651103973389,1.892909288406372,3.9629878997802734,0.2697078585624695,0.37016561627388,0.7021729946136475,1.305627703666687
63,22115,22112,0.02542615309357643,0.031116515398025513,0.9572263956069946,-3.640218734741211,-4.611170768737793,-0.47579237818717957,1.8937273025512695,3.9636566638946533,0.2707298696041107,0.44052374362945557,0.6700385808944702,1.2956299781799316
64,22125,22122,0.039136845618486404,-0.0017884543631225824,0.9712502956390381,-3.855238914489746,-2.500239133834839,-0.3718630075454712,1.8945930004119873,3.964487075805664,0.2696763575077057,0.40223896503448486,0.6194512844085693,1.2768058776855469
65,22135,22132,0.04186844080686569,0.15248620510101318,0.9857427477836609,-2.952690362930298,-2.7311289310455322,0.4220968186855316,1.894714593887329,3.965184450149536,0.27050453424453735,0.4950961172580719,0.5707566142082214,1.2834686040878296
66,22145,22142,0.03800000995397568,0.1148574948310852,0.9784678816795349,-2.5943474769592285,-5.378750324249268,0.25170713663101196,1.8951611518859863,3.964494228363037,0.27127528190612793,0.5206193327903748,0.6084321141242981,1.287338137626648
67,22155,22152,-0.022837085649371147,-0.09504816681146622,0.9957442879676819,-1.1052805185317993,-6.728273868560791,0.18188947439193726,1.8965904712677002,3.964556932449341,0.2720058560371399,0.5153653621673584,0.6542267799377441,1.2800698280334473
68,22165,22162,-0.044442906975746155,-0.05533144250512123,1.0043190717697144,-1.3726377487182617,-8.009346961975098,0.40864235162734985,1.896895408630371,3.9645471572875977,0.27343472838401794,0.6090441346168518,0.7017920613288879,1.2837551832199097
69,22175,22172,-0.032156556844711304,-0.016193948686122894,0.986076295375824,-2.925943374633789,-7.907186031341553,0.9071434140205383,1.8971985578536987,3.9654641151428223,0.27422237396240234,0.7101847529411316,0.652736246585846,1.2903937101364136
70,22185,22182,-0.01223456859588623,-0.01985188201069832,0.9485397934913635,-5.395954132080078,-6.73259162902832,1.0683563947677612,1.8982127904891968,3.965928077697754,0.275014191865921,0.7272636890411377,0.5734623074531555,1.2930089235305786
71,22195,22192,0.0004107278655283153,-0.015298889949917793,1.003626823425293,-7.443404197692871,-5.142837047576904,1.0604907274246216,1.8976194858551025,3.967451333999634,0.2764797508716583,0.8789050579071045,0.4634847044944763,1.3151755332946777
72,22205,22202,0.02518482506275177,-0.12256467342376709,0.9998311996459961,-8.314996719360352,-3.520836114883423,1.1890618801116943,1.8967883586883545,3.9669954776763916,0.2772843837738037,0.9881904125213623,0.4783985912799835,1.3269647359848022
73,22215,22212,0.05529124662280083,-0.20766860246658325,1.0108164548873901,-8.456331253051758,-2.3358376026153564,1.1538981199264526,1.8970656394958496,3.967245101928711,0.2781634032726288,0.9959874153137207,0.31624898314476013,1.3422273397445679
74,22225,22222,0.027645861729979515,-0.2095412015914917,1.04050612449646,-6.928102493286133,0.5233265161514282,1.000259280204773,1.897103190422058,3.9688162803649902,0.2757568657398224,1.0467792749404907,0.17839354276657104,1.3628102540969849
75,22235,22232,0.016914300620555878,-0.09097222238779068,0.9700104594230652,-3.982527017593384,1.1612019538879395,1.5192800760269165,1.896813154220581,3.967158317565918,0.2765357792377472,0.9684987664222717,0.2210351973772049,1.3577454090118408
76,22245,22242,0.016120847314596176,-0.05576604977250099,1.0086383819580078,-1.2461867332458496,2.5870981216430664,1.4766992330551147,1.896725058555603,3.9676878452301025,0.27719026803970337,0.9627376198768616,0.16031500697135925,1.3761534690856934
77,22255,22252,0.012219361960887909,0.04676331579685211,0.9996011853218079,-0.48583877086639404,3.8840067386627197,1.7059248685836792,1.8958460092544556,3.967738151550293,0.27787068486213684,0.926540732383728,0.13207507133483887,1.3920128345489502
78,22265,22262,0.0474138967692852,-0.06960269808769226,0.9238927960395813,0.2490958869457245,2.9427030086517334,2.421452760696411,1.8954037427902222,3.9670982360839844,0.2807667851448059,0.964940071105957,0.12022457271814346,1.4168527126312256
79,22275,22272,-0.00250833947211504,0.018609054386615753,1.0534193515777588,0.24930623173713684,1.8905400037765503,2.2191996574401855,1.8953006267547607,3.9675240516662598,0.2815307676792145,0.943184494972229,0.11657776683568954,1.4428694248199463
80,22285,22282,0.020925747230648994,0.003068457590416074,1.004211187362671,-0.8485872149467468,2.626293897628784,2.101761817932129,1.896069884300232,3.96775221824646,0.2822837233543396,0.8569992780685425,0.10663482546806335,1.4642807245254517
81,22295,22292,0.0026702284812927246,-0.010919613763689995,1.015402913093567,-1.8366236686706543,0.17059484124183655,1.8045945167541504,1.8952863216400146,3.9675300121307373,0.2851085960865021,0.9180958271026611,0.15195885300636292,1.4808080196380615
82,22305,22302,-0.013724464923143387,-0.016113940626382828,1.0143301486968994,-3.157365322113037,-0.2990562617778778,1.7634212970733643,1.896165370941162,3.9684109687805176,0.2860296964645386,0.8557349443435669,0.09799326211214066,1.5023555755615234
83,22315,22312,0.018210409209132195,-0.0064909569919109344,0.9832378625869751,-3.441711664199829,-0.18615463376045227,1.4934020042419434,1.8953516483306885,3.967923164367676,0.2869188189506531,0.9419212341308594,0.10280274599790573,1.517526626586914
84,22325,22322,0.03629270941019058,-0.04290440306067467,0.9655973315238953,-3.4305999279022217,0.28327715396881104,1.7298303842544556,1.8954569101333618,3.968604564666748,0.2888890504837036,0.9431526064872742,0.031388334929943085,1.5381523370742798
85,22335,22332,0.004897775128483772,-0.07363375276327133,1.0370879173278809,-4.42219352722168,2.324239730834961,1.687586784362793,1.8956538438796997,3.9685251712799072,0.2898578345775604,0.941325843334198,-0.040156468749046326,1.5624098777770996
86,22345,22342,0.01150711439549923,-0.05495336279273033,0.9790199995040894,-3.701829195022583,4.651787281036377,1.3014180660247803,1.8947559595108032,3.9676358699798584,0.29088830947875977,0.8881708979606628,0.035782016813755035,1.562690019607544
87,22355,22352,-0.03708522394299507,-0.019467564299702644,1.0139580965042114,-1.4667192697525024,5.396659851074219,1.1680606603622437,1.894423246383667,3.9655230045318604,0.29048675298690796,0.8200835585594177,0.20289893448352814,1.5526477098464966
88,22365,22362,-0.01199578307569027,0.024340791627764702,1.0234798192977905,-0.6383697986602783,6.876028537750244,1.4335782527923584,1.8944306373596191,3.9665799140930176,0.2914765477180481,0.7135704755783081,-0.004074775613844395,1.5896116495132446
89,22375,22372,-0.021761206910014153,0.033304378390312195,1.0148407220840454,-2.043177843093872,6.4201273918151855,1.39759361743927,1.8946986198425293,3.966339349746704,0.29239532351493835,0.6240707635879517,-0.03911799192428589,1.608310341835022
90,22385,22382,-0.021242361515760422,-0.06079718843102455,1.0256397724151611,-3.637537717819214,5.706409454345703,1.332847237586975,1.8943079710006714,3.966576337814331,0.2932983636856079,0.588147759437561,-0.10934530943632126,1.6279518604278564
91,22395,22392,0.028547566384077072,0.07496282458305359,0.9558318257331848,-4.394462585449219,2.9057371616363525,1.4490784406661987,1.8945667743682861,3.9667139053344727,0.29373523592948914,0.5158824920654297,-0.1927231103181839,1.6465853452682495
92,22405,22402,0.07502172142267227,0.16336990892887115,0.9434218406677246,-4.502962112426758,4.2929182052612305,1.6307449340820312,1.893053412437439,3.9636824131011963,0.29465752840042114,0.6924005746841431,0.024257807061076164,1.6330825090408325
93,22415,22412,0.012412398122251034,0.02636088989675045,0.9688411951065063,-3.942654609680176,7.162332534790039,1.8412307500839233,1.8938541412353516,3.962331533432007,0.29552367329597473,0.5763737559318542,-0.0042190696112811565,1.6485283374786377
94,22425,22422,0.04368310049176216,0.004161848220974207,0.9461929202079773,-4.415767192840576,14.150524139404297,1.6332578659057617,1.8952535390853882,3.9631032943725586,0.29892054200172424,0.38722673058509827,-0.10355030000209808,1.6744000911712646
95,22435,22432,0.03600677475333214,-0.041597627103328705,0.9492445588111877,-5.376405715942383,19.717620849609375,1.8399920463562012,1.8935272693634033,3.9624364376068115,0.2998587489128113,0.4044860005378723,-0.14059025049209595,1.6865851879119873
96,22445,22442,0.017283938825130463,-0.11418312042951584,0.9733337163925171,-5.1780314445495605,22.884140014648438,1.5875892639160156,1.8944205045700073,3.962656021118164,0.3007485568523407,0.038140978664159775,-0.26100262999534607,1.7129353284835815
97,22455,22452,0.015904823318123817,-0.03349347040057182,0.9755820631980896,-6.005686283111572,24.488174438476562,1.4615161418914795,1.893917202949524,3.9626901149749756,0.3016911447048187,-0.22305546700954437,-0.3799683451652527,1.7337462902069092
98,22465,22462,0.07242268323898315,-0.04375457018613815,0.9462085962295532,-5.799109935760498,22.857810974121094,1.96010160446167,1.8943283557891846,3.9619784355163574,0.30244261026382446,-0.5570414662361145,-0.3507441580295563,1.7487759590148926
99,22475,22472,0.04942166805267334,-0.03553047403693199,0.9421588182449341,-4.285545825958252,19.2460994720459,2.480313777923584,1.8934494256973267,3.9623191356658936,0.3032841384410858,-0.6793562173843384,-0.46153724193573,1.7674343585968018
100,22485,22482,-0.02803702838718891,0.021934915333986282,0.9510868787765503,-2.712369203567505,12.045818328857422,2.6781811714172363,1.8937349319458008,3.9620611667633057,0.3039661645889282,-0.8637176156044006,-0.4614070951938629,1.7936323881149292
101,22495,22492,-0.027449021115899086,0.02093750610947609,0.9865535497665405,-1.3650611639022827,8.344109535217285,2.810487985610962,1.8940486907958984,3.96148681640625,0.30456990003585815,-1.0326011180877686,-0.518500030040741,1.820729374885559
102,22505,22502,-0.00014540133997797966,-0.05555357038974762,0.9774852991104126,0.4733850657939911,3.902303457260132,2.241218328475952,1.892238736152649,3.961876392364502,0.3053721785545349,-0.8753968477249146,-0.456371545791626,1.840641975402832
103,22515,22512,-0.02219490334391594,-0.08180568367242813,1.0191036462783813,2.455387830734253,1.173659086227417,2.647233724594116,1.8907500505447388,3.961907386779785,0.3059946894645691,-0.8285415172576904,-0.449079692363739,1.8621611595153809
104,22525,22522,-0.0043280404061079025,0.0036227048840373755,1.003917932510376,2.806379556655884,2.9811744689941406,2.120387077331543,1.8910775184631348,3.9625184535980225,0.3045269250869751,-0.8851773738861084,-0.4249699115753174,1.8892524242401123
105,22535,22532,0.02493009902536869,-0.0020478416699916124,0.9585543274879456,2.5670132637023926,6.421776294708252,2.1206109523773193,1.891797423362732,3.9622769355773926,0.3050178587436676,-0.9767675995826721,-0.40757307410240173,1.9125202894210815
106,22545,22542,0.018311088904738426,0.015050679445266724,0.9843928813934326,1.2352986335754395,10.139666557312012,2.4034242630004883,1.890885353088379,3.962005138397217,0.3055167496204376,-0.9724572896957397,-0.39280635118484497,1.9273709058761597
107,22555,22552,0.01723400503396988,-0.008711345493793488,0.9563159346580505,0.3619205355644226,12.515366554260254,2.6081230640411377,1.8925749063491821,3.963327407836914,0.30545327067375183,-1.1806279420852661,-0.3933141529560089,1.9602726697921753
108,22565,22562,-0.006575247272849083,0.12723611295223236,0.9263927936553955,-1.1207777261734009,14.302705764770508,2.1892893314361572,1.8909507989883423,3.9642062187194824,0.30543264746665955,-1.2631556987762451,-0.4867114722728729,1.9686397314071655
109,22575,22572,-0.017566556110978127,0.19982577860355377,0.9561567306518555,-1.8402775526046753,14.004273414611816,2.0731091499328613,1.8912395238876343,3.963618278503418,0.3057711124420166,-1.5129767656326294,-0.5210972428321838,1.9925421476364136
110,22585,22582,0.006732459180057049,0.006096293684095144,0.9615983963012695,-0.9492635726928711,12.132566452026367,2.384655714035034,1.892325520515442,3.9637200832366943,0.3060236871242523,-1.7265136241912842,-0.5498023629188538,2.018071413040161
111,22595,22592,0.055927298963069916,-0.013030552305281162,0.9590734839439392,1.2968332767486572,7.373520374298096,1.5298115015029907,1.891722321510315,3.962707996368408,0.30618348717689514,-1.8099082708358765,-0.48020586371421814,2.0511555671691895
112,22605,22602,0.009598901495337486,-0.04065541923046112,0.9340298175811768,3.006063461303711,2.446011543273926,1.3860678672790527,1.8917127847671509,3.962247133255005,0.30641090869903564,-1.8684101104736328,-0.4515879154205322,2.0685532093048096
113,22615,22612,0.0018104531336575747,-0.011056900024414062,0.9728192090988159,3.573429822921753,-2.1846365928649902,1.2219367027282715,1.891580581665039,3.962120294570923,0.30657264590263367,-1.855385184288025,-0.40792161226272583,2.084153890609741
114,22625,22622,0.041246939450502396,-0.0428207702934742,0.9574689865112305,3.21272611618042,-4.860525608062744,0.9094998240470886,1.8912724256515503,3.962855577468872,0.3074246048927307,-1.7752203941345215,-0.4314793050289154,2.080481767654419
115,22635,22632,-0.012522060424089432,0.007640074007213116,1.0177584886550903,3.4518816471099854,-5.729959011077881,0.8622139692306519,1.8909348249435425,3.962632179260254,0.30743131041526794,-1.8075764179229736,-0.3740787208080292,2.102065324783325
116,22645,22642,-0.01826680265367031,-0.026909926906228065,1.0025513172149658,3.502993106842041,-5.550521373748779,1.486501693725586,1.8901704549789429,3.9626004695892334,0.3076477646827698,-1.600420355796814,-0.31740570068359375,2.109909772872925
117,22655,22652,-0.026110049337148666,0.01017460785806179,1.025960087776184,3.0882530212402344,-3.244685173034668,0.9383123517036438,1.8900450468063354,3.962374210357666,0.30522993206977844,-1.5131633281707764,-0.266372412443161,2.1241281032562256
118,22665,22662,0.0006009252392686903,-0.04737657681107521,0.9793015122413635,1.7684255838394165,0.14088337123394012,1.2265477180480957,1.8915940523147583,3.962547779083252,0.30510324239730835,-1.7002817392349243,-0.2358679473400116,2.1512060165405273
119,22675,22672,-0.014585659839212894,-0.002931384602561593,1.022915005683899,1.0760530233383179,2.7116456031799316,1.422410249710083,1.8916410207748413,3.962676525115967,0.305094450712204,-1.6898826360702515,-0.2160033881664276,2.163797616958618
120,22685,22682,0.035670578479766846,-0.00510462885722518,1.0005449056625366,0.05973281338810921,2.2568392753601074,0.8259727954864502,1.8921561241149902,3.9627413749694824,0.3034583330154419,-1.6901532411575317,-0.29026052355766296,2.149841785430908
121,22695,22692,0.014270217157900333,0.004606368951499462,1.0086429119110107,-0.19562382996082306,1.1401543617248535,0.38937851786613464,1.893798589706421,3.963118553161621,0.3032572567462921,-1.8305422067642212,-0.2831754982471466,2.1672143936157227
122,22705,22702,0.008870227262377739,-0.019986681640148163,1.0077143907546997,0.5072001218795776,-0.5955840349197388,0.5981953740119934,1.8938403129577637,3.9633798599243164,0.30317649245262146,-1.779659390449524,-0.2862432897090912,2.1679904460906982
123,22715,22712,0.02354041486978531,-0.008311904966831207,1.0082029104232788,2.1343882083892822,-5.171262741088867,0.23502707481384277,1.8936655521392822,3.9632623195648193,0.303158164024353,-1.6730352640151978,-0.2603124976158142,2.1720223426818848
124,22725,22722,0.026418952271342278,-0.03847618028521538,0.9861539006233215,2.4526312351226807,-7.965908050537109,0.46885964274406433,1.8956612348556519,3.9629783630371094,0.3045883774757385,-1.8164043426513672,-0.21886135637760162,2.194613456726074
125,22735,22732,-0.022744696587324142,-0.0017789171542972326,1.0515447854995728,3.35662579536438,-8.357633590698242,0.3821190893650055,1.8955827951431274,3.962785005569458,0.3047158718109131,-1.6066348552703857,-0.1700972616672516,2.1978976726531982
126,22745,22742,0.02992897294461727,-0.09723598510026932,1.0222562551498413,3.313803195953369,-9.526124000549316,0.5072141885757446,1.8950105905532837,3.9640491008758545,0.3048580288887024,-1.37962806224823,-0.18653452396392822,2.1817030906677246
127,22755,22752,-0.004036967642605305,-0.011436031199991703,1.0402066707611084,1.5108835697174072,-8.329438209533691,0.4793146252632141,1.8976242542266846,3.96398663520813,0.3025664985179901,-1.4806201457977295,-0.14193212985992432,2.2022855281829834
128,22765,22762,0.009812788106501102,-0.07119637727737427,1.0134910345077515,0.9621065258979797,-4.469891548156738,0.27829501032829285,1.898813247680664,3.9639780521392822,0.3024975657463074,-1.4222660064697266,-0.1116144135594368,2.214291572570801
129,22775,22772,-0.002545478055253625,-0.039105914533138275,1.0021469593048096,0.28934210538864136,-3.310638189315796,0.12820909917354584,1.8992388248443604,3.963895797729492,0.30249321460723877,-1.3488471508026123,-0.10031365603208542,2.2156262397766113
130,22785,22782,-0.00864767748862505,0.005439913831651211,1.0557690858840942,-0.0891730859875679,-3.2359862327575684,0.22527186572551727,1.901313304901123,3.963005542755127,0.30485156178474426,-1.3663508892059326,-0.10104643553495407,2.2195866107940674
131,22795,22792,0.07951956987380981,-0.13545019924640656,1.005138635635376,0.3642900586128235,-4.047739028930664,0.7107272744178772,1.9018456935882568,3.9634299278259277,0.30503836274147034,-1.313305139541626,-0.10159651190042496,2.2249367237091064
132,22805,22802,0.016051722690463066,-0.01759360171854496,1.0269607305526733,0.28112682700157166,-6.2484211921691895,0.3189488351345062,1.9021022319793701,3.9634852409362793,0.305147647857666,-1.2933255434036255,-0.09592139720916748,2.2339062690734863
133,22815,22812,0.011010782793164253,-0.1357303261756897,1.0212535858154297,1.2823760509490967,-7.865453243255615,0.2957720458507538,1.9033633470535278,3.962761878967285,0.305307537317276,-1.2970095872879028,-0.07638443261384964,2.2407188415527344
134,22825,22822,0.005034216679632664,-0.034767214208841324,1.0345321893692017,1.4767544269561768,-9.581933975219727,0.4944046437740326,1.9034526348114014,3.9632794857025146,0.3060707747936249,-1.1242965459823608,-0.12460751086473465,2.2244410514831543
135,22835,22832,-0.011400402523577213,0.03344374895095825,1.0402559041976929,1.7576847076416016,-11.478116989135742,0.5021535158157349,1.903292179107666,3.9632110595703125,0.3063114583492279,-1.0046578645706177,-0.08726996183395386,2.2327775955200195
136,22845,22842,-0.015524936839938164,0.01457445602864027,1.0415726900100708,1.602295994758606,-12.293325424194336,-0.2625528872013092,1.9040207862854004,3.9621121883392334,0.3065597116947174,-0.9310125708580017,-0.05542321503162384,2.241558790206909
137,22855,22852,0.0036961189471185207,0.05581740662455559,0.9867567420005798,1.5090771913528442,-10.080552101135254,-0.1938984990119934,1.9037387371063232,3.962228536605835,0.30589622259140015,-0.7983373999595642,-0.02818502113223076,2.240327835083008
138,22865,22862,-0.04521840065717697,0.10330995917320251,1.037334680557251,1.234511137008667,-9.0866117477417,0.3399854004383087,1.9061846733093262,3.9624085426330566,0.3061191141605377,-0.8310288190841675,-0.075853131711483,2.229888677597046
139,22875,22872,0.03002098575234413,0.0016830360982567072,0.9342344999313354,1.757628321647644,-7.092520713806152,0.3026389181613922,1.9074161052703857,3.9630534648895264,0.30645403265953064,-0.7523741722106934,-0.045571859925985336,2.23290753364563
140,22885,22882,-0.014258286915719509,0.029655151069164276,1.0410155057907104,3.0840389728546143,-8.100006103515625,-0.27566438913345337,1.9080537557601929,3.9622247219085693,0.30401766300201416,-0.5940731763839722,0.06972413510084152,2.252441644668579
141,22895,22892,-0.017986029386520386,0.044349055737257004,1.0149669647216797,1.398020625114441,-5.542779445648193,-0.0005632497486658394,1.9118658304214478,3.963585376739502,0.3039923906326294,-0.7536707520484924,0.03151996061205864,2.2451088428497314
142,22905,22902,0.02036054991185665,-0.0006442590965889394,1.0073893070220947,0.6672161221504211,-6.059319972991943,-0.0659903809428215,1.91258704662323,3.963547706604004,0.30425190925598145,-0.6007688641548157,0.050580039620399475,2.2439801692962646
143,22915,22912,-0.01744881458580494,0.12743614614009857,1.0051417350769043,0.0832352414727211,-7.458771705627441,-0.4516841173171997,1.9129606485366821,3.9635393619537354,0.3043287992477417,-0.45155391097068787,0.06092967838048935,2.2420876026153564
144,22925,22922,0.012315730564296246,0.024958694353699684,0.9620608687400818,-0.46611425280570984,-8.183065414428711,-0.7979939579963684,1.915729284286499,3.9624829292297363,0.30435484647750854,-0.49962350726127625,0.13159091770648956,2.2456202507019043
145,22935,22932,-0.03868761658668518,0.0629759207367897,1.094671607017517,-0.20279599726200104,-7.899405479431152,-0.9172345995903015,1.9155819416046143,3.962491273880005,0.30469414591789246,-0.23463021218776703,0.11902060359716415,2.2358880043029785
146,22945,22942,0.05476760119199753,-0.04069491848349571,0.9705598950386047,-0.6312844157218933,-7.233312606811523,-1.3330265283584595,1.9169025421142578,3.9623653888702393,0.30481237173080444,-0.21844740211963654,0.11115650087594986,2.2233922481536865
147,22955,22952,-0.023655500262975693,-0.007911257445812225,1.0555914640426636,-1.0963388681411743,-5.796140670776367,-1.23972749710083,1.919683814048767,3.9626877307891846,0.30594170093536377,-0.29196226596832275,0.014736095443367958,2.200592517852783
148,22965,22962,-0.061758723109960556,0.02141602709889412,1.0234659910202026,-2.1973929405212402,-4.945860385894775,-0.8588455319404602,1.9211539030075073,3.962355136871338,0.3061968684196472,-0.21636852622032166,0.06577426940202713,2.1927614212036133
149,22975,22972,-0.031683869659900665,0.09407829493284225,1.0336520671844482,-1.2879780530929565,-5.487011909484863,-0.7997151613235474,1.920710563659668,3.963287353515625,0.306669682264328,0.003718690015375614,0.03252755478024483,2.191913604736328
150,22985,22982,0.006191710941493511,0.02390744537115097,1.003341794013977,-1.2236175537109375,-5.976868152618408,-0.8189599514007568,1.9230610132217407,3.96443772315979,0.3079153895378113,-0.08016610890626907,0.0065488968975842,2.1878280639648438
151,22995,22992,0.006447287742048502,-0.04372195526957512,0.9943099021911621,-0.5324384570121765,-5.491686820983887,-0.9224335551261902,1.922770619392395,3.964456081390381,0.30845004320144653,0.1452535092830658,-0.0021301626693457365,2.181131362915039
152,23005,23002,-0.026598524302244186,0.024842772632837296,1.0035693645477295,0.40971848368644714,-5.077088356018066,-0.8472481966018677,1.92575204372406,3.966428279876709,0.3087548315525055,0.05451798066496849,0.0063887108117341995,2.178436517715454
153,23015,23012,-0.02504046820104122,-0.0033416086807847023,1.0082906484603882,0.45157042145729065,-3.8898088932037354,-0.5722129940986633,1.9268780946731567,3.9657580852508545,0.3087892234325409,0.11443591862916946,0.08763854950666428,2.1729836463928223
154,23025,23022,-0.006880986969918013,0.08193032443523407,0.939251720905304,-0.07750918716192245,-2.6208205223083496,-0.8646007776260376,1.926891803741455,3.9673233032226562,0.30929887294769287,0.27621257305145264,0.08073139935731888,2.178640127182007
155,23035,23032,-0.033677659928798676,0.13321173191070557,0.9872409105300903,0.692721426486969,-4.8921027183532715,-0.5240315198898315,1.9280630350112915,3.968658685684204,0.3096776604652405,0.2798232436180115,0.07335152477025986,2.187122344970703
156,23045,23042,-0.056408073753118515,-0.09712716937065125,1.0148146152496338,0.18168024718761444,-5.062653541564941,-1.5132240056991577,1.9294135570526123,3.9703168869018555,0.3100436329841614,0.36097925901412964,0.008703399449586868,2.1791934967041016
157,23055,23052,-0.15812671184539795,-0.06373699009418488,1.0891374349594116,-0.7671483755111694,-0.8340464234352112,-0.6416330933570862,1.9301692247390747,3.9714274406433105,0.31028833985328674,0.4382556974887848,-0.0034243366681039333,2.1802875995635986
158,23065,23062,-0.03248804435133934,-0.023350972682237625,1.0110273361206055,-1.1469680070877075,1.6931028366088867,-1.217751383781433,1.9338538646697998,3.9718565940856934,0.3104992210865021,0.16777518391609192,-0.016602346673607826,2.16601824760437
159,23075,23072,0.045893773436546326,0.06469053775072098,0.9594407081604004,-1.0473705530166626,2.9801101684570312,-0.380214124917984,1.9346816539764404,3.971985101699829,0.3109683394432068,0.18499910831451416,0.04146819934248924,2.1659765243530273
160,23085,23082,0.015315406024456024,0.22399553656578064,0.979751467704773,-0.8353502154350281,1.6402034759521484,0.02554970793426037,1.935193419456482,3.9720189571380615,0.3110449016094208,0.27984192967414856,0.020579015836119652,2.164159059524536
161,23095,23092,0.0031127766706049442,-0.07213041186332703,0.9703876972198486,-0.16790199279785156,-0.8831138610839844,-0.49587491154670715,1.937477469444275,3.9722683429718018,0.31132394075393677,0.1737222522497177,0.008853458799421787,2.1596527099609375
162,23105,23102,-0.012000303715467453,-0.06100437417626381,1.004049301147461,-0.626471996307373,-3.008234739303589,-0.08124483376741409,1.9385323524475098,3.9723610877990723,0.3117694556713104,0.25942233204841614,0.0010560883674770594,2.1594884395599365
163,23115,23112,0.0016934990417212248,-0.0019868509843945503,0.9934530258178711,-1.4618366956710815,-5.579109191894531,-0.5507925152778625,1.938335657119751,3.972435235977173,0.312170147895813,0.37954944372177124,-0.017597228288650513,2.15140438079834
164,23125,23122,0.018977655097842216,-0.010913209989666939,0.9693052768707275,-2.3518526554107666,-7.385682582855225,-0.4743576943874359,1.9401743412017822,3.9721291065216064,0.31247109174728394,0.3805461823940277,-0.05342720448970795,2.1478378772735596
165,23135,23132,-0.03561556711792946,0.10786445438861847,0.971117377281189,-3.3129379749298096,-6.41922664642334,-0.7732048630714417,1.9411640167236328,3.971435785293579,0.312843382358551,0.4575449526309967,-0.0315038301050663,2.1323108673095703
166,23145,23142,-0.04860356077551842,0.09809949994087219,0.9926016926765442,-2.690251588821411,-4.406169891357422,-0.505683958530426,1.9428470134735107,3.971546173095703,0.31305161118507385,0.43329834938049316,-0.08724508434534073,2.1274397373199463
167,23155,23152,0.07099321484565735,-0.0011724467622116208,0.9195600748062134,-1.8602879047393799,-0.6981222033500671,-0.18782566487789154,1.9439456462860107,3.9716827869415283,0.31059974431991577,0.4997822046279907,-0.12852567434310913,2.126939296722412
168,23165,23162,0.02932961843907833,0.03570974990725517,0.9393408298492432,-0.8641979694366455,0.0827106162905693,0.19562199711799622,1.945143461227417,3.9712085723876953,0.3106549382209778,0.49005648493766785,-0.14262327551841736,2.1256706714630127
169,23175,23172,-0.008243760094046593,-0.00568752596154809,0.9919518828392029,-0.35703060030937195,1.095455527305603,-0.04228273406624794,1.9469313621520996,3.9707677364349365,0.31065577268600464,0.4509257674217224,-0.14936991035938263,2.1194052696228027
170,23185,23182,-0.04624370485544205,0.10067801922559738,0.963843822479248,0.5255548357963562,1.3851407766342163,0.6846575736999512,1.947126865386963,3.970046043395996,0.3101702332496643,0.5599077343940735,-0.06680355966091156,2.1045267581939697
171,23195,23192,-0.0187082476913929,0.17971596121788025,0.9553881287574768,0.18263301253318787,1.9715548753738403,1.3935596942901611,1.949183702468872,3.969736337661743,0.31009411811828613,0.4843171536922455,-0.07066497206687927,2.1170308589935303
172,23205,23202,-0.016435785219073296,0.19583258032798767,0.998053789138794,0.47419530153274536,2.1067311763763428,1.384626865386963,1.9497584104537964,3.9697065353393555,0.31012144684791565,0.5479692816734314,-0.0712275356054306,2.1287331581115723
173,23215,23212,-0.0008441496756859124,0.06118408590555191,0.9984961748123169,-0.4614439308643341,1.4556220769882202,0.8583635687828064,1.9510226249694824,3.969993829727173,0.3099748492240906,0.4628501534461975,-0.08051102608442307,2.1379153728485107
174,23225,23222,-0.07686040550470352,0.017570482566952705,1.041918396949768,-0.9629305601119995,1.1329110860824585,0.9534280896186829,1.9528719186782837,3.9700822830200195,0.3098214268684387,0.4117357134819031,-0.09442438185214996,2.1459174156188965
175,23235,23232,-0.0013478792971000075,-0.05117183178663254,0.9837151765823364,-2.036752939224243,1.2146198749542236,1.240086317062378,1.9526889324188232,3.9700088500976562,0.30991190671920776,0.5822852849960327,-0.1257759928703308,2.1593940258026123
176,23245,23242,-0.0741211324930191,0.1007983535528183,1.0513765811920166,-3.1994683742523193,0.7641216516494751,1.780997633934021,1.9546984434127808,3.970201015472412,0.30973848700523376,0.4471399486064911,-0.17219118773937225,2.179077386856079
177,23255,23252,0.029253190383315086,-0.022788837552070618,0.9613942503929138,-2.0783281326293945,1.1423801183700562,1.556872010231018,1.9547654390335083,3.9698069095611572,0.3140372633934021,0.5440137982368469,-0.2130342274904251,2.1884982585906982
178,23265,23262,-0.05227874591946602,0.04882345348596573,1.068709135055542,-0.019548365846276283,2.1080551147460938,1.7257341146469116,1.9556525945663452,3.969514846801758,0.3142431974411011,0.48275071382522583,-0.21732302010059357,2.204753875732422
179,23275,23272,-0.003275464754551649,-0.002876672428101301,0.9899401664733887,1.364423155784607,3.3845906257629395,2.1062169075012207,1.9557793140411377,3.9693386554718018,0.31454020738601685,0.5302906632423401,-0.20130299031734467,2.232421636581421
180,23285,23282,0.036529142409563065,-0.03725282475352287,0.9529407620429993,2.607956647872925,2.2053751945495605,1.6631571054458618,1.9576057195663452,3.9701125621795654,0.3137582242488861,0.43007615208625793,-0.16563549637794495,2.250166893005371
181,23295,23292,-0.001693654339760542,0.0050198230892419815,0.9842523336410522,2.559419631958008,2.77559232711792,2.079843282699585,1.959834098815918,3.971400260925293,0.313864141702652,0.3344760239124298,-0.2727801203727722,2.290743827819824
182,23305,23302,-0.02527979016304016,-0.015127893537282944,1.0729782581329346,3.2272279262542725,2.0127460956573486,0.9207243919372559,1.9610508680343628,3.9715614318847656,0.31404632329940796,0.3436124622821808,-0.20888200402259827,2.3009917736053467
183,23315,23312,0.05060320347547531,-0.03401299566030502,0.9816341400146484,3.2536463737487793,2.901545763015747,1.93449068069458,1.9617325067520142,3.971438407897949,0.3151928782463074,0.3627093434333801,-0.15380670130252838,2.310391664505005
184,23325,23322,-0.03492506220936775,0.09519248455762863,1.017945408821106,3.7852120399475098,0.47009196877479553,2.2630414962768555,1.962656021118164,3.971149444580078,0.31545063853263855,0.39668938517570496,-0.07021094858646393,2.3259470462799072
185,23335,23332,-0.034204382449388504,0.14533454179763794,0.9796203970909119,3.098870038986206,0.451570063829422,2.0316076278686523,1.962617039680481,3.9709832668304443,0.31575384736061096,0.48563000559806824,-0.010422592051327229,2.3416295051574707
186,23345,23342,0.0274429339915514,0.10535486787557602,0.9579781889915466,1.2559698820114136,1.5632790327072144,2.1912572383880615,1.9628009796142578,3.9708874225616455,0.3170092701911926,0.5386018753051758,0.022670943289995193,2.3610754013061523
187,23355,23352,-0.012268824502825737,0.02371572144329548,1.0163835287094116,0.020384302362799644,3.0481669902801514,1.8412128686904907,1.9646310806274414,3.971306085586548,0.31728699803352356,0.35051506757736206,-0.04164845123887062,2.392435312271118
188,23365,23362,0.006944254040718079,-0.022543741390109062,0.9941365718841553,-1.3961750268936157,4.387107849121094,1.6003084182739258,1.9646633863449097,3.9712202548980713,0.3176185190677643,0.3747447729110718,-0.048164818435907364,2.408116340637207
189,23375,23372,0.019564030691981316,-0.03492750599980354,0.976326584815979,-0.8965129852294922,3.3156015872955322,1.932173490524292,1.9664478302001953,3.9709091186523438,0.3178117275238037,0.23406729102134705,-0.062334317713975906,2.4198176860809326
190,23385,23382,0.006069654133170843,-0.0025047643575817347,0.9999098181724548,-0.7040429711341858,4.246464729309082,1.6639834642410278,1.9669502973556519,3.9711170196533203,0.32233551144599915,0.2650943994522095,-0.07088996469974518,2.437913179397583
191,23395,23392,0.029323861002922058,-0.06297776848077774,0.9420694708824158,0.6901229619979858,3.249110698699951,1.7602545022964478,1.967315435409546,3.9708445072174072,0.32290101051330566,0.28519436717033386,-0.061026617884635925,2.4550578594207764
192,23405,23402,0.00274560134857893,-0.01914725825190544,0.9776204824447632,1.311540126800537,2.0494461059570312,1.6306389570236206,1.969138741493225,3.9711179733276367,0.3233460783958435,0.171186625957489,-0.10351342707872391,2.4704842567443848
193,23415,23412,-0.0339752659201622,0.09715757519006729,0.9829587936401367,1.8763610124588013,1.251600742340088,1.6444389820098877,1.9691845178604126,3.9701666831970215,0.3239513337612152,0.22380992770195007,0.01557029876857996,2.47727370262146
194,23425,23422,0.01733381114900112,0.13834087550640106,0.8985360264778137,1.6394206285476685,1.1155041456222534,0.900917649269104,1.9694054126739502,3.970841884613037,0.32444584369659424,0.24904762208461761,-0.03739351034164429,2.4940879344940186
195,23435,23432,0.031539589166641235,0.10727716237306595,0.9240977168083191,2.529062271118164,0.2890789806842804,0.7014092803001404,1.9704174995422363,3.9708313941955566,0.3248472511768341,0.20470353960990906,0.0011631528614088893,2.497459888458252
196,23445,23442,0.047925062477588654,-0.07744792848825455,0.9540192484855652,2.0590662956237793,-1.3650860786437988,1.1920145750045776,1.9717326164245605,3.9707021713256836,0.3230813145637512,0.09802442789077759,0.027114054188132286,2.515864133834839
197,23455,23452,-0.08864320814609528,0.04522283747792244,0.9524720311164856,1.6271620988845825,-0.21908344328403473,1.5085142850875854,1.9717720746994019,3.9706709384918213,0.32330724596977234,0.19853873550891876,0.06650014966726303,2.5201268196105957
198,23465,23462,0.017682427540421486,-0.15796248614788055,0.9636067152023315,0.9373573064804077,0.06556273251771927,1.8601315021514893,1.9719587564468384,3.970374822616577,0.32344651222229004,0.20456427335739136,0.08617177605628967,2.539314031600952
199,23475,23472,0.043337952345609665,-0.1087488904595375,1.0273373126983643,-0.366668701171875,2.062816619873047,1.3555859327316284,1.9729677438735962,3.97041916847229,0.32351362705230713,0.1847689300775528,0.08747275918722153,2.5571696758270264
200,23485,23482,0.036482103168964386,-0.05397665128111839,0.922507643699646,-1.9942444562911987,3.7341721057891846,0.8539618253707886,1.9737269878387451,3.970216989517212,0.31953203678131104,0.12699370086193085,0.06874904036521912,2.5684902667999268
201,23495,23492,0.06112941354513168,0.015726814046502113,0.9456021785736084,-3.257661819458008,4.750776290893555,0.971871018409729,1.9746122360229492,3.9700071811676025,0.31929999589920044,0.04536116495728493,0.025649718940258026,2.5841782093048096
202,23505,23502,0.04530268907546997,-0.02475230023264885,0.9505015015602112,-3.250401258468628,4.6814494132995605,0.8703474402427673,1.9759182929992676,3.9719858169555664,0.3190261125564575,-0.03332282975316048,-0.10116583853960037,2.6062684059143066
203,23515,23512,0.009394325315952301,-0.04261785373091698,0.9842126369476318,-1.4619524478912354,4.901523590087891,0.7019687294960022,1.976387858390808,3.9725565910339355,0.3188556730747223,-0.030390474945306778,-0.1226014494895935,2.6209726333618164
204,23525,23522,9.523839980829507e-05,-0.04147057980298996,0.9697304368019104,0.10689262300729752,4.348519325256348,0.06797414273023605,1.9767816066741943,3.9725027084350586,0.3185819089412689,-0.011729859746992588,-0.11037131398916245,2.623061180114746
205,23535,23532,-0.015345106832683086,-0.00490986555814743,1.0227247476577759,1.7310045957565308,3.5909650325775146,-0.007154732011258602,1.9765598773956299,3.972167730331421,0.31829747557640076,0.0013763606548309326,-0.07682371884584427,2.6216607093811035
206,23545,23542,-0.04644588753581047,0.07394526898860931,0.9981703758239746,3.2533838748931885,3.319782018661499,0.0021485367324203253,1.976988673210144,3.972703695297241,0.3149248957633972,0.026203304529190063,-0.09469669312238693,2.626612663269043
207,23555,23552,-0.04112105444073677,0.08614704757928848,1.0437973737716675,4.391752243041992,3.644385576248169,-0.47812530398368835,1.977006435394287,3.972134590148926,0.3143936097621918,0.039407894015312195,-0.007874181494116783,2.623162031173706
208,23565,23562,-0.05357224494218826,0.04002882540225983,1.0157787799835205,4.489256381988525,4.680919647216797,-0.387771874666214,1.9790765047073364,3.97182559967041,0.3138118386268616,-0.1240929663181305,0.08536700904369354,2.5990984439849854
209,23575,23572,0.011324995197355747,-0.012333644554018974,0.9906019568443298,3.33925199508667,6.029243469238281,-0.1642484962940216,1.9786735773086548,3.969252109527588,0.31330606341362,-0.1460474580526352,0.15787538886070251,2.5745415687561035
210,23585,23582,-0.038831792771816254,0.09513463824987411,1.0421788692474365,1.3803402185440063,6.728206634521484,-0.7882400751113892,1.979192852973938,3.968804359436035,0.31443527340888977,-0.19959639012813568,0.19306820631027222,2.566343069076538
211,23595,23592,0.016413772478699684,-0.0038969144225120544,0.9579460024833679,-0.9813604354858398,5.8750481605529785,-1.309690237045288,1.979842185974121,3.9695541858673096,0.314064621925354,-0.22997498512268066,0.11602678894996643,2.5717670917510986
212,23605,23602,-0.014491493813693523,0.05218125879764557,1.0130294561386108,-2.048948049545288,4.589069843292236,-1.3397856950759888,1.9808158874511719,3.970355272293091,0.3136506676673889,-0.31892096996307373,0.10648391395807266,2.5573506355285645
213,23615,23612,0.022860994562506676,0.029569515958428383,0.9706351161003113,-3.015362024307251,3.7114784717559814,-1.0722304582595825,1.9818824529647827,3.969967842102051,0.31558987498283386,-0.39365559816360474,0.148171067237854,2.544201612472534
214,23625,23622,-0.020214393734931946,0.02929779328405857,1.046310544013977,-2.8397324085235596,2.9145591259002686,-1.2366517782211304,1.9827649593353271,3.9705119132995605,0.3153650760650635,-0.37603408098220825,0.09181151539087296,2.5348494052886963
215,23635,23632,0.020069848746061325,-0.036171454936265945,1.0257519483566284,-1.2160542011260986,1.6007510423660278,-1.1621519327163696,1.982787847518921,3.9705088138580322,0.3151305615901947,-0.3354003131389618,0.07073727995157242,2.5195064544677734
216,23645,23642,0.02826782874763012,-0.018046503886580467,1.002345085144043,-0.44551587104797363,1.1243455410003662,-1.0026233196258545,1.984470248222351,3.9706015586853027,0.31319481134414673,-0.44186004996299744,0.06200079247355461,2.5078232288360596
217,23655,23652,-0.06968891620635986,0.06920172274112701,1.0457080602645874,0.520401120185852,0.7385706901550293,-1.0938079357147217,1.985150933265686,3.9711227416992188,0.3128741383552551,-0.42531654238700867,0.07755832374095917,2.498016595840454
218,23665,23662,0.008977621793746948,0.017683714628219604,1.0125445127487183,0.5684036612510681,1.188565731048584,-1.0049028396606445,1.9874287843704224,3.971163272857666,0.3124207854270935,-0.6059530973434448,0.08890853822231293,2.478266477584839
219,23675,23672,0.02131717838346958,-0.0045198556035757065,1.025428056716919,1.7998216152191162,0.007986796088516712,-1.1457220315933228,1.9860737323760986,3.971485137939453,0.31503596901893616,-0.5209348201751709,0.02999374270439148,2.4823148250579834
220,23685,23682,0.0034023476764559746,-0.0443321093916893,1.0302157402038574,1.126242756843567,-1.015150785446167,-1.0524235963821411,1.9873919486999512,3.971776247024536,0.31489187479019165,-0.5725737810134888,0.06692757457494736,2.478058099746704
221,23695,23692,0.03977807238698006,-0.00823593232780695,1.0489580631256104,1.403038501739502,-3.5061593055725098,-1.442922592163086,1.9886929988861084,3.973358154296875,0.3147676885128021,-0.5914077758789062,0.10297858715057373,2.4971773624420166
222,23705,23702,0.03420977294445038,-0.037396710366010666,1.0078725814819336,-0.3206137716770172,-4.315771579742432,-1.7750383615493774,1.988415002822876,3.973487138748169,0.3148927688598633,-0.42582425475120544,0.1102023720741272,2.4831435680389404
223,23715,23712,-0.039566025137901306,0.021034736186265945,1.0787090063095093,-1.4261548519134521,-5.5483078956604,-2.085333824157715,1.9889718294143677,3.9728565216064453,0.3156324028968811,-0.3319067358970642,0.09600567072629929,2.444790840148926
224,23725,23722,0.03225359693169594,-0.034261882305145264,0.9930135607719421,-0.3971707820892334,-5.530629634857178,-2.0837156772613525,1.9899893999099731,3.9730513095855713,0.31570151448249817,-0.31324151158332825,0.09326430410146713,2.4236361980438232
225,23735,23732,0.02304122783243656,0.007487187162041664,1.0457954406738281,0.08733484894037247,-5.952845573425293,-1.5417929887771606,1.9903253316879272,3.974090099334717,0.3158743679523468,-0.22428269684314728,0.0954841896891594,2.4288837909698486
226,23745,23742,0.017404230311512947,0.042022932320833206,1.0541884899139404,-0.06679395586252213,-1.2847912311553955,-1.4167441129684448,1.991410493850708,3.974151611328125,0.3163479268550873,-0.17938832938671112,0.1749921441078186,2.4174489974975586
227,23755,23752,0.04039866477251053,-0.13359299302101135,1.064719557762146,-0.7396145462989807,0.974885106086731,-1.9709713459014893,1.9919501543045044,3.9730336666107178,0.31656333804130554,-0.3411097526550293,0.1587110012769699,2.372819662094116
228,23765,23762,0.04715924337506294,-0.1362873613834381,0.9556601047515869,-1.4793421030044556,1.8858317136764526,-2.256157398223877,1.9945400953292847,3.9721741676330566,0.31674492359161377,-0.2778838276863098,0.057755108922719955,2.354918956756592
229,23775,23772,-0.022012198343873024,0.05497000738978386,1.0762197971343994,-2.307523727416992,2.176760673522949,-2.450629234313965,1.9946188926696777,3.974320650100708,0.31650689244270325,-0.23067380487918854,0.10596823692321777,2.3588645458221436
230,23785,23782,0.05545593053102493,-0.04125184193253517,0.948255717754364,-2.7904999256134033,1.0434116125106812,-2.7886874675750732,1.9955766201019287,3.9750473499298096,0.3167819380760193,-0.42213138937950134,0.055026810616254807,2.3399717807769775
231,23795,23792,0.12746647000312805,-0.02985568530857563,0.982265830039978,-2.716752529144287,-0.18653768301010132,-2.4482200145721436,1.998173713684082,3.975281238555908,0.31695544719696045,-0.43242326378822327,-0.00078778708120808,2.3139209747314453
232,23805,23802,0.011155864223837852,0.07799132168292999,0.9764189720153809,-2.0275113582611084,-2.417966842651367,-2.6608784198760986,1.998091220855713,3.9764745235443115,0.3173416256904602,-0.2945590615272522,-0.03819502517580986,2.306243896484375
233,23815,23812,-0.008580678142607212,0.012510421685874462,0.977626383304596,-0.9336628317832947,-4.350264549255371,-3.021089553833008,1.998992681503296,3.9765090942382812,0.31812137365341187,-0.37781623005867004,-0.05958864837884903,2.2703986167907715
234,23825,23822,0.02922593057155609,0.08777043968439102,0.9982913136482239,0.6885568499565125,-4.672709941864014,-3.2233567237854004,2.000662326812744,3.976591110229492,0.31833478808403015,-0.28906407952308655,-0.06292040646076202,2.2361092567443848
235,23835,23832,0.03632921352982521,0.019735459238290787,0.9801503419876099,1.8703118562698364,-5.239034652709961,-3.607985734939575,2.001614570617676,3.976673126220703,0.3185507357120514,-0.26761701703071594,-0.03235991299152374,2.2033236026763916
236,23845,23842,0.031706374138593674,-0.027103343978524208,0.965149998664856,1.433345913887024,-5.2344841957092285,-3.5007734298706055,2.0031166076660156,3.976797103881836,0.3181486427783966,-0.16266384720802307,-0.004046914633363485,2.1688854694366455
237,23855,23852,-0.009324752725660801,0.006341253407299519,1.0217243432998657,1.652608871459961,-4.166463851928711,-3.6102702617645264,2.0038347244262695,3.976616382598877,0.3183133602142334,-0.14774885773658752,0.023704377934336662,2.1070573329925537
238,23865,23862,-0.006969464011490345,-0.018131019547581673,0.9758100509643555,0.1918705850839615,-2.9567625522613525,-3.715456008911133,2.005030632019043,3.975419044494629,0.3184252977371216,-0.15094466507434845,0.036316100507974625,2.0760347843170166
239,23875,23872,0.008591758087277412,-0.048490460962057114,1.005679965019226,-0.10268634557723999,-2.572638988494873,-3.4481728076934814,2.0059118270874023,3.9756979942321777,0.3177184462547302,-0.07583072781562805,0.03711578622460365,2.04061222076416
