,timestamp_start,timestamp_end,acc.x,acc.y,acc.z,gyro.x,gyro.y,gyro.z,stateEstimate.x,stateEstimate.y,stateEstimate.z,stabilizer.pitch,stabilizer.roll,stabilizer.yaw
0,41943,41941,0.030548982322216034,-0.04395156726241112,0.996543288230896,-10.926542282104492,48.276241302490234,-0.05755934864282608,1.7578017711639404,3.766138792037964,0.18267180025577545,0.4256499409675598,0.4964495599269867,2.382797956466675
1,41953,41951,-0.03370180353522301,-0.027886787429451942,0.9831722378730774,-13.103673934936523,37.21615982055664,-0.027422724291682243,1.7576767206192017,3.765920877456665,0.18306760489940643,-0.3374730944633484,0.41990771889686584,2.360936403274536
2,41963,41961,0.02686157636344433,0.015703270211815834,1.027130365371704,-11.793673515319824,24.12567138671875,-0.12545809149742126,1.7572321891784668,3.764793634414673,0.18499983847141266,-0.7403099536895752,0.3043389916419983,2.358375072479248
3,41973,41971,0.009405865333974361,-0.12919603288173676,1.0703567266464233,-7.735535621643066,8.605820655822754,0.009951495565474033,1.7564786672592163,3.7640247344970703,0.1869458556175232,-0.9863365888595581,0.19964301586151123,2.357606887817383
4,41983,41981,-0.023449983447790146,0.005167605821043253,1.0684128999710083,-2.7442288398742676,-3.9730098247528076,-0.25043782591819763,1.7558013200759888,3.764099597930908,0.18580783903598785,-1.1309587955474854,0.16267435252666473,2.351694345474243
5,41993,41991,0.05819839611649513,-0.05968872085213661,1.0010707378387451,-0.09015155583620071,-10.191353797912598,0.14758789539337158,1.7570984363555908,3.7657973766326904,0.1874825656414032,-1.21925687789917,0.19092930853366852,2.3419301509857178
6,42003,42001,-0.004838780965656042,0.0005656557041220367,1.0194250345230103,0.5070703029632568,-12.120614051818848,0.6059973835945129,1.7578620910644531,3.7661643028259277,0.18938139081001282,-1.1690367460250854,0.18351410329341888,2.340571403503418
7,42013,42011,0.015250010415911674,-0.006468184757977724,1.0036967992782593,-1.4842212200164795,-9.784571647644043,0.7621583938598633,1.7583142518997192,3.7666664123535156,0.19129107892513275,-1.1459877490997314,0.12015994638204575,2.3333070278167725
8,42023,42021,-0.02454358898103237,-0.0657673254609108,1.0332603454589844,-5.183529376983643,-5.455859661102295,0.8135480284690857,1.759535312652588,3.7667250633239746,0.1902344971895218,-1.1237283945083618,0.03124091401696205,2.327219009399414
9,42033,42031,-0.024866897612810135,-0.049665506929159164,1.0100525617599487,-7.977139949798584,-0.74261873960495,0.6866031289100647,1.7589542865753174,3.7673983573913574,0.19201500713825226,-1.0829399824142456,-0.02964402362704277,2.3326635360717773
10,42043,42041,0.026784876361489296,-0.035563066601753235,0.9947081208229065,-8.069581031799316,1.1712743043899536,0.1415279507637024,1.7592452764511108,3.765484094619751,0.19389846920967102,-0.9799023270606995,0.08268260210752487,2.3736863136291504
11,42053,42051,-0.023158596828579903,0.03956827148795128,1.0713907480239868,-7.923813343048096,2.2124416828155518,0.14608505368232727,1.7593581676483154,3.7652220726013184,0.19327926635742188,-0.9978467226028442,0.018256591632962227,2.377807140350342
12,42063,42061,0.010630343109369278,0.03594289347529411,0.9775487184524536,-6.970772743225098,3.546471118927002,-0.4096646010875702,1.764624834060669,3.765766143798828,0.19475318491458893,-1.542104721069336,0.10025769472122192,2.3958332538604736
13,42073,42071,0.0027392024639993906,0.0664355605840683,0.9337478280067444,-7.432273864746094,-2.660921573638916,-0.17887060344219208,1.7658941745758057,3.7655584812164307,0.1966230869293213,-1.593115210533142,-0.04657234251499176,2.3735458850860596
14,42083,42081,0.02822525054216385,0.07838671654462814,1.0127859115600586,-7.170997619628906,-10.841952323913574,-0.16882027685642242,1.7667945623397827,3.765211343765259,0.1980142593383789,-1.6157349348068237,-0.04329422116279602,2.3871240615844727
15,42093,42091,-0.01587623730301857,-0.006956595461815596,1.1215853691101074,-7.829282760620117,-18.73165512084961,-0.4073352813720703,1.7676277160644531,3.7650022506713867,0.20001816749572754,-1.4502339363098145,-0.20616988837718964,2.3675453662872314
16,42103,42101,0.046543631702661514,-0.012195742689073086,0.9858582019805908,-8.289408683776855,-23.000398635864258,0.06824047118425369,1.7665462493896484,3.765566825866699,0.20215566456317902,-1.0922589302062988,-0.42960691452026367,2.330998659133911
17,42113,42111,0.014166928827762604,0.006406901404261589,0.9921555519104004,-7.656207084655762,-22.970752716064453,-0.07999962568283081,1.7691738605499268,3.7666358947753906,0.20423641800880432,-0.998036801815033,-0.48865026235580444,2.3387930393218994
18,42123,42121,-0.010636846534907818,-0.01421076525002718,1.0547122955322266,-5.580314636230469,-19.551288604736328,-0.1945834904909134,1.7686086893081665,3.7668707370758057,0.2062053382396698,-0.5930017828941345,-0.68345707654953,2.308756113052368
19,42133,42131,0.028128964826464653,-0.0028805762995034456,1.0117783546447754,-2.264040946960449,-13.677767753601074,0.04885553941130638,1.772889256477356,3.7662315368652344,0.2082403153181076,-0.9298883676528931,-0.6714659929275513,2.337294340133667
20,42143,42141,-0.012281454168260098,-0.007553666364401579,1.0409173965454102,0.7392062544822693,-9.535770416259766,0.05588778480887413,1.773947834968567,3.765799045562744,0.21021907031536102,-0.7658687829971313,-0.6887513995170593,2.338294267654419
21,42153,42151,-0.022299055010080338,-0.055489107966423035,1.0226348638534546,3.044440269470215,-9.020535469055176,-0.32464972138404846,1.7749913930892944,3.7642600536346436,0.21420393884181976,-0.6597791910171509,-0.5075318813323975,2.3767693042755127
22,42163,42161,-0.00994902104139328,0.03610925376415253,0.9973372220993042,3.133115768432617,-10.94039535522461,-1.138193964958191,1.7757039070129395,3.7649025917053223,0.2163020521402359,-0.564091682434082,-0.5306236147880554,2.3603150844573975
23,42173,42171,0.009037908166646957,0.02766682207584381,1.010426640510559,0.14653123915195465,-13.631503105163574,-0.5342355966567993,1.7749601602554321,3.763906478881836,0.21876226365566254,-0.2773122191429138,-0.475978821516037,2.345879316329956
24,42183,42181,0.008136184886097908,0.03176940977573395,1.0615590810775757,-2.6773085594177246,-15.119709014892578,-1.1638052463531494,1.7778449058532715,3.7641537189483643,0.22124068439006805,-0.4273785352706909,-0.5502725839614868,2.3451995849609375
25,42193,42191,-0.01441402081400156,0.06590519100427628,1.0241544246673584,-4.435001850128174,-14.856643676757812,-1.2742860317230225,1.776954174041748,3.7636892795562744,0.22381487488746643,0.013980801217257977,-0.5830950736999512,2.3142073154449463
26,42203,42201,-0.051243897527456284,0.11278086155653,0.9538009762763977,-4.545639514923096,-14.499717712402344,-0.898407518863678,1.7796595096588135,3.7629292011260986,0.22596558928489685,-0.11322078108787537,-0.5637052655220032,2.330488681793213
27,42213,42211,-0.06387323886156082,0.15472781658172607,0.9935149550437927,-4.251590728759766,-14.339166641235352,-1.696436882019043,1.7806106805801392,3.7626850605010986,0.2280864417552948,0.01796756312251091,-0.6290836334228516,2.3205883502960205
28,42223,42221,-0.01388158742338419,0.042416997253894806,0.9783885478973389,-3.1078574657440186,-13.881138801574707,-1.3751463890075684,1.779416561126709,3.762502670288086,0.23033899068832397,0.30244073271751404,-0.682002604007721,2.295088291168213
29,42233,42231,0.013155567459762096,-0.07703336328268051,1.021932601928711,-1.1835137605667114,-13.29029655456543,-1.2762943506240845,1.7806015014648438,3.7613303661346436,0.23242203891277313,0.43176862597465515,-0.5605913996696472,2.3027074337005615
30,42243,42241,-0.03872724249958992,-0.10555531084537506,1.0612276792526245,-0.9995625019073486,-10.279534339904785,-1.684313416481018,1.780972957611084,3.7617733478546143,0.234676331281662,0.6292133927345276,-0.6532546281814575,2.2845354080200195
31,42253,42251,-0.02584642730653286,-0.09323464334011078,0.9985817670822144,-1.1093218326568604,-7.550581932067871,-1.2264306545257568,1.782095193862915,3.7615134716033936,0.24210414290428162,0.8371487259864807,-0.6536363363265991,2.265648365020752
32,42263,42261,-0.014043985866010189,0.0067505366168916225,0.9552605152130127,-1.2561087608337402,-5.613091468811035,-1.7868492603302002,1.7847892045974731,3.7604613304138184,0.24464136362075806,0.6754472851753235,-0.5777683854103088,2.276205062866211
33,42273,42271,0.029993779957294464,-0.017870455980300903,0.9212164282798767,-1.7657322883605957,-5.1633453369140625,-1.3062292337417603,1.7842698097229004,3.760850429534912,0.24731972813606262,0.8640486598014832,-0.6669756174087524,2.248816967010498
34,42283,42281,0.13261531293392181,-0.004697573836892843,0.8899136185646057,-1.7801055908203125,-3.937869071960449,-0.6252074837684631,1.7859408855438232,3.761615753173828,0.25036147236824036,0.8061513900756836,-0.6789724826812744,2.2459380626678467
35,42293,42291,0.15246038138866425,0.029161415994167328,0.8897594809532166,-2.117151975631714,-6.583837032318115,-0.6476824283599854,1.7867802381515503,3.7610208988189697,0.2528587877750397,0.9749457240104675,-0.6894828081130981,2.2311079502105713
36,42303,42301,0.04428482800722122,3.7587600672850385e-05,0.9172732830047607,-1.9848597049713135,-7.574077129364014,-0.574345588684082,1.7865557670593262,3.761923313140869,0.25522947311401367,1.0904568433761597,-0.7796040773391724,2.2252418994903564
37,42313,42311,0.01606057770550251,0.019387781620025635,0.9355911612510681,-1.0624377727508545,-7.2860822677612305,-0.46892622113227844,1.7865837812423706,3.7611029148101807,0.2558784782886505,1.2896500825881958,-0.7027663588523865,2.2048447132110596
38,42323,42321,0.004101166967302561,-0.008233679458498955,0.9242327213287354,-1.1611440181732178,-4.683328628540039,-0.38941022753715515,1.7875314950942993,3.7617568969726562,0.2579801678657532,1.386447787284851,-0.7746478915214539,2.2048285007476807
39,42333,42331,0.08212079852819443,-0.04747181758284569,0.8817968964576721,-1.5335007905960083,-1.5191198587417603,-0.3402531147003174,1.7887837886810303,3.7624082565307617,0.2598980963230133,1.5126162767410278,-0.6856082081794739,2.192883014678955
40,42343,42341,0.05207781866192818,-0.0261679720133543,0.890378475189209,-2.484426975250244,1.923503041267395,-0.3879212737083435,1.7898458242416382,3.7617876529693604,0.2617838978767395,1.5707511901855469,-0.6918240189552307,2.189556121826172
41,42353,42351,0.02405070699751377,0.021771444007754326,0.8736357092857361,-3.9805943965911865,5.260138988494873,-0.4628395140171051,1.7912018299102783,3.764516592025757,0.26397421956062317,1.5443000793457031,-0.7950441837310791,2.191911458969116
42,42363,42361,-0.013862521387636662,0.07590125501155853,0.900135338306427,-5.50611686706543,9.545969009399414,-0.801302433013916,1.793960690498352,3.7668421268463135,0.26570063829421997,1.4635000228881836,-0.9145301580429077,2.205894947052002
43,42373,42371,-0.03224923461675644,0.14866402745246887,0.8917474150657654,-3.086909532546997,8.750232696533203,-0.09075118601322174,1.7945810556411743,3.76768159866333,0.2673817574977875,1.3115670680999756,-0.966349720954895,2.1996240615844727
44,42383,42381,0.006333267316222191,0.02874569781124592,0.921751081943512,-0.6991637349128723,8.363354682922363,-0.009426969103515148,1.7949498891830444,3.7657463550567627,0.268140971660614,1.1778669357299805,-0.7385984063148499,2.1572659015655518
45,42393,42391,-3.832453512586653e-05,-0.008742360398173332,0.9341474175453186,1.6340789794921875,6.547290802001953,0.48209327459335327,1.7981715202331543,3.765946865081787,0.2695881724357605,0.8249867558479309,-0.805078387260437,2.1928117275238037
46,42403,42401,0.024424107745289803,-0.11033625155687332,0.8972123265266418,2.7365996837615967,2.333035469055176,0.4605008661746979,1.7966952323913574,3.765855550765991,0.2710796296596527,0.9831585884094238,-0.5972059965133667,2.1441495418548584
47,42413,42411,0.0689915344119072,-0.12666486203670502,0.8986976742744446,1.0953363180160522,0.019410280510783195,0.885108470916748,1.7986220121383667,3.767428398132324,0.27117273211479187,0.9669684171676636,-0.6262715458869934,2.1642134189605713
48,42423,42421,0.07266063988208771,-0.1705729365348816,0.9253714680671692,-1.3678510189056396,-2.764991283416748,0.9692955017089844,1.7982746362686157,3.768052339553833,0.2723102271556854,0.9947969317436218,-0.675865113735199,2.1807219982147217
49,42433,42431,0.044537752866744995,-0.28291013836860657,0.967671275138855,-4.401448726654053,-3.9693570137023926,0.11939065158367157,1.7994098663330078,3.77077317237854,0.27331122756004333,1.0581361055374146,-0.6827676296234131,2.1942543983459473
50,42443,42441,0.013544682413339615,-0.08154013007879257,0.9267858266830444,-6.354729652404785,-1.1898248195648193,0.09718736261129379,1.7991453409194946,3.7710235118865967,0.2742878794670105,1.1340659856796265,-0.8172956705093384,2.2071821689605713
51,42453,42451,-0.033236365765333176,-0.17187900841236115,0.9527295827865601,-5.8584113121032715,2.7329013347625732,0.007909026928246021,1.7981386184692383,3.7731149196624756,0.2771570086479187,1.2447140216827393,-0.9676600694656372,2.2167961597442627
52,42463,42461,0.015688925981521606,-0.08093928545713425,0.9612650275230408,-3.9338607788085938,8.213780403137207,0.2194615751504898,1.7986897230148315,3.7737278938293457,0.27824050188064575,1.1900506019592285,-1.021701455116272,2.2172584533691406
53,42473,42471,0.0418723039329052,-0.014663293026387691,0.9598121643066406,-1.109846591949463,11.400467872619629,-0.2439170479774475,1.7997835874557495,3.7743828296661377,0.2792065441608429,1.0442931652069092,-1.1088908910751343,2.230672597885132
54,42483,42481,0.0013113722670823336,0.0067813340574502945,0.9757772088050842,1.5862681865692139,12.873909950256348,-0.340711385011673,1.7997270822525024,3.7759878635406494,0.2803425192832947,1.0047951936721802,-1.0656241178512573,2.2182812690734863
55,42493,42491,0.00017402865341864526,0.00849288608878851,0.9656064510345459,3.908024787902832,12.601022720336914,0.03167880326509476,1.8006047010421753,3.7759013175964355,0.2812168002128601,0.8570534586906433,-1.059349775314331,2.224489450454712
56,42503,42501,-0.041840799152851105,0.05663652345538139,0.9644107222557068,5.752638816833496,10.63630485534668,-0.07350357621908188,1.8017218112945557,3.778731107711792,0.28205713629722595,0.7165753245353699,-1.0099431276321411,2.2240681648254395
57,42513,42511,-0.028371673077344894,0.10137525200843811,0.9911098480224609,6.5729498863220215,7.942422389984131,-0.6445133090019226,1.8015680313110352,3.7808563709259033,0.2841339111328125,0.6122419834136963,-1.0822681188583374,2.239551067352295
58,42523,42521,-0.005237539764493704,0.10184981673955917,1.0135334730148315,6.437117576599121,5.3453521728515625,-0.40580230951309204,1.8022260665893555,3.781248092651367,0.28502005338668823,0.47741326689720154,-0.9758242964744568,2.23410701751709
59,42533,42531,0.028110450133681297,-0.002750322688370943,0.9592267274856567,6.9554362297058105,2.6058156490325928,-0.6127179861068726,1.8008753061294556,3.7830140590667725,0.2859128415584564,0.6219066977500916,-0.8702436685562134,2.204035997390747
60,42543,42541,0.029262105002999306,0.012433696538209915,0.9206656217575073,6.229601860046387,0.8746553063392639,-0.05070071294903755,1.8013100624084473,3.7823541164398193,0.2868155837059021,0.5537292957305908,-0.7624140977859497,2.2003567218780518
61,42553,42551,-0.013742736540734768,0.10281328856945038,0.9735259413719177,4.541409015655518,2.0993587970733643,0.07487721741199493,1.802076816558838,3.7847580909729004,0.2875713109970093,0.5172786712646484,-0.7461531162261963,2.205418348312378
62,42563,42561,-0.018610214814543724,0.05392758920788765,0.9853414297103882,2.516355514526367,3.9650557041168213,-0.5249119400978088,1.8047492504119873,3.7867636680603027,0.2882692813873291,0.3750426173210144,-0.7580078840255737,2.228531837463379
63,42573,42571,0.020933421328663826,0.12831921875476837,0.910938024520874,1.4841773509979248,5.6195454597473145,-0.7841181755065918,1.8044899702072144,3.7875258922576904,0.289000540971756,0.3467169404029846,-0.718853771686554,2.2128419876098633
64,42583,42581,-0.0551198348402977,0.04515255242586136,1.0348458290100098,1.9513933658599854,5.734923362731934,-1.3104619979858398,1.80409836769104,3.787708044052124,0.2896758019924164,0.3166302740573883,-0.6940972805023193,2.200085163116455
65,42593,42591,0.0442236065864563,0.03596922755241394,0.9520267844200134,2.9002346992492676,9.323262214660645,-1.233513593673706,1.8048346042633057,3.787769079208374,0.29031315445899963,0.184794619679451,-0.6569979190826416,2.1896586418151855
66,42603,42601,0.06362546980381012,-0.004696042742580175,0.945663571357727,3.95686411857605,6.326568126678467,-0.5912560820579529,1.8019925355911255,3.7895684242248535,0.2909772992134094,0.30859145522117615,-0.7567533254623413,2.1667065620422363
67,42613,42611,0.09452313184738159,-0.0130813829600811,0.9546188116073608,4.596282005310059,4.474844932556152,-0.08768217265605927,1.8024779558181763,3.789280891418457,0.2908652126789093,0.17737187445163727,-0.670677125453949,2.166088819503784
68,42623,42621,-0.0043741269037127495,0.0012321514077484608,1.0007612705230713,5.863169193267822,3.400207281112671,-0.09923127293586731,1.8025281429290771,3.7890093326568604,0.2913333475589752,0.1545582413673401,-0.5788586139678955,2.160491466522217
69,42633,42631,-0.057087838649749756,-0.026921890676021576,0.9777078628540039,5.669910430908203,3.6415483951568604,-0.46396833658218384,1.8022733926773071,3.7915825843811035,0.2917101979255676,0.21936266124248505,-0.6200252175331116,2.1610023975372314
70,42643,42641,-0.008057710714638233,-0.03309711441397667,0.9646079540252686,6.863097667694092,4.577836513519287,-0.28585997223854065,1.8027892112731934,3.7922139167785645,0.29261186718940735,0.12157733738422394,-0.5747565627098083,2.1632728576660156
71,42653,42651,-6.570175901288167e-05,0.002524859271943569,0.9992036819458008,7.350483417510986,6.426087856292725,-0.028647946193814278,1.8034051656723022,3.7937963008880615,0.29307398200035095,0.07983985543251038,-0.43255963921546936,2.164245128631592
72,42663,42661,0.053786538541316986,0.14667865633964539,1.0474413633346558,6.395631790161133,7.233426570892334,-0.48361340165138245,1.803492784500122,3.7960212230682373,0.2934512495994568,0.0805082768201828,-0.44395411014556885,2.16019868850708
73,42673,42671,0.02004890888929367,0.04564787074923515,1.0096800327301025,5.921826362609863,6.820965766906738,-0.6077045798301697,1.8042722940444946,3.7952802181243896,0.2939668595790863,-0.07977336645126343,-0.311480313539505,2.157808780670166
74,42683,42681,-0.0074756513349711895,0.025256000459194183,1.001713514328003,4.587306499481201,6.9327311515808105,-1.0708808898925781,1.8065699338912964,3.7958028316497803,0.2904445230960846,-0.22878938913345337,-0.19280026853084564,2.154193162918091
75,42693,42691,-0.0411711260676384,0.1325664222240448,1.000595211982727,3.247264862060547,5.378641605377197,-1.4366207122802734,1.8059120178222656,3.795320510864258,0.29070234298706055,-0.2921781539916992,-0.1036866307258606,2.1407108306884766
76,42703,42701,0.030124202370643616,0.032095007598400116,0.9582104682922363,2.17988657951355,2.93109130859375,-1.304940938949585,1.8049439191818237,3.795898675918579,0.29092302918434143,-0.17068852484226227,-0.04394248500466347,2.1283364295959473
77,42713,42711,-0.018888749182224274,0.09105628728866577,1.0204330682754517,0.1860106736421585,1.9257444143295288,-1.8041465282440186,1.8058604001998901,3.798546552658081,0.29259955883026123,-0.26085031032562256,-0.1608465164899826,2.109571695327759
78,42723,42721,-0.010471725836396217,-0.0035778027959167957,1.0565905570983887,-0.5558722615242004,1.9192618131637573,-1.4838584661483765,1.8057329654693604,3.7994914054870605,0.29291966557502747,-0.3124742805957794,-0.21601861715316772,2.091614246368408
79,42733,42731,-0.061611488461494446,-0.01668134145438671,1.118722677230835,0.6306294202804565,3.755317211151123,-1.4740512371063232,1.8057531118392944,3.800126314163208,0.2933122515678406,-0.3489539921283722,-0.2730160057544708,2.0759389400482178
80,42743,42741,0.08789640665054321,-0.04032592847943306,0.932975172996521,2.0707736015319824,13.706985473632812,-1.110519289970398,1.8060932159423828,3.800184726715088,0.2915741801261902,-0.48868682980537415,-0.22063013911247253,2.063718318939209
81,42753,42751,0.10430411249399185,-0.02659646049141884,0.9134511947631836,4.268874168395996,17.34406280517578,-0.9632168412208557,1.805295467376709,3.8011019229888916,0.29186105728149414,-0.5879188179969788,-0.22069764137268066,2.0506417751312256
82,42763,42761,0.050026778131723404,-0.050325289368629456,0.9392469525337219,6.033486366271973,19.20473861694336,-0.6023116111755371,1.806531548500061,3.8003933429718018,0.292094349861145,-0.8300890922546387,-0.11237065494060516,2.0462028980255127
83,42773,42771,0.055963754653930664,-0.008369131945073605,0.9522618651390076,6.3320841789245605,20.043058395385742,-0.5924932956695557,1.8047488927841187,3.802246570587158,0.2904626131057739,-0.8127505779266357,-0.059594202786684036,2.042921304702759
84,42783,42781,0.0425964817404747,-0.047217488288879395,0.9821111559867859,5.584377288818359,18.54035758972168,-1.1043250560760498,1.8047971725463867,3.803865432739258,0.2904454469680786,-1.0283236503601074,-0.07801342755556107,2.0264577865600586
85,42793,42791,-0.027123762294650078,0.017441289499402046,1.0450358390808105,4.680789947509766,16.970722198486328,-0.8364298343658447,1.8063119649887085,3.8037705421447754,0.29045599699020386,-1.3602238893508911,0.048383936285972595,2.021487236022949
86,42803,42801,0.0087444968521595,-0.1653500646352768,0.9948869943618774,4.14781379699707,13.678033828735352,-1.5227187871932983,1.806087613105774,3.805553436279297,0.29044321179389954,-1.4834582805633545,0.008239354006946087,2.0012993812561035
87,42813,42811,-0.020782632753252983,-0.05743147432804108,1.0062596797943115,3.1216800212860107,10.429719924926758,-1.797624111175537,1.805747389793396,3.8049917221069336,0.29175326228141785,-1.5631872415542603,0.11690196394920349,1.9972984790802002
88,42823,42821,0.05789296329021454,0.08444289863109589,0.9151760935783386,3.0890910625457764,7.928332805633545,-2.156845808029175,1.8060988187789917,3.8045413494110107,0.2918122708797455,-1.7611640691757202,0.20466312766075134,1.982319951057434
89,42833,42831,0.08132908493280411,0.10395719856023788,0.9968054890632629,1.4388008117675781,3.8292322158813477,-1.9164551496505737,1.8055860996246338,3.8062472343444824,0.29194480180740356,-1.7535854578018188,0.12679673731327057,1.9445017576217651
90,42843,42841,-0.02562524937093258,0.08670976758003235,1.0359641313552856,0.5322988629341125,-0.31100618839263916,-2.2444984912872314,1.8060373067855835,3.806246280670166,0.2912304103374481,-1.8214151859283447,0.18362371623516083,1.930249571800232
91,42853,42851,-0.07636038213968277,0.12035856395959854,1.0061578750610352,0.8459208011627197,0.09788986295461655,-1.6597566604614258,1.8055634498596191,3.8062524795532227,0.29128003120422363,-1.7480206489562988,0.2241537719964981,1.9188017845153809
92,42863,42861,-0.04248461872339249,0.050633616745471954,1.000001072883606,1.2520374059677124,1.20531165599823,-1.7007977962493896,1.8053319454193115,3.8058507442474365,0.29127949476242065,-1.7600457668304443,0.2650858461856842,1.9100677967071533
93,42873,42871,0.01731720380485058,-0.01165421586483717,1.0444107055664062,1.719437599182129,3.1751909255981445,-1.7809501886367798,1.8056784868240356,3.805727481842041,0.2911350131034851,-1.7797755002975464,0.30388396978378296,1.9033030271530151
94,42883,42881,0.014201564714312553,-0.02034715563058853,1.056511402130127,1.5746257305145264,5.1424479484558105,-1.7581404447555542,1.806077241897583,3.807870626449585,0.29116371273994446,-1.8417774438858032,0.20108889043331146,1.8525301218032837
95,42893,42891,0.02245366759598255,-0.03466057404875755,0.9871731996536255,1.8113232851028442,6.16917085647583,-1.5438165664672852,1.806439757347107,3.807701349258423,0.2912520468235016,-1.9330909252166748,0.25830501317977905,1.8459748029708862
96,42903,42901,-0.008557518944144249,0.02594839036464691,1.0717436075210571,2.4677066802978516,5.354452133178711,-1.7957189083099365,1.8067982196807861,3.807832717895508,0.29134804010391235,-2.0312387943267822,0.3196837604045868,1.8388317823410034
97,42913,42911,0.031112413853406906,-0.011377433314919472,0.9264578819274902,1.9076896905899048,2.6115212440490723,-1.784875750541687,1.8073252439498901,3.8082923889160156,0.29198476672172546,-2.1216237545013428,0.30688080191612244,1.8051862716674805
98,42923,42921,0.0037116254679858685,0.017840376123785973,1.040995717048645,1.30892813205719,-0.7474908828735352,-1.5696696043014526,1.807643175125122,3.8092992305755615,0.29216450452804565,-2.124401092529297,0.36271893978118896,1.800735354423523
99,42933,42931,-0.02293737605214119,-0.009533939883112907,1.114685297012329,0.9059873819351196,-4.278961181640625,-1.4084570407867432,1.8085402250289917,3.8105850219726562,0.292360782623291,-2.0567004680633545,0.32765328884124756,1.7755740880966187
100,42943,42941,0.021482251584529877,-0.001880266354419291,1.0588164329528809,0.7660428881645203,-5.372927188873291,-1.2699573040008545,1.8090018033981323,3.810549259185791,0.29381975531578064,-2.0225110054016113,0.3693665564060211,1.7704380750656128
101,42953,42951,-0.0016971455188468099,-0.021916145458817482,1.0092284679412842,0.7972583174705505,-6.5033440589904785,-1.3359723091125488,1.8085768222808838,3.8104546070098877,0.29425671696662903,-1.8880376815795898,0.4032075107097626,1.7722073793411255
102,42963,42961,0.004549090284854174,0.011472059413790703,1.0489808320999146,1.0755294561386108,-5.692272186279297,-0.9485218524932861,1.810450792312622,3.812006711959839,0.29457947611808777,-1.9797723293304443,0.2828218340873718,1.701768159866333
103,42973,42971,0.029777780175209045,-0.03722960501909256,0.9987832307815552,1.633914828300476,-4.839716911315918,-0.6554731130599976,1.8109233379364014,3.811136245727539,0.296175092458725,-1.915446400642395,0.40835052728652954,1.7316203117370605
104,42983,42981,0.0016166905406862497,0.11558599025011063,1.0041186809539795,2.2147302627563477,-3.2068018913269043,-0.6754273176193237,1.8109933137893677,3.811950206756592,0.2967771887779236,-1.7897437810897827,0.45532968640327454,1.740351676940918
105,42993,42991,0.019494855776429176,0.16890659928321838,0.939857006072998,1.7222180366516113,-2.886582374572754,-0.7193084359169006,1.8100911378860474,3.812631368637085,0.2973092794418335,-1.6844078302383423,0.4322829842567444,1.7234151363372803
106,43003,43001,-0.0378875732421875,0.0878673866391182,1.0669384002685547,0.4362204968929291,-2.974360227584839,-0.9482854008674622,1.8127049207687378,3.813190221786499,0.29771000146865845,-1.8187822103500366,0.47429850697517395,1.708551049232483
107,43013,43011,0.03647291660308838,0.07013663649559021,0.9416953325271606,-0.29902052879333496,-2.0598671436309814,-0.6528152227401733,1.8128328323364258,3.813324213027954,0.2975928485393524,-1.7254091501235962,0.49551403522491455,1.7130076885223389
108,43023,43021,-0.0052941408939659595,0.03777362406253815,1.0324864387512207,-1.6801047325134277,-3.4569830894470215,-0.8301843404769897,1.8126933574676514,3.813338041305542,0.298127144575119,-1.6355804204940796,0.49377334117889404,1.7149540185928345
109,43033,43031,0.07860769331455231,0.08423781394958496,1.0160194635391235,-2.593926191329956,-2.446911096572876,-1.3001341819763184,1.8160901069641113,3.8134219646453857,0.29853978753089905,-1.7919164896011353,0.4703054130077362,1.6852827072143555
110,43043,43041,0.03893705829977989,0.023947929963469505,0.9943807125091553,-3.3985047340393066,-7.195145130157471,-1.2732642889022827,1.8173716068267822,3.8126277923583984,0.30168333649635315,-1.7092832326889038,0.5077128410339355,1.695935845375061
111,43053,43051,-0.0018732851603999734,0.003716688835993409,1.0025010108947754,-3.941793203353882,-8.536454200744629,-1.2675148248672485,1.8183892965316772,3.8136777877807617,0.3023209273815155,-1.6565884351730347,0.3723278045654297,1.6474705934524536
112,43063,43061,-0.05082958936691284,0.05299527198076248,0.9735597372055054,-3.444697856903076,-9.917853355407715,-1.3984204530715942,1.8186367750167847,3.813011407852173,0.30306336283683777,-1.4989967346191406,0.38973626494407654,1.6577004194259644
113,43073,43071,-0.06542132049798965,0.11292510479688644,1.0229389667510986,-2.008882522583008,-9.905455589294434,-1.4341344833374023,1.8191392421722412,3.8132760524749756,0.3061384856700897,-1.320367693901062,0.3399522602558136,1.6461939811706543
114,43083,43081,0.018103454262018204,-0.0065427557565271854,0.9608325362205505,-0.5908238291740417,-8.046272277832031,-1.5736699104309082,1.8200000524520874,3.813326597213745,0.3069921135902405,-1.0867537260055542,0.39654991030693054,1.6665130853652954
115,43093,43091,0.022847354412078857,-0.02992432564496994,1.0097107887268066,0.2074107825756073,-4.765327453613281,-1.8160297870635986,1.8239805698394775,3.815068006515503,0.30768996477127075,-1.336750864982605,0.24235275387763977,1.5743173360824585
116,43103,43101,-0.014628829434514046,0.011365706101059914,1.0238096714019775,1.0386221408843994,-1.8195526599884033,-1.5254040956497192,1.8275303840637207,3.8148648738861084,0.3112848401069641,-1.4803228378295898,0.2587014138698578,1.54249107837677
117,43113,43111,0.01832733303308487,-0.07771861553192139,0.9151391386985779,2.0301101207733154,-2.0286190509796143,-1.9511456489562988,1.8279651403427124,3.8151073455810547,0.31240588426589966,-1.3292523622512817,0.29562193155288696,1.5461843013763428
118,43123,43121,0.01855708844959736,-0.09662170708179474,0.8939048647880554,1.9829821586608887,-7.234401702880859,-1.178903341293335,1.8301584720611572,3.815955638885498,0.31325510144233704,-1.2894700765609741,0.3397228419780731,1.5356078147888184
119,43133,43131,0.031008519232273102,-0.05386507138609886,0.9266279339790344,2.1426210403442383,-9.212657928466797,-0.8853045105934143,1.831733226776123,3.81575608253479,0.31410732865333557,-1.1919457912445068,0.3818362355232239,1.5303152799606323
120,43143,43141,0.11252694576978683,-0.11145009845495224,0.8570596575737,0.7163779735565186,-12.273056983947754,-0.7529737949371338,1.8327492475509644,3.8167054653167725,0.31083911657333374,-1.0502679347991943,0.4180528521537781,1.5290206670761108
121,43153,43151,0.03320714831352234,-0.06601922959089279,0.9431878328323364,0.011011414229869843,-17.63873863220215,-1.026997447013855,1.8342580795288086,3.8169145584106445,0.31118887662887573,-0.9222545623779297,0.42889052629470825,1.5190050601959229
122,43163,43161,0.03320755437016487,-0.10069289058446884,0.9147037863731384,-1.7158819437026978,-16.344083786010742,-0.5918056964874268,1.8333406448364258,3.817791223526001,0.3117770850658417,-0.5227340459823608,0.34445664286613464,1.5180541276931763
123,43173,43171,0.023852741345763206,-0.08120088279247284,0.9171324968338013,-2.2270472049713135,-12.568099975585938,-0.7895687818527222,1.8369808197021484,3.8184337615966797,0.3113029897212982,-0.6321170330047607,0.3181914687156677,1.485050916671753
124,43183,43181,0.01999969594180584,-0.19930870831012726,0.9305706024169922,-1.5521289110183716,-8.029329299926758,-0.897037923336029,1.8382267951965332,3.818523645401001,0.3115305006504059,-0.47095492482185364,0.2916843295097351,1.4804579019546509
125,43193,43191,-0.01890762895345688,-0.21258382499217987,1.0077803134918213,-1.5151299238204956,-3.8152947425842285,-1.209347128868103,1.8396587371826172,3.819304943084717,0.3116426169872284,-0.3832866847515106,0.27175718545913696,1.4711463451385498
126,43203,43201,-0.06949271261692047,-0.1525515764951706,1.0646522045135498,-1.0455530881881714,-0.13904336094856262,-1.6194591522216797,1.841279149055481,3.8172082901000977,0.31154927611351013,-0.36047783493995667,0.41082221269607544,1.4751863479614258
127,43213,43211,0.0100534837692976,-0.08199989050626755,0.9454755783081055,-1.862760305404663,2.8020520210266113,-1.8134312629699707,1.8428915739059448,3.8172004222869873,0.3116223216056824,-0.4070703983306885,0.3813371956348419,1.4521671533584595
128,43223,43221,0.11603143066167831,0.018278200179338455,0.9165830612182617,-3.53580904006958,2.4453136920928955,-1.2928073406219482,1.8427937030792236,3.8175928592681885,0.31181225180625916,-0.32346591353416443,0.33369892835617065,1.442762017250061
129,43233,43231,0.03164481744170189,0.02528209052979946,0.964296817779541,-3.834679365158081,-1.0224899053573608,-1.2824110984802246,1.846630334854126,3.817878007888794,0.3116871416568756,-0.5310430526733398,0.26490193605422974,1.4101005792617798
130,43243,43241,0.035982877016067505,0.036233220249414444,0.9550773501396179,-3.7703096866607666,-5.178262710571289,-1.285910964012146,1.8462554216384888,3.8181965351104736,0.3108386993408203,-0.3423791825771332,0.19706915318965912,1.4085297584533691
131,43253,43251,0.02982868067920208,0.052849382162094116,0.9728281497955322,-3.1959617137908936,-8.454286575317383,-1.1277116537094116,1.8465797901153564,3.8179614543914795,0.3109002709388733,-0.08465836942195892,0.1281944066286087,1.4056789875030518
132,43263,43261,0.05057349056005478,-0.07232982665300369,1.0116533041000366,-1.7500582933425903,-8.778007507324219,-0.9631319642066956,1.8472386598587036,3.817326784133911,0.3109579384326935,0.01554123591631651,0.16086390614509583,1.4004051685333252
133,43273,43271,0.010073423385620117,0.0755351111292839,1.0095163583755493,-0.7291640639305115,-7.559398174285889,-0.706991970539093,1.8487638235092163,3.817784070968628,0.3139631748199463,0.11138346046209335,0.12915675342082977,1.3916640281677246
134,43283,43281,0.02773718349635601,-0.07899769395589828,0.9692936539649963,-0.15335892140865326,-2.767833948135376,-1.0034117698669434,1.8508422374725342,3.817389488220215,0.3140310049057007,0.07230202108621597,0.11841466277837753,1.3767930269241333
135,43293,43291,-0.007652809843420982,-0.027626723051071167,1.0182346105575562,0.3167799711227417,0.23727834224700928,-0.9944067597389221,1.8525344133377075,3.8174378871917725,0.31405702233314514,0.05576643720269203,0.11811629682779312,1.3697500228881836
136,43303,43301,0.01961546391248703,-0.08553352952003479,0.9392295479774475,0.09084746986627579,1.4920974969863892,-1.0823676586151123,1.8536248207092285,3.8173885345458984,0.31213992834091187,0.07496848702430725,0.12007767707109451,1.3607256412506104
137,43313,43311,0.04250548779964447,-0.10457287728786469,0.9319607615470886,-0.42363131046295166,1.0375823974609375,-0.7562233209609985,1.8555936813354492,3.8167765140533447,0.3120839595794678,-0.001780052320100367,0.19378982484340668,1.3479583263397217
138,43323,43321,0.0076326048001646996,-0.014984199777245522,1.0030059814453125,-1.4039586782455444,-0.5867061018943787,-0.824366569519043,1.8566582202911377,3.816941499710083,0.3120080232620239,0.02534463256597519,0.16933032870292664,1.3420287370681763
139,43333,43331,-0.040056172758340836,0.10469236224889755,1.0077296495437622,-2.0104613304138184,-2.410784959793091,-1.2479945421218872,1.8582499027252197,3.81693959236145,0.3118627369403839,0.157943993806839,0.13121750950813293,1.3370896577835083
140,43343,43341,0.005007133819162846,0.000882771098986268,0.9712180495262146,-2.205606460571289,-2.2708849906921387,-1.0947442054748535,1.861879825592041,3.8178751468658447,0.31425192952156067,-0.009703111834824085,0.0877545028924942,1.317229986190796
141,43353,43351,-0.024408455938100815,0.09905572980642319,1.013540267944336,-2.032663106918335,-1.9289997816085815,-0.6525552272796631,1.8631086349487305,3.8184926509857178,0.31425532698631287,-0.014343973249197006,0.05041028931736946,1.3041014671325684
142,43363,43361,0.0022843440528959036,0.16326823830604553,0.9543312788009644,-1.9718196392059326,-3.4674599170684814,-1.3049209117889404,1.8629831075668335,3.819265127182007,0.31440797448158264,0.131272092461586,0.015122141689062119,1.297132968902588
143,43373,43371,0.007947728037834167,0.03550511226058006,0.998649537563324,-1.3118493556976318,-3.854135036468506,-0.9835740923881531,1.8663362264633179,3.818265199661255,0.31710490584373474,0.14228346943855286,0.05966287851333618,1.2812241315841675
144,43383,43381,0.006517776753753424,0.01574402116239071,1.012452483177185,-0.9868637919425964,-2.814923048019409,-1.2107940912246704,1.8679728507995605,3.8170149326324463,0.3172115385532379,0.14364026486873627,0.1038433313369751,1.2594075202941895
145,43393,43391,-0.02221076190471649,-0.029004117473959923,1.0915395021438599,-0.3047953248023987,-2.085569381713867,-1.8013205528259277,1.8677544593811035,3.817089796066284,0.31749123334884644,0.30458396673202515,0.07535044848918915,1.2521448135375977
146,43403,43401,-0.06540028005838394,-0.06310401856899261,1.088456153869629,-0.9696040749549866,-0.14319927990436554,-1.7181628942489624,1.8689334392547607,3.8178510665893555,0.3159882128238678,0.21896885335445404,-0.023356445133686066,1.2409424781799316
147,43413,43411,0.05652931332588196,-0.04196130111813545,0.9372484087944031,-1.4686965942382812,2.9220526218414307,-1.9355684518814087,1.8717215061187744,3.818124771118164,0.31627923250198364,0.15978801250457764,-0.04695393890142441,1.2232954502105713
148,43423,43421,-0.024634283035993576,0.014213800430297852,0.9858455657958984,-1.0004085302352905,1.5285390615463257,-1.602879524230957,1.8707506656646729,3.818629264831543,0.31636905670166016,0.2682912051677704,-0.06921636313199997,1.207910180091858
149,43433,43431,0.019811978563666344,0.012426270171999931,0.940523087978363,-0.6028196811676025,0.9240884184837341,-1.444530725479126,1.8734052181243896,3.8179500102996826,0.3164646625518799,0.12720224261283875,-0.00580679252743721,1.1843397617340088
150,43443,43441,0.10202895104885101,0.01322869025170803,0.9454187750816345,0.32685285806655884,0.4511479139328003,-0.8410890102386475,1.8738681077957153,3.8185884952545166,0.31542566418647766,0.22899749875068665,-0.017429083585739136,1.1765884160995483
151,43453,43451,0.15111231803894043,-0.07599590718746185,0.9361627697944641,1.0206331014633179,-0.4873647391796112,-0.7401951551437378,1.874414324760437,3.818189859390259,0.315535306930542,0.3209550976753235,0.06325683742761612,1.1630998849868774
152,43463,43461,0.017912032082676888,-0.07269838452339172,0.9754315614700317,0.3260892927646637,-1.0044835805892944,-0.6864290833473206,1.8762214183807373,3.8185815811157227,0.31546011567115784,0.27144262194633484,0.06530872732400894,1.1552939414978027
153,43473,43471,0.03592034429311752,-0.16213394701480865,0.9665293097496033,-1.5840731859207153,-0.5463786721229553,-0.7432897686958313,1.8767284154891968,3.8189942836761475,0.31500309705734253,0.36975640058517456,0.046017032116651535,1.150405764579773
154,43483,43481,0.00218372093513608,-0.1288902461528778,0.9633184671401978,-4.0046467781066895,0.550369143486023,-0.8474932312965393,1.8783268928527832,3.8189399242401123,0.31489452719688416,0.29762986302375793,-0.005994646809995174,1.1429249048233032
155,43493,43491,0.0025407641660422087,-0.02562406100332737,0.963695764541626,-4.495022773742676,0.6674454808235168,-1.308672308921814,1.8806531429290771,3.8191702365875244,0.3146832287311554,0.21849068999290466,-0.011579048819839954,1.1267257928848267
156,43503,43501,0.010364538058638573,0.09904222935438156,1.009266972541809,-4.39166784286499,2.5555264949798584,-1.5376137495040894,1.8811519145965576,3.8194522857666016,0.3144091069698334,0.2905614972114563,-0.10218078643083572,1.1174184083938599
157,43513,43511,0.015807881951332092,-0.02591119520366192,0.9604094624519348,-3.5455026626586914,3.0772011280059814,-1.8607147932052612,1.8809890747070312,3.82004714012146,0.3142716884613037,0.3322542905807495,-0.182794451713562,1.1060645580291748
158,43523,43521,0.02646947279572487,-0.06350407004356384,0.9782633781433105,-1.6486603021621704,3.014620065689087,-1.9391543865203857,1.8817641735076904,3.8195841312408447,0.3141418993473053,0.36463308334350586,-0.08230160176753998,1.0798360109329224
159,43533,43531,-0.005699805449694395,0.05996270105242729,1.0875505208969116,0.2539081871509552,3.963787794113159,-1.9647828340530396,1.8842482566833496,3.819005012512207,0.31517499685287476,0.15514419972896576,-0.038844265043735504,1.0537444353103638
160,43543,43541,0.011296617798507214,0.04905608668923378,1.0535914897918701,0.05869116634130478,5.926019191741943,-2.3445816040039062,1.8853060007095337,3.8189992904663086,0.3150196075439453,0.09164474159479141,-0.0556204691529274,1.0335514545440674
161,43553,43551,-0.03312588855624199,0.07208851724863052,0.9710537791252136,-0.44052472710609436,4.747427463531494,-2.2964327335357666,1.8857200145721436,3.8189995288848877,0.3149755597114563,0.09255358576774597,-0.07477167248725891,1.0087043046951294
162,43563,43561,-0.014031139202415943,0.048029325902462006,0.9501423835754395,-1.130265235900879,2.311116933822632,-2.4289448261260986,1.8867955207824707,3.8190388679504395,0.3148949146270752,0.031898580491542816,-0.10366227477788925,0.9875446557998657
163,43573,43571,0.023517416790127754,-0.10412544757127762,1.0234497785568237,-1.986932396888733,0.047984905540943146,-2.377655267715454,1.8877369165420532,3.819700002670288,0.3125196397304535,0.10328322649002075,-0.14222070574760437,0.9732339382171631
164,43583,43581,0.025184115394949913,-0.04287067800760269,1.0396714210510254,-2.576643705368042,0.3238327205181122,-2.3662214279174805,1.8899251222610474,3.8193037509918213,0.31220003962516785,-0.046333231031894684,-0.11751013994216919,0.9509950280189514
165,43593,43591,-0.0028716905508190393,-0.04658275470137596,0.9731692671775818,-1.927751064300537,0.817078709602356,-2.0875539779663086,1.890398621559143,3.82060170173645,0.31208452582359314,0.050651535391807556,-0.17976327240467072,0.9318295121192932
166,43603,43601,0.005154714919626713,0.0030925509054213762,1.018252968788147,-3.0196681022644043,1.305813193321228,-1.7814900875091553,1.8917170763015747,3.8207221031188965,0.31060144305229187,0.04931838810443878,-0.23481789231300354,0.9259889721870422
167,43613,43611,-0.013140268623828888,0.01838807202875614,1.0164917707443237,-2.4401204586029053,1.614745855331421,-1.81109619140625,1.8930625915527344,3.8222904205322266,0.3103162944316864,0.04127618670463562,-0.29430916905403137,0.9103009104728699
168,43623,43621,0.022081619128584862,-0.06876059621572495,1.0175124406814575,-1.4681148529052734,-0.21748444437980652,-1.3790431022644043,1.8953759670257568,3.8222618103027344,0.31005656719207764,0.021450836211442947,-0.25759458541870117,0.8901416659355164
169,43633,43631,-0.04314166307449341,-0.15686362981796265,1.0924160480499268,1.0022320747375488,2.6781280040740967,-2.180438995361328,1.8959239721298218,3.821486473083496,0.3144749402999878,0.0840192586183548,-0.20426832139492035,0.8676019310951233
170,43643,43641,0.0324307419359684,-0.05521702766418457,0.9939700365066528,1.6800378561019897,4.957065105438232,-2.003967761993408,1.8970013856887817,3.8230080604553223,0.3145524561405182,0.008541816845536232,-0.2732847332954407,0.8606143593788147
171,43653,43651,-0.00886298157274723,0.0476444847881794,1.0807323455810547,1.3837000131607056,5.669626712799072,-1.763608694076538,1.8984384536743164,3.822861671447754,0.31466159224510193,-0.07736829668283463,-0.25323858857154846,0.8424314856529236
172,43663,43661,0.01339743286371231,-0.043821949511766434,0.9753563404083252,0.7815089821815491,3.9397294521331787,-1.691543698310852,1.8993229866027832,3.8238584995269775,0.3148709535598755,-0.08015485107898712,-0.24060501158237457,0.833897590637207
173,43673,43671,-0.020918656140565872,-0.05024542659521103,0.9807174205780029,-0.23033814132213593,1.4833219051361084,-1.5869553089141846,1.9005969762802124,3.8237879276275635,0.3129425048828125,-0.12810330092906952,-0.2403940111398697,0.8164289593696594
174,43683,43681,-0.027287492528557777,-0.04197606071829796,1.0162140130996704,-0.835809588432312,1.2529979944229126,-1.7206623554229736,1.9010955095291138,3.8235223293304443,0.3130568861961365,-0.14963442087173462,-0.17746266722679138,0.8040071129798889
175,43693,43691,0.006929326802492142,-0.02309977449476719,1.0063856840133667,-0.33052578568458557,-0.45298951864242554,-1.7289196252822876,1.9009578227996826,3.8235719203948975,0.3131677508354187,-0.07766648381948471,-0.20469053089618683,0.784496545791626
176,43703,43701,0.041039664298295975,-0.0705152153968811,1.0233575105667114,0.0130993677303195,0.0018857455579563975,-0.9356293082237244,1.90164053440094,3.824021100997925,0.3175780475139618,-0.004028537776321173,-0.21935708820819855,0.770234227180481
177,43713,43711,0.06887973845005035,-0.13276079297065735,1.012429118156433,0.24293404817581177,0.7679806351661682,-1.4575321674346924,1.9031842947006226,3.8242757320404053,0.31788167357444763,-0.09074489772319794,-0.22684882581233978,0.7646844983100891
178,43723,43721,0.00580850662663579,0.013798418454825878,1.0311204195022583,0.2569044828414917,2.5501227378845215,-2.148904323577881,1.9047561883926392,3.824655532836914,0.3181644380092621,-0.18979157507419586,-0.2287319302558899,0.75020432472229
179,43733,43731,0.005277913995087147,0.015765057876706123,0.9621987342834473,0.5216026306152344,1.3228117227554321,-1.6469202041625977,1.9049808979034424,3.8246352672576904,0.31774261593818665,-0.14427517354488373,-0.230718731880188,0.7283378839492798
180,43743,43741,0.01806539110839367,-0.023344216868281364,0.977571427822113,1.1365697383880615,2.092458963394165,-1.886941909790039,1.9066892862319946,3.8244590759277344,0.31800809502601624,-0.25335976481437683,-0.22443504631519318,0.7139831185340881
181,43753,43751,-0.02200179174542427,-0.027890343219041824,1.0271519422531128,1.8580162525177002,-1.2415484189987183,-1.2924261093139648,1.9070888757705688,3.8244123458862305,0.3183762729167938,-0.1997944712638855,-0.20574277639389038,0.6944180130958557
182,43763,43761,-0.0016928826225921512,-0.0340072400867939,1.016306757926941,2.549057960510254,2.5060532093048096,-1.9881399869918823,1.907841682434082,3.824863910675049,0.3230087459087372,-0.2172902673482895,-0.17623217403888702,0.6851048469543457
183,43773,43771,-0.04554079473018646,-0.0001429361291229725,1.063414216041565,1.933546781539917,3.027209520339966,-2.254793167114258,1.9089980125427246,3.8247082233428955,0.3235802948474884,-0.24375185370445251,-0.14197798073291779,0.665072500705719
184,43783,43781,-0.09390188753604889,-0.07530317455530167,1.0777556896209717,2.164912462234497,2.698406457901001,-2.2860004901885986,1.9105623960494995,3.8249948024749756,0.32414060831069946,-0.34411653876304626,-0.11379828304052353,0.6533125042915344
185,43793,43791,0.0014621883165091276,-0.13107766211032867,0.9360828399658203,1.0268924236297607,1.625933289527893,-2.1442205905914307,1.9118653535842896,3.8255770206451416,0.32487842440605164,-0.2900947630405426,-0.08694761991500854,0.6449742913246155
186,43803,43801,0.05517515912652016,-0.10847169905900955,0.8900748491287231,0.07892312854528427,1.2863768339157104,-2.238093852996826,1.9132839441299438,3.8257861137390137,0.3221830427646637,-0.3750978410243988,-0.08496598154306412,0.6241137981414795
187,43813,43811,-0.03818528354167938,-0.07216119021177292,0.9606955647468567,-1.1453760862350464,-0.8608112931251526,-1.8306798934936523,1.915152668952942,3.8264904022216797,0.32254472374916077,-0.41227835416793823,-0.09470749646425247,0.6148571968078613
188,43823,43821,-0.05342132970690727,-0.0017589739290997386,0.9904834628105164,-1.3291128873825073,-1.4433940649032593,-1.999274492263794,1.914687156677246,3.8265037536621094,0.3231522738933563,-0.22092263400554657,-0.12132120132446289,0.5889155268669128
189,43833,43831,-0.07408889383077621,0.03701631724834442,0.9770181179046631,-1.4626246690750122,-4.343920707702637,-1.5893291234970093,1.91592276096344,3.8270158767700195,0.32297173142433167,-0.236245796084404,-0.14768271148204803,0.5758152008056641
190,43843,43841,-0.03187862038612366,0.021338706836104393,0.9545222520828247,-0.7421699166297913,-1.4177433252334595,-1.599441647529602,1.9163161516189575,3.8273720741271973,0.3233470618724823,-0.09071463346481323,-0.16983585059642792,0.5561006665229797
191,43853,43851,0.024290842935442924,-0.0656820610165596,0.9434701204299927,-0.048549290746450424,0.21780309081077576,-1.648847222328186,1.9171884059906006,3.827247381210327,0.3236462473869324,-0.05661165341734886,-0.10425277799367905,0.5481472611427307
192,43863,43861,0.06867373734712601,-0.11909710615873337,0.9419022798538208,0.7281453013420105,2.8713254928588867,-2.218297004699707,1.9181029796600342,3.8275251388549805,0.32491081953048706,-0.15251553058624268,-0.10739833116531372,0.5413013100624084
193,43873,43871,-0.01782337576150894,0.07093290239572525,0.956784188747406,0.6147146224975586,3.6489288806915283,-2.720179319381714,1.9184240102767944,3.8272478580474854,0.3251923620700836,-0.11786805093288422,-0.10446112602949142,0.5135554671287537
194,43883,43881,-0.05252249166369438,0.06642254441976547,1.0255712270736694,1.2625877857208252,1.8131427764892578,-1.5863457918167114,1.9197841882705688,3.827745199203491,0.3253847658634186,-0.23260119557380676,-0.09615644067525864,0.5017130970954895
195,43893,43891,-0.030809659510850906,0.0006421331199817359,1.0408235788345337,0.5675203204154968,3.9860589504241943,-2.8145735263824463,1.920091986656189,3.827636957168579,0.32564547657966614,-0.19364766776561737,-0.08563355356454849,0.4863337278366089
196,43903,43901,-0.016699619591236115,-0.09056489169597626,0.9902626276016235,0.5003027319908142,0.896914005279541,-2.926499605178833,1.9217106103897095,3.8280930519104004,0.3265584707260132,-0.30910471081733704,-0.08314232528209686,0.46260568499565125
197,43913,43911,0.054439570754766464,-0.05448140576481819,0.9009105563163757,0.5221260786056519,2.9521586894989014,-3.2425308227539062,1.922782301902771,3.8287947177886963,0.32677149772644043,-0.3378189206123352,-0.0830874890089035,0.4309559464454651
198,43923,43921,0.04280268773436546,-0.02100451849400997,0.9225026369094849,0.8099036812782288,-0.39382776618003845,-3.2490670680999756,1.9229037761688232,3.828326463699341,0.3270212411880493,-0.2661742568016052,-0.07927324622869492,0.4056375026702881
199,43933,43931,0.038756001740694046,0.03822418674826622,0.9631662368774414,1.0449224710464478,0.9374488592147827,-2.8233485221862793,1.924188494682312,3.8289034366607666,0.32877546548843384,-0.2400812953710556,-0.06943388283252716,0.37627527117729187
200,43943,43941,0.03626636788249016,0.08060716092586517,0.9798318147659302,1.4893826246261597,-2.7220802307128906,-2.848601818084717,1.9264506101608276,3.8288586139678955,0.328875333070755,-0.2880355715751648,0.022009318694472313,0.3609499931335449
201,43953,43951,-0.005822237115353346,0.014456348493695259,0.9823737740516663,0.04898326098918915,-3.210991382598877,-2.9036664962768555,1.9264200925827026,3.8292181491851807,0.3290899991989136,-0.13988403975963593,0.02568056620657444,0.33999988436698914
202,43963,43961,0.07621389627456665,0.0170034971088171,0.932896614074707,-0.5154664516448975,-1.5028319358825684,-2.382242441177368,1.9277340173721313,3.8291428089141846,0.32675525546073914,-0.17081329226493835,0.011001555249094963,0.3103620111942291
203,43973,43971,0.029656345024704933,-0.0014650385128334165,0.9619558453559875,-2.07249116897583,-0.9306455254554749,-2.3476274013519287,1.9292006492614746,3.82987642288208,0.326567679643631,-0.2019299566745758,-0.09325244277715683,0.28863999247550964
204,43983,43981,0.004787838086485863,-0.008537707850337029,0.9767501354217529,-2.835941791534424,0.33954837918281555,-2.5533862113952637,1.9291921854019165,3.8302104473114014,0.32640573382377625,-0.17237667739391327,-0.13232271373271942,0.26618051528930664
205,43993,43991,0.017323916777968407,0.0011435045162215829,0.9555988311767578,-1.6826651096343994,0.8605460524559021,-3.3749747276306152,1.9297535419464111,3.828660488128662,0.3262283504009247,-0.09001675248146057,-0.020253056660294533,0.23909389972686768
206,44003,44001,-0.02392374724149704,0.047122400254011154,0.9563122987747192,-0.467703253030777,1.957253098487854,-2.3570358753204346,1.9310792684555054,3.829240083694458,0.3255777060985565,-0.1832854449748993,-0.05826964229345322,0.2232680469751358
207,44013,44011,-0.034360628575086594,0.0012789095053449273,0.9954636096954346,-0.33121708035469055,1.0566091537475586,-1.9700924158096313,1.9318045377731323,3.8298089504241943,0.3252570927143097,-0.1297871321439743,-0.0718410387635231,0.21625985205173492
208,44023,44021,0.061912983655929565,-0.21825620532035828,1.0191558599472046,0.40995359420776367,2.678067207336426,-2.494403839111328,1.930846929550171,3.8303332328796387,0.3248753249645233,-0.07855744659900665,-0.08257943391799927,0.20991891622543335
209,44033,44031,0.03766736015677452,-0.10304726660251617,0.9772064685821533,-0.09776412695646286,2.553375482559204,-2.301617383956909,1.9333136081695557,3.82999849319458,0.3229001760482788,-0.27669984102249146,-0.009718532674014568,0.1869467943906784
210,44043,44041,0.039744783192873,-0.1311435103416443,0.9844098687171936,-0.843533992767334,2.209383964538574,-2.964601516723633,1.9338711500167847,3.830364227294922,0.32244783639907837,-0.22886498272418976,-0.027314864099025726,0.18218928575515747
211,44053,44051,0.012771637178957462,-0.053243014961481094,1.013832449913025,-1.9343695640563965,1.5899927616119385,-2.97979998588562,1.9346777200698853,3.831157684326172,0.32195988297462463,-0.2572973966598511,-0.061905696988105774,0.15100030601024628
212,44063,44061,0.010674426332116127,0.06539639830589294,0.9787890315055847,-1.8079440593719482,0.5137764811515808,-3.120246410369873,1.9377458095550537,3.83263897895813,0.32088279724121094,-0.43074139952659607,-0.10693778097629547,0.14536355435848236
213,44073,44071,0.02836044877767563,0.08004330843687057,0.9682551026344299,-1.2889617681503296,-0.6539159417152405,-3.812190055847168,1.9381332397460938,3.8331336975097656,0.3204425573348999,-0.3352052867412567,-0.1427750587463379,0.11721182614564896
214,44083,44081,0.03342311456799507,0.2676883935928345,0.986690878868103,-0.6094527244567871,-3.6497795581817627,-3.5017220973968506,1.9383354187011719,3.8343331813812256,0.3200075924396515,-0.22472818195819855,-0.16825008392333984,0.09975240379571915
215,44093,44091,0.01856447011232376,0.05557946860790253,0.9671977758407593,0.4771920442581177,-3.715114116668701,-3.128181219100952,1.9420652389526367,3.836350917816162,0.3192269206047058,-0.4659229815006256,-0.17677457630634308,0.10608192533254623
216,44103,44101,0.01672416739165783,-0.052098583430051804,0.9845665097236633,1.0853670835494995,-4.243183612823486,-3.4546215534210205,1.9419214725494385,3.836060047149658,0.31540176272392273,-0.2895343601703644,-0.16823603212833405,0.06633417308330536
217,44113,44111,0.017930585891008377,-0.09052117168903351,1.0318337678909302,1.3703572750091553,-3.698421001434326,-2.934896230697632,1.942498803138733,3.836562395095825,0.31388282775878906,-0.11921969056129456,-0.15157155692577362,0.041003596037626266
218,44123,44121,0.004234139807522297,-0.07052519172430038,1.0276390314102173,2.269603729248047,-2.03706431388855,-2.6730387210845947,1.9439198970794678,3.836456775665283,0.3138175904750824,-0.21198523044586182,-0.12645235657691956,0.015077279880642891
219,44133,44131,0.008947278372943401,0.018001599237322807,1.035107135772705,1.5577629804611206,-0.2396681308746338,-2.4844439029693604,1.9454742670059204,3.836094379425049,0.3136667311191559,-0.2421122044324875,-0.017736656591296196,0.0004886591923423111
220,44143,44141,-0.009564321488142014,-0.08063851296901703,0.9667164087295532,-0.25814858078956604,-0.050224922597408295,-2.4297499656677246,1.9472664594650269,3.8366758823394775,0.31293001770973206,-0.29394957423210144,-0.08884412050247192,-0.028730349615216255
221,44153,44151,0.003151169279590249,0.0024364241398870945,1.025673270225525,-1.2161893844604492,-0.9884202480316162,-2.107982873916626,1.9471843242645264,3.8369357585906982,0.31235381960868835,-0.18880733847618103,-0.10584712028503418,-0.012344016693532467
222,44163,44161,0.017161715775728226,0.012068280018866062,1.0382468700408936,-0.9738372564315796,-2.376357316970825,-2.2766001224517822,1.9487030506134033,3.838982582092285,0.31374168395996094,-0.1468506008386612,-0.12762917578220367,-0.023547185584902763
223,44173,44171,0.014234811998903751,0.013331891037523746,1.0726778507232666,-0.27556803822517395,-2.4821982383728027,-2.142756462097168,1.950110673904419,3.838902473449707,0.3131842613220215,-0.158535435795784,-0.14044933021068573,-0.05344097316265106
224,44183,44181,0.007191956974565983,-0.030119458213448524,1.0274684429168701,1.3058017492294312,-2.6511049270629883,-1.7905491590499878,1.9516681432724,3.8396384716033936,0.31268176436424255,-0.15988630056381226,-0.06003587320446968,-0.04099833965301514
225,44193,44191,-0.007531748153269291,-0.01171176414936781,1.0389134883880615,2.3978986740112305,-3.3465070724487305,-1.7166457176208496,1.9530359506607056,3.839951753616333,0.31048914790153503,0.009819664992392063,-0.04230789467692375,-0.05006440356373787
226,44203,44201,0.012407470494508743,-0.018753647804260254,1.0411826372146606,2.181661367416382,-3.1098530292510986,-1.4819930791854858,1.9546364545822144,3.8400518894195557,0.310392290353775,-0.15012487769126892,-0.008824625983834267,-0.08021744340658188
227,44213,44211,-0.0064374408684670925,-0.006217986345291138,1.065853476524353,1.3649394512176514,-2.998072862625122,-1.4332034587860107,1.954714298248291,3.8395562171936035,0.31007710099220276,0.006458292715251446,0.014170411042869091,-0.09043487161397934
228,44223,44221,0.06615307182073593,-0.02500746212899685,1.058599591255188,-0.008522819727659225,-2.067516803741455,-1.4973522424697876,1.956199288368225,3.8391575813293457,0.3096649944782257,-0.026166656985878944,0.02010134793817997,-0.11420544981956482
229,44233,44231,-0.05277862027287483,-0.026755431666970253,1.0903139114379883,-1.217125415802002,-5.60308313369751,-1.3524861335754395,1.957212209701538,3.8395330905914307,0.30854591727256775,0.03854573145508766,0.004567333962768316,-0.129837304353714
230,44243,44241,0.027584580704569817,-0.005699677858501673,1.0355374813079834,-2.5647571086883545,1.0703240633010864,-0.9044482111930847,1.9583806991577148,3.839054822921753,0.3082236349582672,0.02162388153374195,-0.03493165224790573,-0.1419922560453415
231,44253,44251,-0.04154375568032265,-0.019907241687178612,1.0404086112976074,-2.0472240447998047,-0.795996367931366,-0.9198272824287415,1.9603145122528076,3.8406646251678467,0.3080008327960968,0.06693892180919647,-0.08289032429456711,-0.1397715061903
232,44263,44261,-0.04546777904033661,0.005001584999263287,1.057399034500122,-1.2322876453399658,0.2542246878147125,-1.0538984537124634,1.9628469944000244,3.841256856918335,0.31111735105514526,-0.052988436073064804,-0.11548372358083725,-0.14325988292694092
233,44273,44271,0.021090108901262283,-0.03874730318784714,1.032220721244812,0.04971285164356232,-1.2096869945526123,-1.04416823387146,1.9643046855926514,3.841104745864868,0.3111380338668823,-0.08073239028453827,-0.1331074833869934,-0.16527152061462402
234,44283,44281,0.04070260375738144,-0.00830488558858633,1.018193006515503,1.215968132019043,-0.6351228952407837,-1.4059350490570068,1.964619755744934,3.841620922088623,0.31139320135116577,0.05639272555708885,-0.0537770539522171,-0.15513373911380768
235,44293,44291,-0.02826666086912155,0.06620439141988754,1.0071312189102173,1.8962801694869995,-4.1132402420043945,-0.9647665619850159,1.9682141542434692,3.8409647941589355,0.30832019448280334,-0.03578644245862961,-0.03732137382030487,-0.18169856071472168
236,44303,44301,-0.05491071566939354,0.09940584003925323,0.9993709325790405,2.385157823562622,-5.090156078338623,-0.5774139761924744,1.9670079946517944,3.841395378112793,0.3084583878517151,0.15097731351852417,-0.011112462729215622,-0.18449102342128754
237,44313,44311,-0.04153209179639816,0.03796066716313362,1.0374411344528198,2.465545177459717,-4.432333946228027,-0.4456849992275238,1.9685380458831787,3.841500997543335,0.3084504306316376,0.25123104453086853,0.020717300474643707,-0.18258826434612274
