,timestamp_start,timestamp_end,acc.x,acc.y,acc.z,gyro.x,gyro.y,gyro.z,stateEstimate.x,stateEstimate.y,stateEstimate.z,stabilizer.pitch,stabilizer.roll,stabilizer.yaw
0,20609,20607,0.005281360819935799,-0.024599824100732803,1.08183753490448,-4.444436550140381,-2.5739212036132812,2.098146438598633,1.7552490234375,3.7890191078186035,0.16352297365665436,-1.580499529838562,-0.32847875356674194,1.709496259689331
1,20619,20617,0.017734916880726814,-0.060094088315963745,1.0681438446044922,-2.317164421081543,-1.9052821397781372,2.1961469650268555,1.7550184726715088,3.788501739501953,0.16504865884780884,-1.575927972793579,-0.2692100703716278,1.7569900751113892
2,20629,20627,0.026006443426012993,-0.0584067739546299,1.0818876028060913,0.8987900018692017,-6.187970161437988,1.634020209312439,1.755618929862976,3.7894976139068604,0.1665491759777069,-1.6296366453170776,-0.3424190282821655,1.765166997909546
3,20639,20637,0.02679317444562912,-0.02374046854674816,1.0645254850387573,0.7461004257202148,-8.443117141723633,1.573035478591919,1.7554043531417847,3.788695812225342,0.1680847853422165,-1.6086159944534302,-0.2137669026851654,1.8207401037216187
4,20649,20647,0.014087812043726444,0.01504937931895256,1.0851173400878906,-0.47559472918510437,-8.46330738067627,2.386256694793701,1.7553492784500122,3.788604497909546,0.16982008516788483,-1.4615817070007324,-0.24328526854515076,1.8247604370117188
5,20659,20657,0.0065471879206597805,-0.09728145599365234,1.0955690145492554,-1.0663650035858154,-9.34509563446045,1.885917067527771,1.7563250064849854,3.7889509201049805,0.171609029173851,-1.3866111040115356,-0.349485844373703,1.811731219291687
6,20669,20667,0.009875224903225899,-0.13594990968704224,1.123231291770935,1.107225775718689,-8.699541091918945,1.3587604761123657,1.755682349205017,3.78920316696167,0.17344985902309418,-1.2991300821304321,-0.37935540080070496,1.8244773149490356
7,20679,20677,0.015002255327999592,-0.04102301597595215,1.088708519935608,0.8590908050537109,-5.431729316711426,1.611997365951538,1.7556487321853638,3.787916421890259,0.17492716014385223,-1.214505910873413,-0.23772427439689636,1.8834887742996216
8,20689,20687,0.03788480907678604,-0.1168903112411499,1.049973964691162,0.36279061436653137,-4.121549606323242,1.3924394845962524,1.754102110862732,3.7883052825927734,0.17692145705223083,-1.16569983959198,-0.25723639130592346,1.8926243782043457
9,20699,20697,0.009278319776058197,-0.04124497249722481,1.101819396018982,1.4735846519470215,-3.6801211833953857,1.760809063911438,1.751846194267273,3.790541410446167,0.1791202276945114,-0.9204500317573547,-0.5642778873443604,1.8099498748779297
10,20709,20707,-0.022502409294247627,-0.04405764117836952,1.116969108581543,3.080188035964966,-4.515928745269775,2.3512983322143555,1.7539997100830078,3.7938127517700195,0.17840607464313507,-0.9356365203857422,-1.0957272052764893,1.6783273220062256
11,20719,20717,0.017000865191221237,-0.10724232345819473,1.0198317766189575,9.5935697555542,-0.7197834849357605,1.7983900308609009,1.7538902759552002,3.7931480407714844,0.1814376711845398,-0.932830274105072,-0.8550779223442078,1.7596527338027954
12,20729,20727,0.021368345245718956,-0.0003389580233488232,1.0418819189071655,16.585058212280273,1.0744129419326782,1.633236050605774,1.7552005052566528,3.7985544204711914,0.18214674293994904,-0.6678170561790466,-1.2815728187561035,1.6348098516464233
13,20739,20737,0.00921664759516716,0.06817079335451126,1.0732758045196533,24.261306762695312,-2.261850357055664,1.8334088325500488,1.7565112113952637,3.7991960048675537,0.18651530146598816,-0.75794517993927,-0.8491306304931641,1.7241549491882324
14,20749,20747,-0.010032891295850277,-0.01977797970175743,1.0517446994781494,27.492555618286133,-5.189648628234863,1.2085672616958618,1.7570383548736572,3.8000123500823975,0.18927814066410065,-0.8709290027618408,-0.4823359251022339,1.7890743017196655
15,20759,20757,-0.04548050835728645,-0.015155010856688023,1.046989917755127,26.163198471069336,-5.386298179626465,1.3310645818710327,1.7572741508483887,3.799605369567871,0.19181105494499207,-0.8503766059875488,-0.14779356122016907,1.8182976245880127
16,20769,20767,-0.01470199879258871,-0.04587830603122711,0.9993563294410706,20.116357803344727,-5.547693729400635,1.377342700958252,1.7579275369644165,3.800455331802368,0.19527606666088104,-0.9557098150253296,0.31056931614875793,1.8850311040878296
17,20779,20777,0.03966114670038223,-0.08567879348993301,1.0300800800323486,12.438132286071777,-8.162870407104492,0.2821640968322754,1.7591832876205444,3.7993555068969727,0.19773171842098236,-0.9571918249130249,0.7218440771102905,1.9404773712158203
18,20789,20787,0.022490642964839935,-0.08903539925813675,1.0227552652359009,3.78637433052063,-7.874269485473633,0.18885570764541626,1.7595769166946411,3.7988109588623047,0.20018209517002106,-0.8386384844779968,0.9778521060943604,1.9641804695129395
19,20799,20797,0.004873067140579224,-0.01988133229315281,1.02388596534729,-5.745447158813477,-3.944237232208252,-0.3214060962200165,1.759400486946106,3.798762083053589,0.20273126661777496,-0.7093809247016907,1.071755051612854,1.9676790237426758
20,20809,20807,0.035683125257492065,0.05013579875230789,0.9734787344932556,-12.222826957702637,-4.578936576843262,-0.07641138136386871,1.7604413032531738,3.7994844913482666,0.20618624985218048,-0.624384880065918,1.002677083015442,1.959342122077942
21,20819,20817,0.13424141705036163,-0.04852256551384926,0.9189594388008118,-15.872322082519531,-5.69874906539917,-0.21299436688423157,1.7603888511657715,3.800018548965454,0.2088298350572586,-0.5327015519142151,0.9024789333343506,1.9590235948562622
22,20829,20827,0.10176573693752289,-0.1281973421573639,0.9825901389122009,-13.462822914123535,-7.4550700187683105,-0.2878257632255554,1.76144540309906,3.7984201908111572,0.21122366189956665,-0.5071389079093933,0.955856442451477,1.9870951175689697
23,20839,20837,0.057748910039663315,-0.15158957242965698,0.9789968132972717,-11.563304901123047,-6.0887370109558105,-0.6436078548431396,1.761662244796753,3.7985146045684814,0.2117929905653,-0.3831232190132141,0.7820597887039185,1.983105182647705
24,20849,20847,0.012630773708224297,-0.1401619166135788,0.9455904960632324,-9.474163055419922,-4.292099952697754,-0.7468935251235962,1.7621023654937744,3.796731948852539,0.21396273374557495,-0.28475138545036316,0.8675129413604736,2.005737781524658
25,20859,20857,-0.006325963884592056,-0.1094704419374466,0.9300329089164734,-8.113203048706055,-2.9561216831207275,-0.21427024900913239,1.7685548067092896,3.808462142944336,0.2193070948123932,-1.0402878522872925,-0.7711339592933655,1.7248661518096924
26,20869,20867,-0.014022119343280792,-0.013856454752385616,0.9698723554611206,-2.870995044708252,-4.360567092895508,1.0387603044509888,1.7683759927749634,3.8087878227233887,0.22074508666992188,-0.8890798091888428,-0.7502514123916626,1.7433422803878784
27,20879,20877,0.010199567303061485,-0.015600347891449928,0.936123788356781,8.71198558807373,-8.124783515930176,1.187044620513916,1.7720824480056763,3.809798240661621,0.2235109955072403,-0.9620670676231384,-0.5888630747795105,1.7756417989730835
28,20889,20887,0.02824976295232773,-0.0005769913550466299,0.9208524823188782,20.941394805908203,-13.926345825195312,0.9534795880317688,1.7721234560012817,3.8076210021972656,0.2266652137041092,-0.8091545104980469,-0.2692103981971741,1.8267903327941895
29,20899,20897,0.006635289639234543,0.02607344463467598,0.9844032526016235,28.23226547241211,-19.873680114746094,0.4694998264312744,1.7720164060592651,3.8076224327087402,0.2293906807899475,-0.5735265016555786,0.06764266639947891,1.859548568725586
30,20909,20907,-0.026477588340640068,0.09206105768680573,1.0484004020690918,28.367780685424805,-24.230466842651367,-0.3450438380241394,1.7709535360336304,3.806361675262451,0.23209303617477417,-0.2535361051559448,0.5141886472702026,1.8880524635314941
31,20919,20917,-0.01655268482863903,0.05699721723794937,1.0268638134002686,21.008779525756836,-22.257461547851562,-0.9496142268180847,1.770374059677124,3.808685064315796,0.2345084547996521,0.20090647041797638,0.7245320677757263,1.8768707513809204
32,20929,20927,-0.02230493351817131,0.026164814829826355,0.9685203433036804,8.779183387756348,-14.132328987121582,-0.5361529588699341,1.7727330923080444,3.8089051246643066,0.23699340224266052,0.1476837694644928,0.9838821887969971,1.865740180015564
33,20939,20937,0.010775906033813953,-0.04988842457532883,0.9276000261306763,-2.5808286666870117,-7.477903366088867,-1.5156115293502808,1.7721868753433228,3.8085825443267822,0.23922289907932281,0.32010677456855774,1.200538992881775,1.86668062210083
34,20949,20947,0.0479130744934082,0.0143772317096591,0.9155193567276001,-10.919979095458984,-3.7154996395111084,-1.5180423259735107,1.7745256423950195,3.8089513778686523,0.2415173351764679,0.2315581738948822,1.2122442722320557,1.8460184335708618
35,20959,20957,0.04543392360210419,0.0791880413889885,0.9477381706237793,-16.549415588378906,-1.3582937717437744,-1.7172716856002808,1.7750425338745117,3.8094544410705566,0.24392181634902954,0.392738938331604,1.0616248846054077,1.8339285850524902
36,20969,20967,0.058165550231933594,0.05358176678419113,0.9375908970832825,-16.937528610229492,-2.9108235836029053,-1.6939618587493896,1.7755188941955566,3.8093106746673584,0.24603143334388733,0.510303795337677,1.1308557987213135,1.8317930698394775
37,20979,20977,0.02496967278420925,-0.010718218050897121,0.9440872073173523,-16.0599422454834,-2.5828206539154053,-1.3038219213485718,1.776821494102478,3.8094427585601807,0.24818187952041626,0.5509220957756042,0.9261592030525208,1.8126540184020996
38,20989,20987,0.06061418727040291,-0.03627874329686165,0.9504534006118774,-11.296490669250488,-5.631641387939453,-1.8418793678283691,1.7775012254714966,3.8108205795288086,0.250213086605072,0.6682730913162231,0.739571750164032,1.8067328929901123
39,20999,20997,0.008373452350497246,-0.02477799355983734,0.9216098785400391,-6.185536861419678,-5.7911882400512695,-1.7459183931350708,1.77910578250885,3.809248447418213,0.25216785073280334,0.7375625967979431,0.7739194631576538,1.7870385646820068
40,21009,21007,0.02570149302482605,-0.0573597252368927,0.917540967464447,-1.9097398519515991,-6.175444602966309,-1.0815480947494507,1.778971552848816,3.808161497116089,0.2518571615219116,0.8891085982322693,0.7962780594825745,1.7743358612060547
41,21019,21017,0.07534484565258026,-0.14504088461399078,0.9034245014190674,-0.98048335313797,-5.560007095336914,-1.2372113466262817,1.7785247564315796,3.807555913925171,0.2535158097743988,1.0349621772766113,0.8023112416267395,1.767624020576477
42,21029,21027,0.020944690331816673,-0.045472774654626846,0.946757435798645,-3.1132466793060303,-3.741049289703369,-0.4010234773159027,1.7783328294754028,3.8050501346588135,0.2549443244934082,0.9922609925270081,1.0549931526184082,1.7247098684310913
43,21039,21037,0.03872506693005562,-0.05171847715973854,0.9702472686767578,-6.301175594329834,-0.35988378524780273,-0.7092335820198059,1.7785168886184692,3.8055970668792725,0.25608888268470764,1.0111045837402344,0.9375996589660645,1.7219648361206055
44,21049,21047,0.008436087518930435,0.0030127817299216986,0.9488677382469177,-12.245285034179688,2.0948004722595215,-0.4071280062198639,1.7800019979476929,3.805126190185547,0.2576766908168793,0.960878312587738,0.8439546227455139,1.711785078048706
45,21059,21057,0.008995676413178444,-0.010419395752251148,0.9324663281440735,-16.112247467041016,2.9423341751098633,-0.4397089183330536,1.7800612449645996,3.80399489402771,0.25908413529396057,1.0253632068634033,0.8094903826713562,1.7091467380523682
46,21069,21067,0.018032625317573547,-0.018281282857060432,0.9330840110778809,-18.824281692504883,2.2370445728302,-0.2517865300178528,1.779670238494873,3.8038885593414307,0.2620057165622711,0.9864343404769897,0.6189132332801819,1.7089557647705078
47,21079,21077,0.001209706417284906,0.04038236290216446,0.962410569190979,-20.04283905029297,-0.5592144727706909,-0.2063731998205185,1.7796664237976074,3.8048009872436523,0.26338866353034973,0.8837894201278687,0.46376854181289673,1.6997497081756592
48,21089,21087,0.049336038529872894,0.010169386863708496,0.9410220980644226,-19.200950622558594,2.6215412616729736,0.34853696823120117,1.7794438600540161,3.80370831489563,0.26468220353126526,0.8938677310943604,0.3613380789756775,1.6877340078353882
49,21099,21097,0.04710469767451286,-0.05468982458114624,0.9330520629882812,-16.8577938079834,-1.2234781980514526,0.7052804231643677,1.7800763845443726,3.8034632205963135,0.26603996753692627,0.8801552653312683,0.11044807732105255,1.6995166540145874
50,21109,21107,-0.0020343910437077284,0.17700116336345673,0.9378267526626587,-13.138700485229492,-1.5752521753311157,0.3261657953262329,1.7802239656448364,3.803521156311035,0.2680966854095459,0.9118205904960632,-0.11335790902376175,1.711764931678772
51,21119,21117,-0.04772818833589554,0.11175673454999924,0.9457429051399231,-9.719882011413574,-1.2498998641967773,0.8563494682312012,1.78169846534729,3.805011749267578,0.26926863193511963,0.9575752019882202,-0.17073699831962585,1.7065844535827637
52,21129,21127,4.6456574636977166e-05,-0.005779148545116186,0.9490352869033813,-6.500410079956055,-0.12300583720207214,0.5564204454421997,1.7823364734649658,3.8051490783691406,0.2704654335975647,0.9876582026481628,-0.3346165418624878,1.722750186920166
53,21139,21137,0.005274898372590542,-0.09678243100643158,0.9383533000946045,-4.416781425476074,1.1053187847137451,0.7677941918373108,1.783119559288025,3.8069911003112793,0.2679946720600128,0.9935545921325684,-0.43934547901153564,1.7337640523910522
54,21149,21147,0.012014642357826233,-0.04580657556653023,0.9382649064064026,-3.589834451675415,2.6695775985717773,0.6360477805137634,1.7846661806106567,3.807060480117798,0.2688351273536682,0.9787253141403198,-0.4306211471557617,1.732057809829712
55,21159,21157,-0.01335473544895649,0.0014282242627814412,0.9695088267326355,-3.708893299102783,2.7786879539489746,-0.11829717457294464,1.7852011919021606,3.8070054054260254,0.2696516215801239,1.0127160549163818,-0.4908353388309479,1.742106556892395
56,21169,21167,-0.04908286780118942,0.0008511423948220909,0.9691494107246399,-5.068545341491699,4.444623947143555,0.5871436595916748,1.7852555513381958,3.807621717453003,0.26818376779556274,0.951103150844574,-0.4774087965488434,1.7346259355545044
57,21179,21177,0.011741801165044308,-0.055689241737127304,0.97090083360672,-6.4267258644104,5.638179779052734,-0.3802051246166229,1.7861244678497314,3.807663917541504,0.2688055634498596,0.8689255714416504,-0.5626055002212524,1.7441498041152954
58,21189,21187,0.0077878860756754875,0.0063796136528253555,0.9615737199783325,-7.15511417388916,5.843142509460449,-0.016675762832164764,1.7877634763717651,3.808820962905884,0.2693411409854889,0.7740381956100464,-0.6633239984512329,1.7481658458709717
59,21199,21197,0.0118899280205369,-0.0014484473504126072,0.9215664267539978,-6.8765549659729,5.453226089477539,-0.38489261269569397,1.7888612747192383,3.808908462524414,0.2715252935886383,0.756412148475647,-0.6919699311256409,1.7388654947280884
60,21209,21207,-0.009178484790027142,0.04968102648854256,0.9580163955688477,-6.091948986053467,3.532470941543579,-0.26031526923179626,1.788258671760559,3.80806827545166,0.27206894755363464,0.8097290992736816,-0.7246301770210266,1.725884199142456
61,21219,21217,0.005080036353319883,-0.017101159319281578,0.974670946598053,-4.724486351013184,2.8078765869140625,0.0705336257815361,1.7880901098251343,3.8101933002471924,0.2726225256919861,0.7300848364830017,-0.8966411352157593,1.7409570217132568
62,21229,21227,0.0032197493128478527,-0.0021482612937688828,1.0265684127807617,-1.7318181991577148,-1.5992341041564941,0.6092789769172668,1.788224697113037,3.811035394668579,0.2731066048145294,0.7334661483764648,-1.0294164419174194,1.7492753267288208
63,21239,21237,-0.016987496986985207,-0.07821320742368698,1.0137104988098145,1.1203367710113525,0.9201204180717468,0.21414725482463837,1.7891663312911987,3.81302809715271,0.2718137800693512,0.697127640247345,-1.0303634405136108,1.755168080329895
64,21249,21247,-0.001309861778281629,-0.10538437962532043,0.9607994556427002,2.902190923690796,6.181911945343018,0.18004779517650604,1.7913295030593872,3.8139796257019043,0.27220192551612854,0.5495930910110474,-0.9823593497276306,1.762898564338684
65,21259,21257,-0.01698490045964718,-0.005106979515403509,0.9640524983406067,3.183628797531128,6.168623924255371,0.2687954604625702,1.790432333946228,3.813671588897705,0.27262112498283386,0.58662348985672,-0.9076745510101318,1.7490684986114502
66,21269,21267,0.034479573369026184,-0.005206899251788855,0.9727624654769897,1.6465349197387695,7.960816383361816,0.19723354279994965,1.7899402379989624,3.814929246902466,0.2733950614929199,0.5448317527770996,-0.9038012027740479,1.7530657052993774
67,21279,21277,0.0034363972954452038,-0.037657372653484344,1.019386887550354,-0.4721689820289612,9.573535919189453,-0.3499804735183716,1.7903943061828613,3.815079689025879,0.2737317383289337,0.397421270608902,-0.9183157086372375,1.7664408683776855
68,21289,21287,0.05078442767262459,-0.09196434915065765,0.9920250177383423,-0.6682270169258118,7.7910871505737305,-0.8735077977180481,1.7900738716125488,3.816037893295288,0.27404481172561646,0.3973775804042816,-0.8879074454307556,1.7492786645889282
69,21299,21297,0.005794523283839226,-0.11790909618139267,0.9864290952682495,-1.34865403175354,4.844091892242432,-0.06195167824625969,1.7902977466583252,3.816025972366333,0.27458176016807556,0.32886555790901184,-0.94471275806427,1.7473697662353516
70,21309,21307,0.02872563898563385,-0.043458472937345505,0.9765362739562988,-1.4536055326461792,1.3605163097381592,-0.4261713922023773,1.7894880771636963,3.8166344165802,0.2749447226524353,0.3002886176109314,-1.0008578300476074,1.7458033561706543
71,21319,21317,-0.014119686558842659,0.01858360506594181,1.0571928024291992,-0.832198441028595,-1.214860439300537,0.08974777162075043,1.7899607419967651,3.816387414932251,0.2752718925476074,0.25041133165359497,-0.9769277572631836,1.7438561916351318
72,21329,21327,-0.008073631674051285,-0.013043130747973919,1.0383703708648682,0.1872386485338211,0.9996265172958374,-0.5798185467720032,1.789563536643982,3.8163697719573975,0.27562886476516724,0.23087310791015625,-0.9434518218040466,1.740143895149231
73,21339,21337,0.0031989167910069227,0.0072484444826841354,1.0214554071426392,0.27155667543411255,2.1181559562683105,-0.9269341230392456,1.789084553718567,3.8181607723236084,0.27652618288993835,0.3302558362483978,-0.9728193879127502,1.7222050428390503
74,21349,21347,-0.002126421546563506,-0.012462419457733631,1.0537545680999756,1.3687185049057007,3.8833847045898438,-0.8894257545471191,1.790198802947998,3.8192710876464844,0.27702876925468445,0.1864045262336731,-0.9911729693412781,1.7336654663085938
75,21359,21357,0.014387447386980057,-0.023892764002084732,0.9648151993751526,1.6549426317214966,3.0952258110046387,-0.601996660232544,1.7871440649032593,3.820181131362915,0.27753880620002747,0.400210976600647,-0.9907689094543457,1.6885087490081787
76,21369,21367,0.007116932887583971,0.012078342027962208,1.0402872562408447,1.982669472694397,4.100361347198486,-0.36622777581214905,1.788382887840271,3.8211615085601807,0.2768157720565796,0.30276235938072205,-0.9791427850723267,1.692559838294983
77,21379,21377,0.01615173928439617,-0.03439226746559143,0.9979169368743896,3.397122859954834,4.702188491821289,-0.493558406829834,1.7879396677017212,3.82155704498291,0.2772759199142456,0.2646404802799225,-0.9569058418273926,1.687545895576477
78,21389,21387,-0.009606829844415188,0.016793765127658844,1.0308736562728882,3.528566837310791,5.682254314422607,-0.27878445386886597,1.7883172035217285,3.8210926055908203,0.277768075466156,0.14179906249046326,-0.9109638333320618,1.6934059858322144
79,21399,21397,0.02073827013373375,-0.018665004521608353,1.0056742429733276,4.509573936462402,5.37559700012207,-0.48552122712135315,1.7877486944198608,3.8215177059173584,0.27603575587272644,0.15357249975204468,-0.9388109445571899,1.68083655834198
80,21409,21407,-0.018729008734226227,0.09807661175727844,1.0340882539749146,4.125473499298096,6.713212013244629,-0.02848358266055584,1.7871919870376587,3.820796251296997,0.2764129042625427,0.08564142882823944,-0.7973874807357788,1.6746904850006104
81,21419,21417,0.019321786239743233,-0.018770556896924973,0.9917075037956238,3.0539958477020264,7.4150567054748535,0.0691286027431488,1.787734866142273,3.8208541870117188,0.27679750323295593,0.0018510749796405435,-0.743981659412384,1.6751126050949097
82,21429,21427,0.020642785355448723,0.0375872403383255,1.0404574871063232,2.788959503173828,5.8617448806762695,-0.9908247590065002,1.7873010635375977,3.821807384490967,0.27713826298713684,-0.08648604899644852,-0.777389407157898,1.6756974458694458
83,21439,21437,0.00961242988705635,-0.016743293032050133,1.0111950635910034,2.801675796508789,4.639780044555664,-0.8313153386116028,1.7882057428359985,3.8227882385253906,0.2775352895259857,-0.22737643122673035,-0.8101478219032288,1.678192377090454
84,21449,21447,-0.002375994576141238,-0.11318621784448624,0.9888669848442078,3.636857748031616,2.928406000137329,-0.7717695832252502,1.7887674570083618,3.823362112045288,0.2779396176338196,-0.33655545115470886,-0.8304153084754944,1.678544521331787
85,21459,21457,0.023250199854373932,-0.009830008260905743,1.0278066396713257,4.643979549407959,3.075289249420166,-0.39819422364234924,1.7871060371398926,3.823415756225586,0.2784141004085541,-0.2552635371685028,-0.7560150027275085,1.6563379764556885
86,21469,21467,0.04072931781411171,-0.06886626780033112,1.004353642463684,7.52829122543335,-1.329135775566101,-0.3497752547264099,1.7874161005020142,3.823085308074951,0.28149083256721497,-0.3203219473361969,-0.6573712825775146,1.6591002941131592
87,21479,21477,0.03505506366491318,-0.011505072005093098,1.0571964979171753,8.638023376464844,-2.0540459156036377,-0.31161123514175415,1.78728187084198,3.823870897293091,0.2821202874183655,-0.32318824529647827,-0.5957149267196655,1.6556411981582642
88,21489,21487,0.010268202051520348,-0.021394042298197746,1.0169858932495117,7.537136077880859,-0.5016735792160034,0.21109150350093842,1.7869477272033691,3.8243296146392822,0.2828119397163391,-0.3205796182155609,-0.5206561088562012,1.6549105644226074
89,21499,21497,0.02435912750661373,-0.09910895675420761,1.0410690307617188,6.813171863555908,6.770740032196045,-0.5304915904998779,1.7871806621551514,3.8234684467315674,0.28391480445861816,-0.34504374861717224,-0.3891143202781677,1.662217378616333
90,21509,21507,-0.019447272643446922,0.029535233974456787,0.9950190186500549,3.7844297885894775,13.90210247039795,0.18026185035705566,1.7880810499191284,3.8248422145843506,0.28466466069221497,-0.4870491921901703,-0.4273293614387512,1.6626698970794678
91,21519,21517,0.008014596998691559,0.014673198573291302,1.0244752168655396,1.0489405393600464,19.021081924438477,0.2750263810157776,1.7889713048934937,3.8255817890167236,0.28537625074386597,-0.7313336730003357,-0.42392849922180176,1.672977089881897
92,21529,21527,0.01245278399437666,-0.06052910163998604,0.977907121181488,0.46427038311958313,18.050697326660156,0.6367207169532776,1.7882969379425049,3.8270506858825684,0.28469517827033997,-0.8994448184967041,-0.4568600654602051,1.6670398712158203
93,21539,21537,0.0004908081027679145,-0.07366462051868439,1.0674141645431519,2.5763890743255615,20.174070358276367,-0.32582077383995056,1.7886123657226562,3.8281497955322266,0.2853485941886902,-1.1493773460388184,-0.49029192328453064,1.6684540510177612
94,21549,21547,0.012956414371728897,-0.05559356510639191,0.9775587916374207,5.0510382652282715,14.49386215209961,-0.23595237731933594,1.7864248752593994,3.827812671661377,0.2862924039363861,-1.1171069145202637,-0.41069495677948,1.6483094692230225
95,21559,21557,0.006855812855064869,-0.057846926152706146,0.9861992597579956,7.968917369842529,12.80660343170166,-0.12290811538696289,1.788187861442566,3.828824758529663,0.2869972586631775,-1.396100640296936,-0.2908760905265808,1.6620856523513794
96,21569,21567,0.02066379226744175,0.001367453602142632,1.0115118026733398,9.210620880126953,10.810807228088379,-0.3800261914730072,1.7862874269485474,3.8297359943389893,0.2895960509777069,-1.3160676956176758,-0.2097775936126709,1.644580364227295
97,21579,21577,0.04290933907032013,0.008103873580694199,0.98252934217453,8.564440727233887,4.03552770614624,-0.5339806079864502,1.7877203226089478,3.83013916015625,0.2904106378555298,-1.4916106462478638,-0.1097910925745964,1.6489101648330688
98,21589,21587,0.020050274208188057,0.0012092130491510034,1.0059322118759155,7.710153102874756,3.1662967205047607,-1.341925024986267,1.788541316986084,3.8309974670410156,0.2911919057369232,-1.5647594928741455,-0.020502999424934387,1.6466562747955322
99,21599,21597,0.031041068956255913,-0.010097196325659752,0.9732731580734253,5.667125701904297,3.0032036304473877,-1.3155090808868408,1.7887399196624756,3.8317854404449463,0.28911691904067993,-1.6104986667633057,-0.022645097225904465,1.6249454021453857
100,21609,21607,-0.012370627373456955,0.06519083678722382,0.9844157099723816,3.5012552738189697,3.0988340377807617,-0.819841206073761,1.7889705896377563,3.832296371459961,0.28973978757858276,-1.6449729204177856,0.021989425644278526,1.6155954599380493
101,21619,21617,-0.014527508988976479,0.12506762146949768,0.9699988961219788,2.631883144378662,3.4170498847961426,-0.5543245673179626,1.789775013923645,3.831989049911499,0.29035791754722595,-1.6691241264343262,0.11151839047670364,1.6221903562545776
102,21629,21627,0.026414664462208748,0.1862460970878601,0.9193187952041626,1.3151860237121582,2.438596248626709,-0.6559244990348816,1.7907934188842773,3.832970142364502,0.2905066907405853,-1.7780276536941528,0.1036628782749176,1.6109453439712524
103,21639,21637,-0.011009985581040382,0.0931657999753952,0.9791451096534729,2.046374559402466,0.5378627181053162,-0.9167002439498901,1.7909164428710938,3.833439588546753,0.2909930944442749,-1.7865145206451416,0.1588059514760971,1.6132023334503174
104,21649,21647,-0.0018536897841840982,-0.0601448118686676,0.9921266436576843,2.9967188835144043,-4.773747444152832,-0.32292109727859497,1.790218710899353,3.83388614654541,0.2915577292442322,-1.6998226642608643,0.14395441114902496,1.595488429069519
105,21659,21657,-0.08791805058717728,-0.03192610666155815,1.1000943183898926,4.2476372718811035,-4.711465358734131,-0.23397347331047058,1.7910956144332886,3.8343005180358887,0.2919875979423523,-1.7916699647903442,0.14664778113365173,1.5837438106536865
106,21669,21667,-0.04054451361298561,-0.021904243156313896,1.0227744579315186,4.61768102645874,-2.101210832595825,-0.052938491106033325,1.791599988937378,3.8343050479888916,0.29538658261299133,-1.7273660898208618,0.1684853434562683,1.5763885974884033
107,21679,21677,-0.022682929411530495,-0.004582926630973816,0.9826422333717346,3.702949285507202,1.1536866426467896,0.30260175466537476,1.7923672199249268,3.8338167667388916,0.2961648404598236,-1.697838544845581,0.2707921862602234,1.5911989212036133
108,21689,21687,0.020831802859902382,0.0153809804469347,0.9758927822113037,2.6459693908691406,2.0713372230529785,0.6056928634643555,1.793325662612915,3.835689067840576,0.29683077335357666,-1.7746027708053589,0.2060784548521042,1.5636097192764282
109,21699,21697,0.08501632511615753,-0.03338411822915077,0.9700821042060852,2.3430984020233154,0.9766979813575745,0.5183352828025818,1.7934601306915283,3.835430860519409,0.2976471781730652,-1.6983658075332642,0.28855326771736145,1.5825546979904175
110,21709,21707,0.06412174552679062,-0.11467574536800385,0.9954624176025391,2.8204572200775146,-0.17651529610157013,-0.20112894475460052,1.7938263416290283,3.83682918548584,0.2983878552913666,-1.7573997974395752,0.21617557108402252,1.5551772117614746
111,21719,21717,0.009597274474799633,-0.11310993134975433,0.998810350894928,3.477555274963379,-0.5997083187103271,-0.35835883021354675,1.7943190336227417,3.8362345695495605,0.29919564723968506,-1.7108895778656006,0.3078378438949585,1.57235586643219
112,21729,21727,0.05060942471027374,-0.1066761389374733,0.9333939552307129,3.427825927734375,-0.8079266548156738,-0.5141776204109192,1.7951397895812988,3.837236166000366,0.3053634762763977,-1.7266970872879028,0.3257561922073364,1.565462350845337
113,21739,21737,0.03981731832027435,-0.012321877293288708,0.9709490537643433,4.426508903503418,-5.09825325012207,-0.046110693365335464,1.7974833250045776,3.8367037773132324,0.3063150644302368,-1.801038146018982,0.41927579045295715,1.575422763824463
114,21749,21747,0.016986588016152382,-0.020542433485388756,0.9821450114250183,4.056813716888428,-1.7952370643615723,-0.3068780303001404,1.798660159111023,3.8369998931884766,0.3072665333747864,-1.7186908721923828,0.4526239037513733,1.5721029043197632
115,21759,21757,0.033515363931655884,-0.05147375538945198,0.9377698302268982,2.7983314990997314,-5.313963890075684,-0.5355385541915894,1.79843008518219,3.8366477489471436,0.3077335059642792,-1.603134274482727,0.5522682666778564,1.5881879329681396
116,21769,21767,0.05289973318576813,-0.09732222557067871,0.9308879375457764,1.9151945114135742,-7.235229015350342,-0.3248632848262787,1.801844596862793,3.837747812271118,0.3084188401699066,-1.7777209281921387,0.4628456234931946,1.5389537811279297
117,21779,21777,0.0036666537635028362,-0.07482494413852692,0.9695889353752136,0.4465780258178711,-8.182890892028809,-0.32998040318489075,1.801557183265686,3.8377301692962646,0.3093227744102478,-1.5757830142974854,0.5253260731697083,1.5565648078918457
118,21789,21787,-0.07082463055849075,-0.08084424585103989,1.0436666011810303,0.4971829056739807,-10.151512145996094,-0.5010427236557007,1.8025912046432495,3.837570905685425,0.31015142798423767,-1.442774772644043,0.5576333403587341,1.56391179561615
119,21799,21797,-0.0385776162147522,-0.003608528757467866,0.9978260397911072,0.0754343718290329,-9.565455436706543,-0.4708176851272583,1.8053860664367676,3.838359832763672,0.31115052103996277,-1.4400609731674194,0.5113158226013184,1.5398457050323486
120,21809,21807,0.023152204230427742,0.05529913306236267,0.9287098050117493,-0.038538821041584015,-8.2015962600708,-0.4410404562950134,1.8071212768554688,3.838371515274048,0.31184813380241394,-1.4355015754699707,0.538406491279602,1.5343090295791626
121,21819,21817,0.002888212213292718,-0.0075424183160066605,0.9487215876579285,0.29832723736763,-8.09519100189209,-0.693107008934021,1.808890461921692,3.8383095264434814,0.31260985136032104,-1.3634889125823975,0.5608392953872681,1.5337897539138794
122,21829,21827,0.004513422027230263,0.015755360946059227,0.9338902235031128,0.46160486340522766,-7.960663795471191,-0.41276979446411133,1.8098174333572388,3.838308095932007,0.31125396490097046,-1.2859890460968018,0.5881592035293579,1.5321133136749268
123,21839,21837,0.027242129668593407,0.02553662285208702,0.948447585105896,0.00022811070084571838,-8.222369194030762,-0.9505231380462646,1.8101255893707275,3.8381693363189697,0.31194689869880676,-1.0514724254608154,0.6119105815887451,1.5428061485290527
124,21849,21847,0.03273099660873413,0.01576649397611618,0.9780939221382141,-0.5951727628707886,-9.372929573059082,-1.1202293634414673,1.8116410970687866,3.8392181396484375,0.3124863803386688,-0.9729210138320923,0.5514235496520996,1.5164258480072021
125,21859,21857,0.011346654035151005,-0.04039322957396507,0.9586851000785828,-1.9915714263916016,-7.4157280921936035,-1.042819857597351,1.812691569328308,3.839224338531494,0.3151247203350067,-0.8821823000907898,0.5606145858764648,1.5070663690567017
126,21869,21867,0.009617366828024387,-0.044468123465776443,0.9978825449943542,-2.275233030319214,-6.082830429077148,-1.6707172393798828,1.8162840604782104,3.839707851409912,0.3156377971172333,-0.9705847501754761,0.5446775555610657,1.4784634113311768
127,21879,21877,-0.0048124585300683975,-0.0002407641732133925,1.0238815546035767,-2.7985894680023193,-5.38205099105835,-1.6546510457992554,1.8181802034378052,3.84082293510437,0.31611111760139465,-0.9856799244880676,0.44570088386535645,1.440631628036499
128,21889,21887,0.008050492964684963,0.023165525868535042,0.9828199148178101,-1.7159026861190796,-6.868264675140381,-1.1953693628311157,1.8202000856399536,3.840731382369995,0.31670844554901123,-0.9260655045509338,0.41946133971214294,1.424561619758606
129,21899,21897,-0.007579750847071409,0.10288944095373154,0.9294788241386414,-0.6926754117012024,-5.18880558013916,-2.611156940460205,1.8210771083831787,3.8412253856658936,0.3145204186439514,-0.7804191708564758,0.41447877883911133,1.4180662631988525
130,21909,21907,0.031822435557842255,0.0902964323759079,0.915425717830658,0.8906102180480957,-6.347296237945557,-2.671248197555542,1.8222401142120361,3.842257261276245,0.31482410430908203,-0.7144265174865723,0.35279399156570435,1.3850226402282715
131,21919,21917,0.04107028245925903,0.08342625200748444,0.9214156270027161,1.75702965259552,-6.52016544342041,-2.7511138916015625,1.824974775314331,3.842108726501465,0.3150464594364166,-0.69947749376297,0.398603230714798,1.3589552640914917
132,21929,21927,0.03614257276058197,0.06184113770723343,0.9083667397499084,2.8015332221984863,-10.57889175415039,-2.2687575817108154,1.8258146047592163,3.8418850898742676,0.31279563903808594,-0.5123437643051147,0.453242689371109,1.3476636409759521
133,21939,21937,0.016670051962137222,-0.03753543645143509,0.9444825649261475,2.980225086212158,-5.035163402557373,-2.484851837158203,1.8279770612716675,3.841618776321411,0.31272101402282715,-0.44421297311782837,0.522296130657196,1.3252294063568115
134,21949,21947,0.03009548783302307,0.01761600561439991,0.9621210694313049,1.900094747543335,-4.766356945037842,-2.1147425174713135,1.8306804895401,3.8417022228240967,0.3125699460506439,-0.4391300082206726,0.5890287160873413,1.299015760421753
135,21959,21957,0.015230657532811165,0.0424213744699955,1.0001437664031982,-1.3188426494598389,-5.0628743171691895,-2.326967477798462,1.8308970928192139,3.8415565490722656,0.30983400344848633,-0.27500206232070923,0.6264625191688538,1.2869871854782104
136,21969,21967,0.014053691178560257,-0.02111644856631756,0.9968898296356201,-4.178294658660889,-6.076796531677246,-2.2906124591827393,1.8348230123519897,3.842172622680664,0.3094122111797333,-0.35988301038742065,0.600227415561676,1.2509117126464844
137,21979,21977,-0.03796670585870743,-0.06402122229337692,1.0330952405929565,-5.503809928894043,-7.9221110343933105,-2.298210620880127,1.8347175121307373,3.842862367630005,0.3093118667602539,-0.09966535866260529,0.5292556881904602,1.2449589967727661
138,21989,21987,-0.0467270202934742,-0.03851649910211563,1.037700891494751,-6.6061506271362305,-8.205351829528809,-2.2326343059539795,1.8358736038208008,3.8432235717773438,0.30915915966033936,0.07155854254961014,0.43401995301246643,1.2269688844680786
139,21999,21997,-0.06880482286214828,0.021877475082874298,1.0206879377365112,-6.638082504272461,-6.679004669189453,-1.6693918704986572,1.8390731811523438,3.84389591217041,0.3120313286781311,-0.018469471484422684,0.3236011266708374,1.1916556358337402
140,22009,22007,-0.06967949122190475,0.061339862644672394,1.0231128931045532,-5.477329730987549,-0.48753899335861206,-1.5637325048446655,1.8398734331130981,3.844531536102295,0.31209704279899597,0.10921889543533325,0.2225216180086136,1.1817619800567627
141,22019,22017,0.028187135234475136,0.024427419528365135,1.0168148279190063,-2.080963373184204,0.17146632075309753,-1.9207831621170044,1.84221613407135,3.8431825637817383,0.3121498227119446,0.07414192706346512,0.31280919909477234,1.1659114360809326
142,22029,22027,-0.0008869606535881758,-0.03395280987024307,1.003401517868042,-1.3130114078521729,0.4770577549934387,-2.195739984512329,1.8449677228927612,3.843595027923584,0.3116735816001892,-0.052950989454984665,0.2792881727218628,1.1355191469192505
143,22039,22037,0.019667360931634903,-0.010446181520819664,1.0152350664138794,0.18346545100212097,-0.5788804888725281,-1.8023827075958252,1.8456593751907349,3.843538761138916,0.3117173910140991,-0.005593311972916126,0.2637580931186676,1.1163326501846313
144,22049,22047,0.03916814923286438,-0.08039280027151108,1.0185761451721191,0.22814086079597473,-2.5162014961242676,-2.029808759689331,1.8462798595428467,3.844259023666382,0.31185492873191833,0.1465282291173935,0.275397926568985,1.1085596084594727
145,22059,22057,0.02112857811152935,-0.1289438158273697,0.983439564704895,0.7505658268928528,-5.83413028717041,-2.02069354057312,1.849388599395752,3.8445796966552734,0.3070150911808014,0.0033715309109538794,0.2856970429420471,1.0742521286010742
146,22069,22067,-0.0002579236461315304,0.05502665415406227,1.0129755735397339,0.05855594202876091,-7.207767963409424,-1.737105369567871,1.8488073348999023,3.8451621532440186,0.3069666028022766,0.2592977285385132,0.2174798548221588,1.0701789855957031
147,22079,22077,-0.023620527237653732,0.011214579455554485,1.017255425453186,-0.12287195771932602,-8.302375793457031,-1.0961222648620605,1.8485292196273804,3.84519624710083,0.3068220913410187,0.41864722967147827,0.22060340642929077,1.0577529668807983
148,22089,22087,0.020937062799930573,-0.002556800376623869,1.0253335237503052,-0.5760043263435364,-3.535147190093994,-1.4922330379486084,1.8506488800048828,3.844738245010376,0.31087663769721985,0.4238169193267822,0.23151925206184387,1.036003828048706
149,22099,22097,-0.02242985926568508,-0.002430875785648823,1.0469352006912231,-0.40158507227897644,-1.2792645692825317,-1.4508483409881592,1.8523064851760864,3.845015525817871,0.31094157695770264,0.4268043339252472,0.22933220863342285,1.0204061269760132
150,22109,22107,-0.0013838110025972128,0.029835253953933716,1.0338224172592163,-1.815482258796692,2.587157964706421,-2.4211277961730957,1.854009747505188,3.845526695251465,0.31109946966171265,0.46383994817733765,0.21586358547210693,1.0039448738098145
151,22119,22117,0.008727328851819038,-0.0168367400765419,1.0329395532608032,-0.698959469795227,3.7039644718170166,-2.379370927810669,1.8566557168960571,3.845489740371704,0.3111940026283264,0.28491461277008057,0.19300763309001923,0.9728702306747437
152,22129,22127,0.0030301916413009167,0.005434808321297169,1.0282491445541382,-0.5923581123352051,3.572334051132202,-2.441511392593384,1.857080340385437,3.8454644680023193,0.3103364408016205,0.34044551849365234,0.1832781434059143,0.9530365467071533
153,22139,22137,0.010212903842329979,-0.05202160403132439,0.9884703755378723,-0.33600711822509766,2.6533689498901367,-2.609394073486328,1.8575098514556885,3.8451645374298096,0.31056156754493713,0.39532724022865295,0.17725954949855804,0.9319555759429932
154,22149,22147,0.012508255429565907,-0.0240000169724226,1.011020302772522,0.509136438369751,1.7830644845962524,-2.4565227031707764,1.859578013420105,3.844578266143799,0.31066274642944336,0.2984892725944519,0.2576811909675598,0.8963063359260559
155,22159,22157,0.02834279276430607,-0.054808132350444794,0.9536092877388,1.1631172895431519,0.9555823802947998,-1.8198344707489014,1.8609470129013062,3.8445281982421875,0.3085252344608307,0.3059968650341034,0.26822197437286377,0.8750664591789246
156,22169,22167,0.03390185907483101,-0.04940786957740784,0.9644551873207092,0.4418756365776062,-0.3544660210609436,-1.7506474256515503,1.8631454706192017,3.8452329635620117,0.3084944784641266,0.25379863381385803,0.20091331005096436,0.8618521690368652
157,22179,22177,0.04375224560499191,-0.014794636517763138,1.033137321472168,1.281318187713623,-4.853105068206787,-1.5788863897323608,1.8633859157562256,3.8461196422576904,0.30859532952308655,0.3932816982269287,0.2180018275976181,0.8545605540275574
158,22189,22187,-0.015672771260142326,-0.009505568072199821,1.066413402557373,0.9368489384651184,-3.113785982131958,-1.6971168518066406,1.8637717962265015,3.846004009246826,0.30675455927848816,0.5821241140365601,0.24027657508850098,0.8410770893096924
159,22199,22197,0.02991236373782158,-0.0784970074892044,1.0029267072677612,-0.5450446009635925,-0.2546720504760742,-1.7130053043365479,1.8654025793075562,3.8460357189178467,0.30666545033454895,0.43096888065338135,0.2353602796792984,0.8275349736213684
160,22209,22207,0.02035646140575409,-0.010573207400739193,1.0335556268692017,-1.3557270765304565,1.9821815490722656,-1.8016544580459595,1.865577220916748,3.8473587036132812,0.30662018060684204,0.44992175698280334,0.30344173312187195,0.8184711337089539
161,22219,22217,0.007746334653347731,-0.007087856996804476,1.008918285369873,-3.8715665340423584,7.1939263343811035,-1.3960597515106201,1.866013765335083,3.8472585678100586,0.30672287940979004,0.49637371301651,0.2661294639110565,0.8061798214912415
162,22229,22227,0.031308364123106,-0.03534497320652008,0.9527143239974976,-3.1236469745635986,5.628856182098389,-1.7049763202667236,1.8672058582305908,3.8480608463287354,0.30647003650665283,0.4662514328956604,0.19620095193386078,0.7980456948280334
163,22239,22237,0.023119531571865082,0.030560310930013657,1.0392321348190308,-2.7376575469970703,6.173027038574219,-1.7967420816421509,1.8702832460403442,3.847867250442505,0.30633899569511414,0.2048620581626892,0.1405186951160431,0.7729060053825378
164,22249,22247,-0.028604401275515556,-0.0774427205324173,1.0495011806488037,-0.9070166945457458,4.995866775512695,-1.7686762809753418,1.872591495513916,3.848456621170044,0.3061787188053131,0.051331888884305954,0.10136328637599945,0.7553133964538574
165,22259,22257,-0.023039156571030617,-0.010622682981193066,1.0754029750823975,1.5633292198181152,-0.09693679213523865,-2.1465229988098145,1.8732662200927734,3.8485710620880127,0.3087463676929474,0.006778673268854618,0.09575161337852478,0.7440544366836548
166,22269,22267,-0.019702933728694916,-0.02317522093653679,1.0552175045013428,1.1039059162139893,-0.8949453234672546,-1.8441846370697021,1.8750758171081543,3.8486342430114746,0.30934569239616394,0.12246555089950562,0.20117950439453125,0.7144172191619873
167,22279,22277,0.0058322749100625515,-0.06613288819789886,1.0369679927825928,1.7543529272079468,-6.634497165679932,-1.251055121421814,1.875162959098816,3.8489184379577637,0.30936357378959656,0.16187934577465057,0.20685075223445892,0.6978564262390137
168,22289,22287,-0.004013866186141968,0.14898866415023804,1.0142234563827515,-0.791545033454895,-4.2405314445495605,-1.30663001537323,1.875366449356079,3.8496816158294678,0.3113481402397156,0.20796853303909302,0.1357380598783493,0.701447606086731
169,22299,22297,0.00219776201993227,0.01866673119366169,1.0098400115966797,-1.0903395414352417,-5.2034759521484375,-0.4602237045764923,1.8752896785736084,3.8496925830841064,0.3118772506713867,0.3743579387664795,0.19145099818706512,0.6845031380653381
170,22309,22307,0.05136309564113617,0.010176003910601139,1.0179905891418457,-2.306197166442871,-2.2997212409973145,-0.715985119342804,1.876584529876709,3.849302053451538,0.3123737573623657,0.4430539011955261,0.16000819206237793,0.6711180806159973
171,22319,22317,0.03579651191830635,-0.08983351290225983,1.0106151103973389,-3.537658214569092,1.8865066766738892,-1.4524461030960083,1.8780012130737305,3.849421977996826,0.31288841366767883,0.37283629179000854,0.10974594205617905,0.6625180840492249
172,22329,22327,0.01257825456559658,-0.11455406248569489,0.9965579509735107,-3.2921602725982666,5.306212902069092,-1.7803171873092651,1.8791792392730713,3.850492000579834,0.31533050537109375,0.3304934799671173,0.04655023291707039,0.6584967374801636
173,22339,22337,0.016183696687221527,-0.1574537605047226,0.9724678993225098,-2.5731396675109863,6.2085113525390625,-2.3946595191955566,1.8806653022766113,3.851065158843994,0.31596168875694275,0.24067376554012299,-0.007341803517192602,0.6420320868492126
174,22349,22347,0.030179405584931374,-0.1050812229514122,0.9805170297622681,-1.1581684350967407,6.00123405456543,-2.4443488121032715,1.8813995122909546,3.850825786590576,0.31660059094429016,0.22277724742889404,0.03537195175886154,0.6150307655334473
175,22359,22357,-0.0013792159734293818,-0.03772581368684769,0.9839006662368774,0.49344107508659363,5.215324878692627,-2.175018787384033,1.883252501487732,3.851398468017578,0.3164346516132355,0.13552041351795197,0.020881131291389465,0.5957702398300171
176,22369,22367,-0.011611569672822952,-0.002376909600570798,0.9602977633476257,2.295840263366699,2.2834322452545166,-1.9173482656478882,1.8843770027160645,3.850625514984131,0.31692883372306824,0.07167761772871017,0.11151380836963654,0.5672950744628906
177,22379,22377,0.02746494486927986,-0.027940500527620316,0.9544368982315063,2.3129289150238037,1.5655863285064697,-2.0312881469726562,1.8853286504745483,3.8503823280334473,0.3173971176147461,0.05672602355480194,0.13717946410179138,0.5484999418258667
178,22389,22387,0.02543415129184723,-0.006494578439742327,0.9811528325080872,1.778045415878296,-0.7702156901359558,-1.9161548614501953,1.8864996433258057,3.8504176139831543,0.31853941082954407,0.056195858865976334,0.15933796763420105,0.5282336473464966
179,22399,22397,-0.011907313950359821,0.0353400856256485,1.0415666103363037,-0.12852197885513306,-2.3196933269500732,-2.019852876663208,1.8865572214126587,3.850445032119751,0.3190935552120209,0.16870760917663574,0.15998990833759308,0.5162517428398132
180,22409,22407,-0.01979186199605465,0.013925034552812576,1.043843150138855,-0.9936825037002563,-3.2163403034210205,-2.3181097507476807,1.8877373933792114,3.8503975868225098,0.3196016550064087,0.2196863293647766,0.1434156596660614,0.5028778910636902
181,22419,22417,-0.02828698791563511,-0.04729635268449783,1.0397497415542603,-3.741361379623413,-1.2524909973144531,-1.8569482564926147,1.8886332511901855,3.8520002365112305,0.3201400935649872,0.25828149914741516,0.09531375020742416,0.48202940821647644
182,22429,22427,-0.06798703968524933,-0.09227615594863892,1.0547642707824707,-4.5171918869018555,0.3757859170436859,-1.9550807476043701,1.8898276090621948,3.8521389961242676,0.3229210376739502,0.2700517773628235,0.019977958872914314,0.46471357345581055
183,22439,22437,-0.09610442817211151,-0.04729746654629707,1.0286169052124023,-3.743002414703369,1.1432489156723022,-2.606790065765381,1.892311692237854,3.8512229919433594,0.32363325357437134,0.10169147700071335,0.09198763221502304,0.4311445951461792
184,22449,22447,-0.08918467909097672,0.011361231096088886,0.9951967597007751,-2.1695480346679688,2.395129919052124,-2.537794589996338,1.8920106887817383,3.852175235748291,0.3245711624622345,0.22077690064907074,0.01275434996932745,0.4102405309677124
185,22459,22457,-0.0780927836894989,0.0350799486041069,0.9741658568382263,-1.7334275245666504,3.845829963684082,-2.459596872329712,1.8934000730514526,3.852248430252075,0.32091784477233887,0.16269418597221375,-0.0410509817302227,0.38671180605888367
186,22469,22467,-0.07020603120326996,0.03370949998497963,0.9625234007835388,-1.2706817388534546,4.255392551422119,-2.388206958770752,1.8937232494354248,3.852271795272827,0.3215304911136627,0.15599358081817627,-0.009383822791278362,0.35870134830474854
187,22479,22477,-0.06648387014865875,0.0399705208837986,0.9653891324996948,-1.9543801546096802,7.774043083190918,-2.505483627319336,1.8944711685180664,3.8519599437713623,0.32216548919677734,0.13458596169948578,-0.04826557636260986,0.33709925413131714
188,22489,22487,-0.009984923526644707,-0.019075294956564903,0.9709625840187073,-1.1042596101760864,3.9231770038604736,-2.476195812225342,1.8955100774765015,3.851682424545288,0.32384201884269714,0.07494588941335678,-0.01812412030994892,0.3123486042022705
189,22499,22497,-0.030869729816913605,0.0517394058406353,0.9720796346664429,-1.4677786827087402,6.990224838256836,-1.9846316576004028,1.8958102464675903,3.851825714111328,0.32447269558906555,0.05239827185869217,-0.05956175923347473,0.29017916321754456
190,22509,22507,0.014439667575061321,0.009323163889348507,0.9579387307167053,-1.9983265399932861,7.379558563232422,-1.5414671897888184,1.896851658821106,3.8516886234283447,0.3256186842918396,-0.002487299731001258,-0.10211749374866486,0.2729252576828003
191,22519,22517,0.010427744127810001,-0.0031956785824149847,0.9587835669517517,-2.721862554550171,3.7366278171539307,-1.513187050819397,1.8966469764709473,3.852295160293579,0.32477867603302,-0.07167546451091766,-0.15165071189403534,0.2645849585533142
192,22529,22527,-0.0176502987742424,0.09946729987859726,0.9543834924697876,-2.12831974029541,6.212166786193848,-1.6774638891220093,1.8980189561843872,3.8525242805480957,0.3252262473106384,-0.16043159365653992,-0.20523862540721893,0.2568844258785248
193,22539,22537,0.01123327761888504,-0.017385346814990044,0.9490740895271301,-1.3977094888687134,5.850188255310059,-1.5436131954193115,1.8987685441970825,3.853257656097412,0.32567280530929565,-0.2091008573770523,-0.24067136645317078,0.24028582870960236
194,22549,22547,0.024078721180558205,-0.057115115225315094,0.9444294571876526,0.7378216981887817,5.169569492340088,-2.2243731021881104,1.8999040126800537,3.854503870010376,0.3263872563838959,-0.2352033108472824,-0.2615956664085388,0.23832330107688904
195,22559,22557,-0.04465174302458763,0.07150208204984665,0.9505020380020142,2.390892267227173,4.619279384613037,-2.0007574558258057,1.9005779027938843,3.854429006576538,0.32313188910484314,-0.24429717659950256,-0.2433410882949829,0.21511687338352203
196,22569,22567,0.0578773096203804,-0.05790792778134346,0.9611546397209167,3.169337272644043,3.1899492740631104,-1.7314547300338745,1.9016799926757812,3.8534371852874756,0.32317405939102173,-0.36080318689346313,-0.12250488996505737,0.19432058930397034
197,22579,22577,0.0049652219749987125,0.0025474741123616695,0.991215705871582,2.3580198287963867,3.5462124347686768,-1.6148035526275635,1.9033845663070679,3.8531839847564697,0.32317501306533813,-0.43492844700813293,-0.08683034032583237,0.17718319594860077
198,22589,22587,-0.03928005322813988,0.0010042329085990787,1.0095784664154053,0.5674524307250977,2.2569198608398438,-1.6466556787490845,1.9040290117263794,3.8533265590667725,0.3187299370765686,-0.430278480052948,-0.06715528666973114,0.15629054605960846
199,22599,22597,-0.03143893927335739,-0.03725609555840492,1.013529896736145,-2.236137866973877,4.9995808601379395,-2.5380234718322754,1.9038913249969482,3.853586435317993,0.3184341490268707,-0.4120112657546997,-0.08248094469308853,0.13489721715450287
200,22609,22607,0.03520302474498749,-0.11193793267011642,0.9949995279312134,-1.9799015522003174,1.4223153591156006,-2.0960276126861572,1.9047985076904297,3.853708267211914,0.31813108921051025,-0.43158668279647827,-0.1358078420162201,0.1089990884065628
201,22619,22617,0.03763245791196823,-0.2612490653991699,1.0257492065429688,-3.02435302734375,1.5793535709381104,-1.848575472831726,1.9048789739608765,3.854801654815674,0.3182360529899597,-0.40799224376678467,-0.18401697278022766,0.09434524923563004
202,22629,22627,0.027395455166697502,-0.2555508315563202,1.0491746664047241,-2.7160775661468506,5.969552516937256,-2.4477367401123047,1.9069123268127441,3.855113983154297,0.31791090965270996,-0.5724758505821228,-0.24214456975460052,0.07373970001935959
203,22639,22637,-0.0018017188413068652,-0.1434127390384674,1.0273427963256836,-2.227149724960327,8.47619915008545,-2.910524606704712,1.907639503479004,3.855285406112671,0.3176889419555664,-0.623259425163269,-0.28543567657470703,0.04454052448272705
204,22649,22647,0.01460263691842556,-0.05397637560963631,0.9641854763031006,1.3437936305999756,6.1508073806762695,-3.0581014156341553,1.9080734252929688,3.855748414993286,0.31750693917274475,-0.6995236873626709,-0.30620765686035156,0.020855365321040154
205,22659,22657,0.01687198504805565,-0.050964560359716415,0.9779777526855469,3.5538575649261475,5.193657875061035,-3.446897029876709,1.9099873304367065,3.8555846214294434,0.3164805769920349,-0.8222024440765381,-0.2721584439277649,-0.0085268160328269
206,22669,22667,-0.01991676166653633,0.06583723425865173,1.0327342748641968,5.671018123626709,3.5177195072174072,-2.965367555618286,1.9105006456375122,3.8554251194000244,0.3162720501422882,-0.8383650779724121,-0.2023831009864807,-0.041632939130067825
207,22679,22677,-0.0032470659352838993,0.15642020106315613,1.02708899974823,6.268232822418213,0.6855371594429016,-1.994763731956482,1.9120486974716187,3.8549797534942627,0.3160165846347809,-0.8944728374481201,-0.10337438434362411,-0.06743137538433075
208,22689,22687,0.02461773343384266,0.16437676548957825,1.001495122909546,4.978438377380371,-1.9166395664215088,-1.7377406358718872,1.9146384000778198,3.85473895072937,0.3150358498096466,-1.0507162809371948,-0.00947804469615221,-0.07283264398574829
209,22699,22697,0.06808381527662277,0.11936900019645691,1.026860237121582,2.5586280822753906,-4.106650352478027,-1.7288322448730469,1.9152134656906128,3.8548505306243896,0.31478142738342285,-0.9917566180229187,0.051323577761650085,-0.09469252824783325
210,22709,22707,0.061732251197099686,0.007272297982126474,1.055179476737976,-0.2923464775085449,-8.408797264099121,-1.7168289422988892,1.9160927534103394,3.8542380332946777,0.3145829737186432,-0.8880612850189209,0.07176820188760757,-0.11162523180246353
211,22719,22717,-0.013340188190340996,-0.06025192141532898,1.0836492776870728,-3.7921643257141113,-7.181157112121582,-2.068498134613037,1.917629599571228,3.8550877571105957,0.31685763597488403,-0.8954604864120483,-0.039341796189546585,-0.13710717856884003
212,22729,22727,0.005938625894486904,-0.08759492635726929,1.0300947427749634,-4.837935924530029,-6.6844482421875,-2.2564923763275146,1.9180939197540283,3.855034112930298,0.31692424416542053,-0.7680180072784424,-0.1136651337146759,-0.1713452935218811
213,22739,22737,0.02873779647052288,-0.10824321955442429,1.0257834196090698,-4.422545433044434,-5.396818161010742,-2.2129738330841064,1.917527675628662,3.8550167083740234,0.31713950634002686,-0.5695286989212036,-0.19491098821163177,-0.20653901994228363
214,22749,22747,-0.0011940558906644583,-0.018447421491146088,1.027550458908081,-1.172366738319397,-0.5058050751686096,-2.751715898513794,1.9203287363052368,3.8553004264831543,0.3170527219772339,-0.7223575711250305,-0.24868330359458923,-0.22253133356571198
215,22759,22757,0.0010164262494072318,0.09982101619243622,0.9825835227966309,2.335230827331543,0.7305089831352234,-2.8433725833892822,1.9211676120758057,3.854581594467163,0.3172030448913574,-0.6969537734985352,-0.17011027038097382,-0.24083243310451508
216,22769,22767,0.020064063370227814,0.10819200426340103,0.9717074632644653,4.8832926750183105,-2.204733371734619,-2.226039171218872,1.9247877597808838,3.8549039363861084,0.3171003758907318,-0.9012117385864258,-0.11827817559242249,-0.25409185886383057
217,22779,22777,0.0020825001411139965,0.08588318526744843,1.0110231637954712,6.236310005187988,-2.8847155570983887,-2.0683770179748535,1.9266084432601929,3.854783058166504,0.31716206669807434,-0.8936671018600464,-0.024992741644382477,-0.2777254581451416
218,22789,22787,-0.007949081249535084,-7.368575461441651e-05,0.9867998361587524,4.587577819824219,-3.178471088409424,-1.5724425315856934,1.9277992248535156,3.8544492721557617,0.31428951025009155,-0.8678815364837646,0.07224822044372559,-0.2919544577598572
219,22799,22797,0.028199655935168266,-0.12451404333114624,0.9783260822296143,3.1730289459228516,-6.28890323638916,-1.8328531980514526,1.929565668106079,3.855891227722168,0.3141705393791199,-0.8086459636688232,-0.016448376700282097,-0.3205731213092804
220,22809,22807,0.04120326414704323,-0.15045177936553955,0.9881980419158936,1.93536376953125,-9.148229598999023,-2.290386199951172,1.929387092590332,3.8555688858032227,0.3142821192741394,-0.5490798354148865,0.03431795910000801,-0.35106757283210754
221,22819,22817,0.025144819170236588,-0.11695808917284012,0.988528311252594,-0.058195605874061584,-12.148276329040527,-2.1843466758728027,1.9315024614334106,3.8558149337768555,0.31575125455856323,-0.4862409830093384,0.0594465471804142,-0.3620210886001587
222,22829,22827,0.012724659405648708,-0.021216504275798798,0.9823118448257446,-1.412251353263855,-13.067596435546875,-1.2886641025543213,1.9341964721679688,3.855771541595459,0.3156164884567261,-0.4659299850463867,0.0534285306930542,-0.37821584939956665
223,22839,22837,-0.02543821558356285,0.013525021262466908,1.0385459661483765,-2.382451057434082,-8.783758163452148,-1.6233876943588257,1.9350718259811401,3.8560614585876465,0.31560733914375305,-0.27779504656791687,0.013912164606153965,-0.4027223587036133
224,22849,22847,-0.006688507739454508,0.09679604321718216,0.984086275100708,-2.490377187728882,-7.936563491821289,-1.2068876028060913,1.9351465702056885,3.85539174079895,0.3101172149181366,0.004795778542757034,0.04559514299035072,-0.43081459403038025
225,22859,22857,0.007616396062076092,0.0562058724462986,0.9413816928863525,-2.956697463989258,-6.112316131591797,-0.9055518507957458,1.9386242628097534,3.8546504974365234,0.30967190861701965,-0.07113737612962723,-0.004539326764643192,-0.44848987460136414
226,22869,22867,-0.000841288361698389,0.011138375848531723,0.9887353181838989,-1.6275014877319336,-2.5982894897460938,-0.804568350315094,1.9411439895629883,3.8549001216888428,0.30907806754112244,-0.2120712399482727,-0.02648324891924858,-0.43913182616233826
227,22879,22877,0.0017067180015146732,0.1140952855348587,0.9845186471939087,-0.6524187326431274,-1.6065729856491089,-0.7121893763542175,1.9434338808059692,3.8553926944732666,0.30856451392173767,-0.16554340720176697,-0.058059874922037125,-0.44854629039764404
228,22889,22887,0.019880376756191254,-0.10708606243133545,1.0286154747009277,0.7675423622131348,-1.6628409624099731,-0.729651689529419,1.9438196420669556,3.855943202972412,0.3083672523498535,0.004724324215203524,-0.06778497993946075,-0.4623435437679291
229,22899,22897,-0.017529156059026718,-0.1770387589931488,1.079224944114685,2.8666253089904785,-3.0850110054016113,-0.64911949634552,1.9463621377944946,3.8562185764312744,0.30789434909820557,0.007075161673128605,-0.0539751835167408,-0.46415284276008606
230,22909,22907,0.003080778056755662,-0.04178216680884361,1.0290671586990356,4.480681896209717,-5.415998458862305,-0.5499969720840454,1.947906494140625,3.856348991394043,0.3074796497821808,0.025896094739437103,-0.08391118049621582,-0.48866933584213257
231,22919,22917,0.024105332791805267,-0.037098225206136703,1.0302987098693848,3.623596668243408,-3.4617621898651123,0.3401518166065216,1.9509422779083252,3.857103109359741,0.3062531650066376,-0.07173267006874084,-0.004951564595103264,-0.4790632426738739
232,22929,22927,0.0033227261155843735,-0.05474468693137169,1.0318456888198853,3.4392595291137695,-7.200341701507568,0.6780144572257996,1.951616883277893,3.856502056121826,0.3059758245944977,0.06580725312232971,0.0606357678771019,-0.48860225081443787
233,22939,22937,-0.0003185391833540052,0.06539876013994217,1.0375652313232422,1.5421689748764038,-4.958533763885498,0.5927652716636658,1.9515960216522217,3.8568875789642334,0.30576658248901367,0.23197516798973083,0.038515739142894745,-0.485930472612381
234,22949,22947,0.026882901787757874,-0.017478562891483307,1.0378272533416748,-1.2320640087127686,-3.4664134979248047,0.31555843353271484,1.952854037284851,3.8566813468933105,0.3067064881324768,0.28985345363616943,0.06540818512439728,-0.4795153737068176
235,22959,22957,-0.006936629302799702,-0.034329239279031754,1.0452589988708496,-1.947855830192566,-1.74965500831604,0.4555942118167877,1.9544581174850464,3.8567123413085938,0.30650120973587036,0.32547715306282043,0.05232778936624527,-0.47477203607559204
236,22969,22967,-0.0032523651607334614,-0.03784140944480896,1.0729073286056519,-2.2795968055725098,0.2729285657405853,0.1485593467950821,1.9565969705581665,3.856834888458252,0.3062778115272522,0.24603807926177979,0.025564365088939667,-0.45993828773498535
237,22979,22977,0.017794599756598473,-0.021090926602482796,1.0002717971801758,-1.2659903764724731,-1.3528295755386353,0.8319094181060791,1.9591264724731445,3.857553482055664,0.30617615580558777,0.22147700190544128,-0.007212056778371334,-0.44241002202033997
238,22989,22987,-0.019389595836400986,0.008595924824476242,1.0710320472717285,-0.6862309575080872,-1.866965889930725,0.520948052406311,1.9610249996185303,3.8583528995513916,0.3060276210308075,0.21789859235286713,-0.024892395362257957,-0.43546897172927856
