,timestamp_start,timestamp_end,acc.x,acc.y,acc.z,gyro.x,gyro.y,gyro.z,stateEstimate.x,stateEstimate.y,stateEstimate.z,stabilizer.pitch,stabilizer.roll,stabilizer.yaw
0,23597,23595,-0.006149596534669399,0.001562157878652215,1.040886402130127,-5.879454612731934,6.8471269607543945,5.0449371337890625,0.5492519736289978,0.5339237451553345,0.16745036840438843,0.3416188955307007,0.031178494915366173,2.62703275680542
1,23607,23605,0.011194895952939987,0.03169422596693039,1.0016206502914429,-2.144774913787842,4.368343353271484,5.191383361816406,0.5481363534927368,0.5332440137863159,0.1694776564836502,0.16977588832378387,-0.020271122455596924,2.673023223876953
2,23617,23615,0.018989652395248413,0.043790169060230255,1.0672615766525269,-0.5932639241218567,2.1091978549957275,5.885295867919922,0.5484253764152527,0.5324826836585999,0.17084801197052002,0.1161627247929573,-0.08579691499471664,2.7214395999908447
3,23627,23625,0.0022569578140974045,-0.014541762880980968,1.075253963470459,-1.5180200338363647,2.2229537963867188,5.806926727294922,0.5480971336364746,0.5321200489997864,0.17220115661621094,0.1509682834148407,-0.0686955377459526,2.7769532203674316
4,23637,23635,0.04510945454239845,0.028030237182974815,1.0595037937164307,-5.79691219329834,2.5767157077789307,5.677810192108154,0.5473025441169739,0.5312631130218506,0.1736859232187271,0.04778570681810379,-0.08377860486507416,2.837491750717163
5,23647,23645,-0.008895022794604301,-0.007029144559055567,1.0593671798706055,-9.081194877624512,2.7836151123046875,5.4676666259765625,0.5475072860717773,0.5306470394134521,0.17520761489868164,0.025756292045116425,-0.21492235362529755,2.8899731636047363
6,23657,23655,0.01620338298380375,0.042908940464258194,1.0992213487625122,-12.125713348388672,3.3682007789611816,5.255344867706299,0.5471832752227783,0.530647873878479,0.17680661380290985,-0.07524069398641586,-0.32336533069610596,2.9494426250457764
7,23667,23665,0.01415400393307209,0.005602642428129911,1.085270881652832,-11.877772331237793,1.7309763431549072,4.750880718231201,0.5474337935447693,0.5303382873535156,0.1776253879070282,-0.0878123864531517,-0.45646584033966064,2.99900484085083
8,23677,23675,0.02243337593972683,0.015032021328806877,1.0781733989715576,-9.458524703979492,1.0097912549972534,4.740856647491455,0.5470733642578125,0.5299461483955383,0.17926907539367676,-0.09250621497631073,-0.5755916237831116,3.0475287437438965
9,23687,23685,0.00502948509529233,-0.008481722325086594,1.0595003366470337,-4.9942522048950195,1.2411036491394043,4.836858749389648,0.5466861128807068,0.5294382572174072,0.1809898167848587,-0.16151811182498932,-0.7150700092315674,3.0969600677490234
10,23697,23695,0.040593456476926804,0.0535806342959404,1.0748629570007324,-0.3906625807285309,2.079275608062744,4.882254123687744,0.5468018054962158,0.5292702317237854,0.1827971339225769,-0.22326414287090302,-0.7096118330955505,3.1553916931152344
11,23707,23705,0.004797233734279871,0.013000251725316048,1.089721441268921,3.1173622608184814,2.649510383605957,4.6121015548706055,0.546996533870697,0.528377115726471,0.18438713252544403,-0.21859261393547058,-0.7114731669425964,3.2027089595794678
12,23717,23715,0.005224806256592274,-0.010376814752817154,1.043721318244934,5.330462455749512,2.3956971168518066,3.918278694152832,0.5466710925102234,0.5277976989746094,0.18631228804588318,-0.2873218059539795,-0.6635546088218689,3.258443832397461
13,23727,23725,0.03614608943462372,0.04713370278477669,1.0499809980392456,4.870525360107422,1.650485634803772,3.34233021736145,0.5468589663505554,0.5271430015563965,0.1882832944393158,-0.3402753174304962,-0.6592699289321899,3.2970523834228516
14,23737,23735,-0.027155106887221336,0.012405052781105042,1.0686413049697876,3.2267091274261475,0.711858332157135,2.6148478984832764,0.546966552734375,0.5270067453384399,0.19091399013996124,-0.3117104172706604,-0.5202206373214722,3.3371918201446533
15,23747,23745,0.031248584389686584,0.01502303034067154,1.0558075904846191,1.6037782430648804,-1.063589334487915,2.296438217163086,0.5465671420097351,0.5258503556251526,0.1930256187915802,-0.3348008990287781,-0.5509577989578247,3.3591909408569336
16,23757,23755,0.02104576863348484,-0.021446166560053825,0.9879628419876099,-0.0853492021560669,-1.7065634727478027,2.596205234527588,0.5465530753135681,0.5258692502975464,0.19527292251586914,-0.3394474983215332,-0.5272952318191528,3.3846018314361572
17,23767,23765,0.03234196454286575,0.017801674082875252,1.0288430452346802,-3.655456066131592,-2.435260534286499,2.5922746658325195,0.5465168952941895,0.5253930687904358,0.19831812381744385,-0.39828383922576904,-0.6097002625465393,3.4100072383880615
18,23777,23775,0.010057630017399788,0.014889523386955261,1.0054497718811035,-5.711850166320801,-4.174672603607178,2.6470413208007812,0.5469580888748169,0.5256865620613098,0.2006176859140396,-0.2891606390476227,-0.652895450592041,3.4205706119537354
19,23787,23785,-0.010261313058435917,0.05093856528401375,1.0746740102767944,-6.225594997406006,-5.011544227600098,2.3261873722076416,0.5462439656257629,0.5254381895065308,0.20294085144996643,-0.5148429870605469,-0.8558480739593506,3.4662060737609863
20,23797,23795,0.03174218535423279,-0.03223281353712082,0.9825978875160217,-5.3149333000183105,-5.125397205352783,2.41281795501709,0.548183262348175,0.5265269875526428,0.20529916882514954,-0.69222092628479,-0.9726665019989014,3.518789529800415
21,23807,23805,0.0063344379886984825,0.007780517917126417,0.9900299310684204,-4.237344741821289,-5.7748942375183105,1.9297964572906494,0.5501412749290466,0.5269969701766968,0.20798403024673462,-0.4888797402381897,-0.9996317625045776,3.521397113800049
22,23817,23815,0.003243088023737073,-0.017153076827526093,0.9961918592453003,-1.812066674232483,-8.591606140136719,2.0182254314422607,0.5492934584617615,0.526630699634552,0.21071578562259674,0.19532740116119385,-1.750769853591919,3.3285512924194336
23,23827,23825,0.024135464802384377,0.027556762099266052,0.9856484532356262,2.538663864135742,-11.48007869720459,2.438711404800415,0.5439898371696472,0.5321192741394043,0.21318063139915466,0.14543679356575012,-1.675109624862671,3.3877692222595215
24,23837,23835,-0.004422678146511316,0.031588248908519745,1.0300873517990112,9.019261360168457,-10.397375106811523,2.110058069229126,0.5445813536643982,0.5320540070533752,0.21556928753852844,-0.4723197817802429,-1.9423725605010986,3.5288968086242676
25,23847,23845,0.03177827596664429,-0.014657339081168175,0.9555480480194092,17.222179412841797,-5.20286226272583,1.4687093496322632,0.550251305103302,0.5355705618858337,0.21813911199569702,-0.2657637894153595,-1.927302598953247,3.528489351272583
26,23857,23855,-0.0021323058754205704,0.00789546500891447,1.0048861503601074,25.00581932067871,-1.8031269311904907,1.6544944047927856,0.5498626232147217,0.5369837880134583,0.22052809596061707,-0.19756899774074554,-1.5720716714859009,3.5769731998443604
27,23867,23865,-0.018563417717814445,0.012258770875632763,0.9905431270599365,31.687475204467773,-2.673299789428711,1.1408004760742188,0.5503678917884827,0.536272406578064,0.2238568663597107,-0.16754324734210968,-1.1227046251296997,3.6191446781158447
28,23877,23875,0.016352247446775436,-0.051980629563331604,0.9391998052597046,33.617801666259766,-3.1546716690063477,0.9965337514877319,0.5508527755737305,0.5351903438568115,0.22670964896678925,-0.07689433544874191,-0.8213494420051575,3.616295576095581
29,23887,23885,0.002721871016547084,0.06208178400993347,0.9823070764541626,31.283838272094727,-4.632928848266602,0.3356681764125824,0.5506173372268677,0.5357566475868225,0.22921119630336761,0.09037107229232788,-0.3583606481552124,3.608920097351074
30,23897,23895,0.04004741087555885,-0.007995489984750748,0.9457210898399353,22.660144805908203,-6.788398265838623,-0.27481406927108765,0.5497338771820068,0.5350750088691711,0.2292119562625885,0.13299040496349335,0.030237458646297455,3.622291088104248
31,23907,23905,0.008845850825309753,0.03372717276215553,0.9504569172859192,12.077829360961914,-7.462243556976318,-0.6263102293014526,0.549952507019043,0.5350123643875122,0.2314012050628662,0.20047800242900848,0.14190340042114258,3.6078193187713623
32,23917,23915,0.016918202862143517,-0.034481924027204514,0.9203665256500244,1.3182212114334106,-6.682065010070801,-0.6742292046546936,0.5500251054763794,0.5368158221244812,0.23367460072040558,0.27300047874450684,0.3118818402290344,3.6033668518066406
33,23927,23925,0.005277421325445175,-0.006587428040802479,0.9304180145263672,-5.911390781402588,-5.2740888595581055,-1.1386668682098389,0.5502160787582397,0.5373064875602722,0.23579096794128418,0.40285637974739075,0.39398258924484253,3.5900747776031494
34,23937,23935,-0.015896474942564964,0.04039797559380531,0.9727891087532043,-9.138319969177246,-3.692047357559204,-1.2043540477752686,0.5498552322387695,0.5375218987464905,0.23755815625190735,0.4970400035381317,0.4329744279384613,3.580355167388916
35,23947,23945,0.03713712468743324,-0.03826136887073517,0.8957064151763916,-8.274503707885742,-1.1735639572143555,-1.6425000429153442,0.549616277217865,0.5372960567474365,0.23952442407608032,0.4831416606903076,0.4222634732723236,3.5740749835968018
36,23957,23955,-0.0011776264291256666,0.03591553494334221,1.0004603862762451,-4.233341693878174,1.0820465087890625,-2.023284912109375,0.5501860976219177,0.537086546421051,0.24146565794944763,0.5047546029090881,0.34957003593444824,3.55861234664917
37,23967,23965,0.020329419523477554,0.03411654382944107,0.9486516714096069,0.3838980197906494,2.2694950103759766,-2.367607355117798,0.5501889586448669,0.5372295379638672,0.24180234968662262,0.5661911964416504,0.40429195761680603,3.5389223098754883
38,23977,23975,0.015685103833675385,0.04318754002451897,0.9652533531188965,4.409074306488037,2.059840440750122,-2.2631916999816895,0.5496627688407898,0.5364292860031128,0.2435101568698883,0.39290350675582886,0.44286155700683594,3.5243616104125977
39,23987,23985,0.048434700816869736,-0.003163882764056325,0.922972559928894,6.6420722007751465,2.282118797302246,-2.745818614959717,0.5511417984962463,0.536207914352417,0.245237335562706,0.44531819224357605,0.6024110317230225,3.5016651153564453
40,23997,23995,-0.004635593853890896,0.07559791952371597,1.0133757591247559,6.55593204498291,1.539236068725586,-3.2431914806365967,0.5506213903427124,0.5350173115730286,0.246184840798378,0.4918214678764343,0.7041404843330383,3.475313901901245
41,24007,24005,0.025864480063319206,-0.004286866635084152,0.9027748107910156,3.9547598361968994,-0.30039575695991516,-4.0104899406433105,0.5500217080116272,0.5345495343208313,0.2477015107870102,0.46855923533439636,0.7894839644432068,3.444397211074829
42,24017,24015,-0.009768265299499035,-0.0028569751884788275,0.958145797252655,0.1473017781972885,-0.5873048305511475,-4.374661445617676,0.5500023365020752,0.5342831015586853,0.24918679893016815,0.24783384799957275,0.8288024067878723,3.404243230819702
43,24027,24025,-0.02051045000553131,0.010839336551725864,0.9646205902099609,-4.294447422027588,-0.39814820885658264,-4.061858654022217,0.5520614981651306,0.5343797206878662,0.2507045865058899,0.2464638203382492,0.8438853025436401,3.362147569656372
44,24037,24035,-0.0008407942368648946,-0.0028469085227698088,0.9373837113380432,-9.072840690612793,-1.0935049057006836,-4.3523268699646,0.5519626140594482,0.5346733927726746,0.25296589732170105,0.3793798089027405,0.7053313255310059,3.3255317211151123
45,24047,24045,-0.0018445004243403673,0.029015932232141495,0.9866877198219299,-12.843746185302734,-2.1083030700683594,-4.62610387802124,0.5511117577552795,0.5351932048797607,0.25445201992988586,0.9135584831237793,0.47336575388908386,3.3116323947906494
46,24057,24055,0.00485618133097887,-0.0083862179890275,0.9396728873252869,-12.34282112121582,-3.5046546459198,-5.049152851104736,0.5458464622497559,0.5364421606063843,0.25584661960601807,0.6791147589683533,0.36667150259017944,3.252338171005249
47,24067,24065,-0.005729895085096359,0.007569932844489813,0.9745244383811951,-10.258378982543945,-1.6803089380264282,-5.0723443031311035,0.547834038734436,0.5365776419639587,0.25641122460365295,0.5434426069259644,0.18876181542873383,3.195249080657959
48,24077,24075,-0.010726071894168854,-0.02013147994875908,0.9464227557182312,-5.971264839172363,2.5644168853759766,-4.744154453277588,0.5491635799407959,0.5372881889343262,0.2577551603317261,0.09727098047733307,0.1321849524974823,3.1194989681243896
49,24087,24085,-0.02172042243182659,0.021805021911859512,0.993870198726654,-0.022965434938669205,6.257828712463379,-3.990854024887085,0.5537422299385071,0.5371460318565369,0.2591138780117035,0.0873284786939621,0.21716785430908203,3.067880392074585
50,24097,24095,0.012342797592282295,0.025679104030132294,0.9822096228599548,5.315630912780762,6.506618976593018,-2.9835598468780518,0.5541694760322571,0.5356665253639221,0.25992363691329956,0.03688591718673706,0.8947869539260864,3.021196126937866
51,24107,24105,0.015829231590032578,0.01444368064403534,0.9792623519897461,6.753656387329102,1.5756962299346924,-2.987183094024658,0.5549161434173584,0.5286439061164856,0.26103949546813965,0.002846580697223544,0.8873229622840881,2.9911277294158936
52,24117,24115,0.00919218547642231,-0.017995158210396767,0.9542324542999268,2.0203044414520264,-4.76165771484375,-2.924398422241211,0.5549732446670532,0.5283017754554749,0.26229673624038696,0.11549896001815796,0.8819926381111145,2.9699997901916504
53,24127,24125,-0.008343547582626343,0.06380944699048996,1.0307493209838867,-7.1717143058776855,-9.337221145629883,-3.4946675300598145,0.5538468956947327,0.5282064080238342,0.2647939920425415,0.1462886482477188,0.7976534962654114,2.9392573833465576
54,24137,24135,0.04318508878350258,-0.021578047424554825,0.9243413209915161,-19.073740005493164,-14.535168647766113,-3.6098973751068115,0.5539040565490723,0.5287755131721497,0.26613515615463257,0.3501582741737366,0.7861345410346985,2.9128658771514893
55,24147,24145,0.017843274399638176,0.026957040652632713,0.9851545095443726,-25.662038803100586,-14.646151542663574,-3.4885916709899902,0.5529279708862305,0.5278210043907166,0.26727887988090515,0.4771242141723633,0.6324968338012695,2.875441312789917
56,24157,24155,0.010926153510808945,0.02315853163599968,0.9720426201820374,-28.01654815673828,-10.604551315307617,-3.152081251144409,0.5518611073493958,0.5288751125335693,0.26856207847595215,0.8009148240089417,0.2778468132019043,2.851492166519165
57,24167,24165,0.0003791256167460233,-0.013374816626310349,0.953131377696991,-24.35664176940918,-5.900096416473389,-2.817491054534912,0.5511749386787415,0.5277417898178101,0.27114415168762207,0.9230865836143494,0.0002696754818316549,2.81744384765625
58,24177,24175,0.004193172790110111,0.0026558188255876303,1.0128074884414673,-15.911083221435547,1.741385579109192,-2.142352342605591,0.5523300766944885,0.5279675126075745,0.2724279463291168,0.8648282885551453,-0.3263607323169708,2.7806477546691895
59,24187,24185,0.005480288527905941,0.04867877811193466,0.9803286194801331,-6.81889533996582,7.759454727172852,-1.7491744756698608,0.5524632334709167,0.5275506973266602,0.2735968232154846,0.8528183102607727,-0.5110635757446289,2.756787061691284
60,24197,24195,0.002570417243987322,-0.007497960701584816,0.9722641706466675,1.1199990510940552,10.446325302124023,-1.4934182167053223,0.5531116724014282,0.5258117914199829,0.2704663872718811,0.7311146259307861,-0.4613533616065979,2.730583667755127
61,24207,24205,0.01825660839676857,0.040883734822273254,0.9781288504600525,5.148341178894043,11.124892234802246,-1.5242230892181396,0.5531238317489624,0.5250049233436584,0.27133187651634216,0.6310998797416687,-0.44453975558280945,2.7133803367614746
62,24217,24215,0.018077120184898376,-0.0011680617462843657,0.9593071937561035,4.9931960105896,9.411678314208984,-1.5070267915725708,0.5531206727027893,0.5255430936813354,0.27221161127090454,0.5118945240974426,-0.5123999714851379,2.7016749382019043
63,24227,24225,0.0008634281693957746,0.027060117572546005,0.9864850640296936,3.3878114223480225,5.296050548553467,-1.7728615999221802,0.5530067682266235,0.5252683162689209,0.27464553713798523,0.421286940574646,-0.4833095967769623,2.685638904571533
64,24237,24235,0.06569735705852509,0.006624295376241207,0.8902919888496399,0.14135578274726868,2.606663227081299,-1.6203242540359497,0.5510207414627075,0.5250281095504761,0.2755339443683624,0.5505036115646362,-0.4747147262096405,2.6686160564422607
65,24247,24245,0.049515534192323685,0.03151458129286766,0.9443320035934448,-3.091653347015381,-1.3404778242111206,-1.3830431699752808,0.5511541366577148,0.525136411190033,0.27637743949890137,0.4781563878059387,-0.5124709606170654,2.6534817218780518
66,24257,24255,-0.016668809577822685,0.032443318516016006,1.002591609954834,-5.131948471069336,-2.3474678993225098,-1.5062049627304077,0.5502216815948486,0.5253989100456238,0.2770976424217224,0.5569533109664917,-0.6010496020317078,2.6394505500793457
67,24267,24265,0.010437804274260998,-0.03822289779782295,0.9282708168029785,-5.852634906768799,-1.57864511013031,-1.4234994649887085,0.5500882863998413,0.5250111222267151,0.2791197896003723,0.5664704442024231,-0.6413758993148804,2.6249043941497803
68,24277,24275,-0.01892739348113537,0.07265234738588333,1.0665736198425293,-5.094643592834473,0.5125640034675598,-1.5254185199737549,0.5492181181907654,0.5254546403884888,0.2798500955104828,0.6420711278915405,-0.7739378809928894,2.611684560775757
69,24287,24285,0.0470711924135685,0.07832387089729309,0.8676868677139282,-2.704056978225708,4.548879623413086,-2.343817949295044,0.5493952035903931,0.5250388979911804,0.2806362807750702,0.5894107818603516,-0.8031359314918518,2.596855640411377
70,24297,24295,-0.012282808311283588,0.08303388953208923,1.0385756492614746,-0.32521018385887146,6.9647626876831055,-2.76694917678833,0.5496976375579834,0.5253034234046936,0.28123173117637634,0.49042120575904846,-0.8771601915359497,2.5795600414276123
71,24307,24305,0.0398012138903141,-0.00837676040828228,0.9505540728569031,1.6529308557510376,7.7925944328308105,-2.790844202041626,0.5485591292381287,0.5253021717071533,0.2818656861782074,0.5160173773765564,-0.9056626558303833,2.546755313873291
72,24317,24315,0.006631573662161827,0.02432609163224697,0.9874067902565002,2.5707569122314453,7.219048976898193,-2.3582687377929688,0.5475431680679321,0.5251550078392029,0.28248128294944763,0.5056982636451721,-0.8960708379745483,2.51129412651062
73,24327,24325,0.0011994625674560666,-0.0009035192197188735,0.9911615252494812,3.7751543521881104,8.383416175842285,-1.647499442100525,0.5465673804283142,0.5249662399291992,0.282382607460022,0.4836360216140747,-0.8673312664031982,2.48154616355896
74,24337,24335,0.01951419748365879,0.005995504092425108,0.995189368724823,4.651966094970703,9.290078163146973,-1.326168179512024,0.5456474423408508,0.5255078673362732,0.2829248905181885,0.3973338007926941,-0.8675255179405212,2.463822364807129
75,24347,24345,0.001403552363626659,0.03333505988121033,1.0082576274871826,5.060638904571533,9.646039962768555,-1.0691287517547607,0.5456028580665588,0.5251911878585815,0.2835259437561035,0.2649348974227905,-0.8687125444412231,2.4550580978393555
76,24357,24355,0.02980118803679943,-0.010223530232906342,0.9606363773345947,5.169357776641846,9.056646347045898,-1.102474570274353,0.5455448031425476,0.5256634950637817,0.2841006815433502,0.13479121029376984,-0.7792080640792847,2.44470477104187
77,24367,24365,0.004052083007991314,0.07125353813171387,0.9692525267601013,5.38902473449707,8.693509101867676,-1.4679251909255981,0.5454720854759216,0.5252957940101624,0.28496527671813965,0.0412701852619648,-0.7255949974060059,2.4321138858795166
78,24377,24375,0.023578237742185593,-0.13158030807971954,0.9706192016601562,4.029582977294922,8.556583404541016,-1.3340104818344116,0.5452669262886047,0.5249326825141907,0.2855174243450165,-0.011388045735657215,-0.7614619135856628,2.414767026901245
79,24387,24385,-0.0028753296937793493,0.04111892357468605,1.0220468044281006,3.2923972606658936,7.287269592285156,-1.7803146839141846,0.5442690253257751,0.5262472629547119,0.28602805733680725,-0.1079212948679924,-0.6841137409210205,2.404827833175659
80,24397,24395,0.005205630324780941,-0.011510777287185192,1.0119144916534424,3.291645050048828,4.717022895812988,-1.5263196229934692,0.5440749526023865,0.5259919166564941,0.2863619923591614,-0.1055111363530159,-0.6194400787353516,2.3791558742523193
81,24407,24405,0.030565137043595314,0.03205689787864685,0.9871771335601807,3.5513527393341064,2.49285888671875,-0.9178349375724792,0.5428716540336609,0.5256903767585754,0.2868680953979492,-0.22492270171642303,-0.5553490519523621,2.3721346855163574
82,24417,24415,0.012767627835273743,0.029864631593227386,1.0123463869094849,4.521933078765869,0.6484858393669128,-0.6368341445922852,0.5431488752365112,0.5254444479942322,0.28740108013153076,-0.22678707540035248,-0.5594325661659241,2.35663104057312
83,24427,24425,0.0062200468964874744,-0.0011780009372159839,0.992483913898468,4.7802348136901855,0.18423795700073242,-0.2868089973926544,0.5423800349235535,0.525921106338501,0.2905350625514984,-0.289245069026947,-0.47437694668769836,2.357069253921509
84,24437,24435,0.011747539974749088,0.00517051387578249,1.004480242729187,5.932258605957031,0.821979284286499,-0.4214053452014923,0.5424779057502747,0.5255755186080933,0.29122114181518555,-0.3424505889415741,-0.45612117648124695,2.357668161392212
85,24447,24445,-0.005697600543498993,0.032556191086769104,1.0089836120605469,6.8404459953308105,1.1578187942504883,-0.43931615352630615,0.5425851941108704,0.5259668827056885,0.2918994724750519,-0.16894802451133728,-0.49296844005584717,2.3305418491363525
86,24457,24455,0.030453644692897797,-0.013199995271861553,0.9752894043922424,7.591606616973877,0.3304586708545685,-0.5127851366996765,0.5402230620384216,0.5269950032234192,0.2930149734020233,-0.1607658565044403,-0.42912757396698,2.322967052459717
87,24467,24465,0.003690175013616681,0.07770068198442459,0.9539996385574341,8.552227020263672,1.2979638576507568,-0.8733018040657043,0.5394973754882812,0.5272082090377808,0.29370537400245667,-0.22909857332706451,-0.3499605655670166,2.323164224624634
88,24477,24475,0.0169670507311821,-0.024575501680374146,0.9663166403770447,9.11518383026123,2.921844005584717,-1.385642409324646,0.5396631360054016,0.5273900032043457,0.2944094240665436,-0.2349611073732376,-0.25319021940231323,2.3140735626220703
89,24487,24485,0.008558573201298714,0.04737202078104019,0.9909470081329346,8.21824836730957,4.403138637542725,-1.8490095138549805,0.5391221046447754,0.527495265007019,0.2950473725795746,-0.33858320116996765,-0.16135425865650177,2.308722496032715
90,24497,24495,0.0048001729883253574,-0.007882634177803993,1.0011169910430908,6.745968818664551,4.709452152252197,-2.4502151012420654,0.539566695690155,0.5276682376861572,0.29236334562301636,-0.2224598526954651,-0.08567879348993301,2.278702974319458
91,24507,24505,0.008509007282555103,0.01114597450941801,0.9689552783966064,4.38043737411499,3.3566129207611084,-3.0724968910217285,0.5374817848205566,0.5278749465942383,0.292758584022522,-0.3402315080165863,-0.03607412055134773,2.2600131034851074
92,24517,24515,0.020004184916615486,0.03686239570379257,0.9811224937438965,2.3064000606536865,2.7191038131713867,-3.1222567558288574,0.5378015637397766,0.528362512588501,0.2932044267654419,-0.4387372136116028,-0.09296954423189163,2.225233793258667
93,24527,24525,-0.00012828593025915325,0.005566970910876989,1.0131570100784302,1.7791295051574707,3.534205913543701,-2.9830312728881836,0.5380385518074036,0.5298157334327698,0.2927294373512268,-0.4566192626953125,-0.017970990389585495,2.1988685131073
94,24537,24535,0.015937097370624542,-0.011344172060489655,0.9457676410675049,3.8812150955200195,3.056894540786743,-3.2145910263061523,0.5375439524650574,0.5296074748039246,0.2930719256401062,-0.5495007634162903,0.05620116740465164,2.1776931285858154
95,24547,24545,-0.0018325394485145807,0.03799908980727196,1.0592819452285767,6.552148818969727,1.835613489151001,-3.7550909519195557,0.5378515720367432,0.5292835831642151,0.29340437054634094,-0.5485196113586426,0.15519878268241882,2.1520466804504395
96,24557,24555,0.040181659162044525,-0.023964054882526398,0.9191123247146606,8.094736099243164,0.8179779648780823,-3.684037923812866,0.5372359156608582,0.5287293195724487,0.2934828996658325,-0.6089712977409363,0.1390453726053238,2.109959602355957
97,24567,24565,-0.017111264169216156,0.06381230056285858,1.0634679794311523,8.027518272399902,-0.6716307401657104,-4.115577220916748,0.5373214483261108,0.5297648310661316,0.2937832176685333,-0.6460033655166626,0.2949678301811218,2.0818629264831543
98,24577,24575,0.031854987144470215,-0.04148589074611664,0.9458624720573425,6.5343523025512695,-1.0415852069854736,-3.960991144180298,0.5373463034629822,0.5291288495063782,0.2940711975097656,-0.66778963804245,0.29030221700668335,2.0309295654296875
99,24587,24585,0.001894177170470357,0.04230333864688873,1.018735647201538,4.035815715789795,-1.2602232694625854,-3.983924627304077,0.5372784733772278,0.5302717089653015,0.29437726736068726,-0.6762202978134155,0.2648508548736572,1.978880524635315
100,24597,24595,0.020492566749453545,0.02372637391090393,1.0008326768875122,2.2839794158935547,-1.9611458778381348,-3.740562677383423,0.5371778607368469,0.5315958261489868,0.29552173614501953,-0.6643261313438416,0.31149375438690186,1.9375567436218262
101,24607,24605,0.0319252610206604,-0.09394191205501556,0.9731288552284241,0.9674104452133179,-2.7102315425872803,-3.790081262588501,0.5371328592300415,0.5314057469367981,0.2958608567714691,-0.5885768532752991,0.3456556499004364,1.9003945589065552
102,24617,24615,0.038287535309791565,0.023986613377928734,0.9914583563804626,0.5458353757858276,-4.4037299156188965,-3.4133708477020264,0.5361162424087524,0.5320799946784973,0.29618167877197266,-0.5658535957336426,0.3908170163631439,1.8681563138961792
103,24627,24625,-0.0020833362359553576,-0.01092664897441864,1.002649188041687,0.6194040179252625,-5.203328609466553,-2.845473051071167,0.5358285903930664,0.531997799873352,0.2980019450187683,-0.5159578919410706,0.42651471495628357,1.8387365341186523
104,24637,24635,0.015767928212881088,0.029923932626843452,0.9945520162582397,1.0632073879241943,-5.034568786621094,-2.8180339336395264,0.5354858040809631,0.53190016746521,0.29838746786117554,-0.4556322991847992,0.38979148864746094,1.803012490272522
105,24647,24645,-0.00043535183067433536,0.0014410722069442272,1.0127261877059937,1.3064202070236206,-3.13870906829834,-2.1874194145202637,0.5351317524909973,0.5325961112976074,0.29876619577407837,-0.47938570380210876,0.43400487303733826,1.7753549814224243
106,24657,24655,0.021375680342316628,0.017074253410100937,0.9872791767120361,1.9568772315979004,-1.3146544694900513,-2.027005910873413,0.5357660055160522,0.5324814319610596,0.2994399666786194,-0.5239889025688171,0.48153674602508545,1.7538868188858032
107,24667,24665,0.0011599385179579258,0.014151557348668575,1.0103449821472168,1.9876130819320679,0.34626567363739014,-1.8501365184783936,0.5365256071090698,0.532325029373169,0.2998528480529785,-0.5175547003746033,0.530491828918457,1.7367403507232666
108,24677,24675,0.015149377286434174,0.019759956747293472,1.0054206848144531,0.8919714689254761,0.1271539032459259,-2.2935922145843506,0.5365713238716125,0.5321498513221741,0.30025729537010193,-0.5262320041656494,0.49884045124053955,1.709428310394287
109,24687,24685,0.010075259022414684,0.012314091436564922,0.9945921897888184,-1.071150779724121,-0.9937487244606018,-2.3095927238464355,0.5365746021270752,0.5328805446624756,0.3006753623485565,-0.5235629677772522,0.45130807161331177,1.6797008514404297
110,24697,24695,-0.01182520855218172,0.01553098764270544,1.0177271366119385,-1.8742958307266235,-2.8894577026367188,-2.1130547523498535,0.5364900231361389,0.5337490439414978,0.3011874258518219,-0.498350590467453,0.4567472040653229,1.6586109399795532
111,24707,24705,0.04450755938887596,0.013432546518743038,0.9817284941673279,-1.922499179840088,-4.092652320861816,-1.8072365522384644,0.5362846851348877,0.5338453054428101,0.30161231756210327,-0.45010319352149963,0.5184491872787476,1.6491906642913818
112,24717,24715,-0.019429361447691917,0.017826465889811516,1.0069055557250977,-1.409742832183838,-5.681943416595459,-1.425754189491272,0.536011815071106,0.5331238508224487,0.3020486831665039,-0.3785664737224579,0.5024027824401855,1.632529854774475
113,24727,24725,0.027317175641655922,-0.0019388307118788362,1.0012035369873047,-1.7506307363510132,-6.468685626983643,-0.6566875576972961,0.5355939865112305,0.5331882834434509,0.3009515702724457,-0.2909509837627411,0.41595470905303955,1.6110944747924805
114,24737,24735,0.02038092166185379,0.03675771504640579,0.9768715500831604,-1.790333867073059,-6.117706775665283,-0.2487124800682068,0.5351046919822693,0.5341088175773621,0.30127763748168945,-0.3438665568828583,0.4074106514453888,1.5932742357254028
115,24747,24745,-0.00630998658016324,-0.0060556018725037575,1.0058320760726929,-2.017225503921509,-4.668654918670654,-0.22365246713161469,0.5363250374794006,0.534244179725647,0.30162662267684937,-0.2518026530742645,0.394302099943161,1.591942548751831
116,24757,24755,0.014507695101201534,0.023469043895602226,0.9917673468589783,-1.5152361392974854,-2.969917058944702,-0.24263472855091095,0.5359984636306763,0.5343632698059082,0.30521997809410095,-0.18399032950401306,0.3802243769168854,1.5918406248092651
117,24767,24765,0.02247564122080803,0.02302086353302002,0.9829179048538208,-0.8691791892051697,-1.409911036491394,-0.13903284072875977,0.5357822775840759,0.5344462394714355,0.30573153495788574,-0.1428816020488739,0.3718827962875366,1.590874195098877
118,24777,24775,-0.010320094414055347,0.009767536073923111,1.0100055932998657,0.279019296169281,-0.6870637536048889,-0.18820591270923615,0.5356823801994324,0.534486711025238,0.3062337040901184,-0.26089411973953247,0.4443512558937073,1.5857577323913574
119,24787,24785,0.03586653992533684,0.01919194683432579,0.9665932655334473,0.7628619074821472,-0.4946123957633972,0.3443542718887329,0.5373055934906006,0.5336700677871704,0.3067646622657776,-0.16638727486133575,0.45102325081825256,1.5919743776321411
120,24797,24795,-0.01898154430091381,0.02708490937948227,1.0285978317260742,0.6012210249900818,-2.0735812187194824,0.7170474529266357,0.5364491939544678,0.5335812568664551,0.30836063623428345,-0.21177342534065247,0.46214723587036133,1.5903599262237549
121,24807,24805,0.03125954419374466,-0.011173056438565254,0.9452244639396667,-0.28813761472702026,-4.099638938903809,1.1203359365463257,0.5371201634407043,0.5335448384284973,0.30890560150146484,-0.16015368700027466,0.4683839976787567,1.5995299816131592
122,24817,24815,-0.0021775653585791588,0.05612700432538986,1.023833990097046,-1.008196473121643,-6.312220573425293,1.6386362314224243,0.5368126034736633,0.5335494875907898,0.3094417452812195,-0.08239701390266418,0.4611583352088928,1.6128875017166138
123,24827,24825,0.014733991585671902,-0.025778304785490036,0.9566949009895325,-2.239712715148926,-7.088883876800537,2.017674207687378,0.5363383889198303,0.5336048007011414,0.309471994638443,0.01629898138344288,0.43862366676330566,1.6306670904159546
124,24837,24835,-0.00722862221300602,0.008951905183494091,0.9912055134773254,-3.706535816192627,-6.037014484405518,1.8136467933654785,0.5358095169067383,0.5337483286857605,0.309944212436676,0.11634427309036255,0.3970295488834381,1.6500484943389893
125,24847,24845,0.025067398324608803,0.030922994017601013,0.9759238362312317,-4.260162830352783,-3.440113067626953,2.2759697437286377,0.5353575348854065,0.5340018272399902,0.3103890120983124,0.19514544308185577,0.4095318913459778,1.6705726385116577
126,24857,24855,0.026441069319844246,0.008486329577863216,0.9681509733200073,-4.508440017700195,0.5301676988601685,3.0050575733184814,0.5351197123527527,0.5334771275520325,0.3105365037918091,0.2280779331922531,0.26849618554115295,1.6857588291168213
127,24867,24865,-0.018917249515652657,0.03299401327967644,1.000815510749817,-4.276501178741455,4.57796049118042,2.973168134689331,0.5351303815841675,0.534635603427887,0.3109402060508728,0.19800417125225067,0.20463159680366516,1.7109843492507935
128,24877,24875,0.020843952894210815,0.013419928029179573,0.9614199995994568,-4.008253574371338,7.542973518371582,2.8313183784484863,0.5354601144790649,0.5349600911140442,0.31135937571525574,0.10632383078336716,0.1410304605960846,1.739208698272705
129,24887,24885,-0.013555985875427723,0.11253844201564789,1.044001817703247,-2.9846153259277344,9.048309326171875,2.9464609622955322,0.5360255241394043,0.535256028175354,0.313152015209198,-0.021628785878419876,0.08862561732530594,1.7633771896362305
130,24897,24895,0.026001641526818275,-0.04561050981283188,0.9432685375213623,-2.3829755783081055,8.187623023986816,2.9133810997009277,0.5366942286491394,0.5354871153831482,0.31359559297561646,-0.15018433332443237,0.12165550887584686,1.7917670011520386
131,24907,24905,0.010511374101042747,0.06881178915500641,1.0059680938720703,-1.7409815788269043,5.370813369750977,3.660914421081543,0.537323534488678,0.5348358154296875,0.31404125690460205,-0.24997234344482422,0.1599615216255188,1.8225970268249512
132,24917,24915,0.034790314733982086,-0.005061594303697348,0.9112773537635803,-1.1285141706466675,0.7738696932792664,4.144165515899658,0.5377412438392639,0.5341354012489319,0.31444886326789856,-0.2946915626525879,0.06219899281859398,1.8563623428344727
133,24927,24925,0.02552964724600315,0.021942980587482452,0.9344138503074646,-1.2020173072814941,-4.437943935394287,4.170655727386475,0.5377714037895203,0.5350453853607178,0.3170910179615021,-0.27348315715789795,0.050450608134269714,1.8964734077453613
134,24937,24935,0.03513642027974129,0.04162447154521942,0.9852022528648376,-1.0421010255813599,-7.731631278991699,4.00294828414917,0.5374290943145752,0.5351190567016602,0.3175326883792877,-0.18168197572231293,0.036671921610832214,1.9394865036010742
135,24947,24945,0.015364118851721287,0.01343482919037342,0.9731577634811401,-0.6514953374862671,-8.312234878540039,4.06903600692749,0.5368409752845764,0.5351725220680237,0.3179436922073364,-0.05683768168091774,0.09629210084676743,1.9844638109207153
136,24957,24955,0.013818501494824886,-0.003263219492509961,0.9452944397926331,-0.7536244988441467,-7.451216697692871,4.802578449249268,0.5362462997436523,0.5343495011329651,0.31927478313446045,0.0009954316774383187,0.15239882469177246,2.0253167152404785
137,24967,24965,-0.022025788202881813,0.20283490419387817,0.9835980534553528,-0.8310874700546265,-4.04638147354126,5.605546951293945,0.5365573763847351,0.5335752964019775,0.31968384981155396,0.1034063994884491,0.06268362700939178,2.0693109035491943
138,24977,24975,0.0033185172360390425,0.05504850298166275,0.9174037575721741,-1.1908237934112549,0.15383149683475494,5.938445568084717,0.536217212677002,0.5344763994216919,0.3200657367706299,-0.0012195742456242442,0.04966215416789055,2.1167938709259033
139,24987,24985,0.016184203326702118,0.03788278251886368,0.9859877228736877,-1.5824424028396606,3.153154134750366,6.266074180603027,0.5379043817520142,0.5346441864967346,0.3168903589248657,0.0016629912424832582,0.03777298331260681,2.1754348278045654
140,24997,24995,0.0631561279296875,-0.021665198728442192,0.8769693374633789,-1.9519144296646118,8.559131622314453,6.468960285186768,0.5364869832992554,0.5346804261207581,0.3169696033000946,0.037868838757276535,0.00611751526594162,2.237886667251587
141,25007,25005,0.041452907025814056,0.006709754467010498,0.927049458026886,-2.1135149002075195,14.790104866027832,7.175184726715088,0.5371341109275818,0.5348532199859619,0.3169613778591156,-0.12940669059753418,-0.020928584039211273,2.2994437217712402
142,25017,25015,0.01626596972346306,0.0060278307646512985,0.9764705300331116,-1.9394123554229736,19.9285831451416,7.131688117980957,0.5382506251335144,0.5350568890571594,0.31685495376586914,-0.2662438154220581,-0.040881454944610596,2.3682024478912354
143,25027,25025,0.013458313420414925,0.03626487776637077,0.9700577259063721,-1.80512535572052,24.057952880859375,6.347314357757568,0.5390323400497437,0.5335046052932739,0.31606465578079224,-0.6429439187049866,-0.01963905617594719,2.436554193496704
144,25037,25035,0.015291329473257065,0.0193795058876276,1.0098148584365845,-1.6207469701766968,22.09562110900879,6.192342281341553,0.540803074836731,0.5345854163169861,0.31581053137779236,-0.7677453756332397,0.021763982251286507,2.5060036182403564
145,25047,25045,0.030291756615042686,-0.007491774391382933,0.9391348361968994,-0.7384487390518188,16.197690963745117,5.930208683013916,0.5399225354194641,0.5338171124458313,0.3157515525817871,-1.0674903392791748,-0.0069826869294047356,2.5674972534179688
146,25057,25055,0.012379060499370098,0.05028863623738289,1.0289121866226196,-0.48969000577926636,7.14845085144043,5.439571380615234,0.5411438941955566,0.5339305996894836,0.3172838091850281,-1.1049022674560547,-0.023476943373680115,2.627734899520874
147,25067,25065,0.025986570864915848,0.015095761977136135,0.9886142015457153,-0.7462010979652405,-1.6971986293792725,5.065279006958008,0.5399597883224487,0.5339195132255554,0.31731918454170227,-1.1571604013442993,-0.03757890686392784,2.682595729827881
148,25077,25075,-0.00943398755043745,0.025120116770267487,1.0076377391815186,-0.9898166060447693,-7.675384521484375,4.46233606338501,0.5398136377334595,0.5339747071266174,0.3172479569911957,-1.0838291645050049,-0.12772205471992493,2.7283105850219727
149,25087,25085,0.028100620955228806,-0.04859529808163643,0.9645814895629883,0.03225155174732208,-10.993680953979492,4.30410099029541,0.5391669869422913,0.5348738431930542,0.3164140284061432,-0.9983198046684265,-0.13188578188419342,2.7753522396087646
150,25097,25095,0.0562463104724884,-0.059284817427396774,0.848691999912262,0.5067740678787231,-9.202314376831055,3.9936776161193848,0.5391722321510315,0.534867525100708,0.31625962257385254,-0.8170002102851868,-0.12071812897920609,2.8186421394348145
151,25107,25105,-0.0018610727274790406,0.030065959319472313,0.9976044297218323,1.3656166791915894,-4.446247577667236,3.882100820541382,0.5384644269943237,0.5347899794578552,0.3160499632358551,-0.8450040221214294,-0.10269739478826523,2.8599095344543457
152,25117,25115,0.032008688896894455,0.03507506474852562,1.0021916627883911,1.4932583570480347,2.1134188175201416,3.5383059978485107,0.539821445941925,0.5347515344619751,0.31573542952537537,-0.7935581803321838,-0.09227097779512405,2.8999881744384766
153,25127,25125,-0.06180518865585327,0.18000900745391846,1.1037341356277466,1.8003779649734497,7.599069118499756,3.3256659507751465,0.5400506854057312,0.53383469581604,0.31552183628082275,-0.8926033973693848,-0.06399717181921005,2.940026044845581
154,25137,25135,-0.006914949510246515,0.02393307350575924,1.0245602130889893,1.8811439275741577,11.237730026245117,3.0050721168518066,0.5414134860038757,0.5346193313598633,0.31523650884628296,-0.9573957920074463,-0.04885927587747574,2.973583698272705
155,25147,25145,-0.050480324774980545,0.047131575644016266,1.0567547082901,0.36496394872665405,11.164999961853027,2.5947630405426025,0.5421798229217529,0.5345341563224792,0.31500399112701416,-1.126512050628662,-0.016140686348080635,3.006265640258789
156,25157,25155,0.03383803367614746,0.027009326964616776,0.9930713772773743,-1.1329209804534912,8.714577674865723,2.204425573348999,0.5430119633674622,0.5345498323440552,0.3162037432193756,-1.0995488166809082,-0.1630430966615677,3.010470151901245
157,25167,25165,0.0015466962940990925,0.021053962409496307,1.0227491855621338,-2.352692127227783,5.678283214569092,2.3556647300720215,0.5418763160705566,0.536244809627533,0.3162609934806824,-1.1989132165908813,-0.17118412256240845,3.0325655937194824
158,25177,25175,0.012140368111431599,-0.025484375655651093,0.9917770624160767,-1.4479058980941772,2.4465725421905518,2.1339921951293945,0.5422718524932861,0.5364289283752441,0.31620803475379944,-1.2453961372375488,-0.11148592084646225,3.0661368370056152
159,25187,25185,0.0227755568921566,0.019124511629343033,0.9863561987876892,1.2674411535263062,-1.1717811822891235,1.67641019821167,0.5424599051475525,0.535703182220459,0.3157525658607483,-1.2377564907073975,-0.11045346409082413,3.088665008544922
160,25197,25195,-0.012443232350051403,0.041751403361558914,1.0490912199020386,2.718407392501831,-2.632112503051758,1.2129954099655151,0.5423580408096313,0.5355979204177856,0.3157106637954712,-1.2631151676177979,-0.15369252860546112,3.099508047103882
161,25207,25205,0.017237579450011253,-0.01615242287516594,0.9879754185676575,2.778520107269287,-2.4344406127929688,1.0333350896835327,0.5429447293281555,0.5362529158592224,0.3156454563140869,-1.1855623722076416,-0.09760177880525589,3.1154751777648926
162,25217,25215,-0.006205285433679819,0.05201512575149536,1.0411641597747803,2.5097062587738037,-0.8050400614738464,1.5386991500854492,0.5427494049072266,0.5360284447669983,0.31541213393211365,-1.1945222616195679,-0.04258616641163826,3.130110025405884
163,25227,25225,0.0037595252506434917,-0.00722171226516366,1.0201200246810913,1.7553211450576782,1.5856378078460693,1.3818376064300537,0.5435085892677307,0.5358793139457703,0.31536948680877686,-1.1548941135406494,0.0031237113289535046,3.1464178562164307
164,25237,25235,0.007448818068951368,-0.035577379167079926,1.0487112998962402,0.07509134709835052,3.4389617443084717,0.7414486408233643,0.5436121225357056,0.5357513427734375,0.3153832256793976,-1.223026990890503,-0.04945835843682289,3.151427745819092
165,25247,25245,-0.02028791978955269,0.003997317980974913,1.0479464530944824,-1.8079912662506104,5.153109073638916,0.6260521411895752,0.5446307063102722,0.5366209745407104,0.31538039445877075,-1.2359249591827393,-0.04954450950026512,3.1629891395568848
166,25257,25255,-0.0035481369122862816,0.011183998547494411,1.0011602640151978,-3.3744592666625977,6.428304672241211,0.6500391364097595,0.544951856136322,0.5367696285247803,0.3138810098171234,-1.2719594240188599,-0.06541550904512405,3.1682889461517334
167,25267,25265,0.0024850862100720406,0.06120318919420242,1.0326557159423828,-3.951019048690796,6.812029838562012,0.6656473278999329,0.545411229133606,0.5370208024978638,0.3138848841190338,-1.3334569931030273,-0.10489823669195175,3.1728498935699463
168,25277,25275,0.010488527826964855,0.07153815031051636,0.9224681258201599,-3.6112735271453857,7.232110500335693,0.4930018484592438,0.5460084676742554,0.53729647397995,0.3138869106769562,-1.417349100112915,-0.15258662402629852,3.1761860847473145
169,25287,25285,0.013195320032536983,0.054877445101737976,1.0170457363128662,-2.860508680343628,4.699427604675293,0.6617530584335327,0.5465385317802429,0.5367716550827026,0.3142484426498413,-1.4967336654663086,-0.12162243574857712,3.1903533935546875
170,25297,25295,-0.00659743370488286,-0.013731356710195541,0.9918309450149536,-0.9793119430541992,1.1249687671661377,1.0467286109924316,0.5468184351921082,0.5361508131027222,0.3142549395561218,-1.5142433643341064,-0.0823126882314682,3.208035469055176
171,25307,25305,0.06725794821977615,-0.04218482971191406,1.0316557884216309,2.095653772354126,-2.5535812377929688,1.4005882740020752,0.5468197464942932,0.536197304725647,0.3142816126346588,-1.4758318662643433,-0.09671273827552795,3.2160849571228027
172,25317,25315,-0.00029532494954764843,-0.017970658838748932,1.0487189292907715,3.98759388923645,-5.2198567390441895,1.475061297416687,0.5481410026550293,0.5385563969612122,0.316135972738266,-1.5334404706954956,-0.2985602617263794,3.1941077709198
173,25327,25325,0.0382237508893013,-0.01734253019094467,0.9664871096611023,6.558023452758789,-7.056229591369629,1.7624366283416748,0.5509427785873413,0.538424551486969,0.31613513827323914,-1.6837221384048462,-0.2098684459924698,3.223468780517578
174,25337,25335,0.009498076513409615,-0.05088835209608078,0.9884729981422424,7.85792875289917,-7.770297050476074,1.8930777311325073,0.5511388182640076,0.5379502773284912,0.31637468934059143,-1.5439934730529785,-0.08367759734392166,3.252532720565796
175,25347,25345,-0.004757679533213377,0.018762297928333282,1.047562599182129,8.168611526489258,-9.702474594116211,1.948872447013855,0.551361620426178,0.5381876826286316,0.3165735602378845,-1.3324483633041382,0.05495886504650116,3.2812602519989014
176,25357,25355,0.03687089681625366,0.022830627858638763,0.990342915058136,5.719150543212891,-10.928444862365723,2.078557014465332,0.5514544248580933,0.5375986099243164,0.3162010610103607,-1.2407811880111694,0.1362082064151764,3.3008995056152344
177,25367,25365,-0.014731092378497124,0.052834708243608475,1.0410600900650024,2.1126832962036133,-10.509235382080078,2.4664218425750732,0.5522899031639099,0.5372501611709595,0.31633201241493225,-1.1415749788284302,0.2433801144361496,3.32886004447937
178,25377,25375,0.03422635421156883,-0.025876054540276527,0.9694916009902954,-1.8379082679748535,-10.103044509887695,2.5097556114196777,0.5539371371269226,0.5380201935768127,0.31644174456596375,-1.0443323850631714,0.20338717103004456,3.3392691612243652
179,25387,25385,0.07157653570175171,0.0828600600361824,1.014316201210022,-5.596656322479248,-8.137310981750488,2.3965234756469727,0.5540648698806763,0.53816157579422,0.3185308277606964,-0.9665149450302124,0.16103306412696838,3.357593536376953
180,25397,25395,0.0538400337100029,0.040709950029850006,0.9977301359176636,-7.846912384033203,-6.958130836486816,2.0333900451660156,0.5550519824028015,0.5386139154434204,0.3187912702560425,-0.9169387817382812,0.06348558515310287,3.376741886138916
181,25407,25405,0.08228409290313721,-0.091269351541996,0.9986514449119568,-7.364982604980469,-4.220376014709473,2.0398452281951904,0.5561136603355408,0.5392325520515442,0.3190447688102722,-0.8851983547210693,-0.04820828512310982,3.3930084705352783
182,25417,25415,0.052474018186330795,-0.000511558901052922,0.9811333417892456,-5.52139139175415,-2.9581871032714844,1.6260894536972046,0.5574121475219727,0.5398362874984741,0.32017824053764343,-0.888045072555542,-0.06395196169614792,3.42232608795166
183,25427,25425,-0.019436784088611603,0.04572264850139618,1.0375741720199585,-1.8524683713912964,-2.570678234100342,1.1525391340255737,0.5588129758834839,0.5395116806030273,0.3204711973667145,-0.8995447158813477,-0.12178193032741547,3.4395089149475098
184,25437,25435,0.03096023201942444,-0.017281167209148407,0.9605467319488525,1.985311508178711,-2.8276164531707764,0.43590739369392395,0.5602124929428101,0.5397272706031799,0.3207515478134155,-0.7538023591041565,-0.03912362456321716,3.4646387100219727
185,25447,25445,0.008170275017619133,0.02176467888057232,0.9837913513183594,3.7610788345336914,-3.029385805130005,-0.16660870611667633,0.560042679309845,0.5387701988220215,0.32121747732162476,-0.768869161605835,0.004271216224879026,3.4735565185546875
186,25457,25455,0.013797488063573837,0.021078502759337425,0.9594962000846863,3.791698932647705,-2.890500068664551,-0.7247475981712341,0.561594545841217,0.5385999083518982,0.3228372037410736,-0.7739343047142029,-0.08806899189949036,3.457186698913574
187,25467,25465,-0.007655969355255365,0.08404574543237686,1.025029182434082,3.484865188598633,-3.741628885269165,-1.3522282838821411,0.5629156827926636,0.5400275588035583,0.3231768012046814,-0.7748410105705261,-0.012622703798115253,3.4522945880889893
188,25477,25475,0.014240160584449768,-0.01887299120426178,0.9729940891265869,2.4108972549438477,-3.9407143592834473,-2.4257125854492188,0.5642623901367188,0.5398528575897217,0.32351258397102356,-0.6062599420547485,0.048506155610084534,3.438528537750244
189,25487,25485,-0.003980395384132862,-0.021103719249367714,0.9569112062454224,-0.25212982296943665,-4.9233927726745605,-3.234893798828125,0.5640131831169128,0.5396633744239807,0.3251599967479706,-0.5953713059425354,-0.0033381464891135693,3.4090280532836914
190,25497,25495,-0.008956601843237877,0.02563617005944252,0.9725364446640015,-1.7067162990570068,-5.456888675689697,-3.8487448692321777,0.5652212500572205,0.5405652523040771,0.32554125785827637,-0.4879739284515381,-0.0020379447378218174,3.377655029296875
191,25507,25505,0.039270203560590744,0.01995226740837097,0.9576683044433594,-3.229302167892456,-4.7298359870910645,-4.218709945678711,0.5656118988990784,0.5407091975212097,0.32595643401145935,-0.7033594846725464,-0.026673413813114166,3.34025502204895
192,25517,25515,-0.007405161391943693,0.037536825984716415,1.0007433891296387,-2.111076831817627,-3.7719526290893555,-5.634082317352295,0.569293737411499,0.5411548614501953,0.3253701627254486,-0.5131552219390869,-0.1369195282459259,3.2917935848236084
193,25527,25525,0.011286022141575813,-0.023919153958559036,0.9389814138412476,-0.10878219455480576,-3.5397748947143555,-6.1859540939331055,0.5689287185668945,0.5421066880226135,0.32576984167099,-0.580187976360321,-0.05959215760231018,3.243678092956543
194,25537,25535,0.008350377902388573,0.0435430146753788,0.9802209138870239,3.248030185699463,-3.122983694076538,-7.030004978179932,0.5711503028869629,0.5414119362831116,0.32596156001091003,-0.48210984468460083,-0.10463478416204453,3.1798205375671387
195,25547,25545,0.011645297519862652,0.06210634857416153,0.9937424659729004,7.090457439422607,-2.9368081092834473,-7.381640911102295,0.5716440677642822,0.5420181751251221,0.32548844814300537,-0.39233940839767456,-0.08513570576906204,3.1089656352996826
196,25557,25555,0.03922337666153908,0.003129699733108282,0.9478405714035034,9.021332740783691,-1.7310075759887695,-8.190937042236328,0.572195291519165,0.542345404624939,0.3256702125072479,-0.39890724420547485,-0.013543007895350456,3.0349369049072266
197,25567,25565,-0.014869444072246552,0.07103046774864197,1.012916922569275,9.348531723022461,-1.1903506517410278,-8.440112113952637,0.5736730694770813,0.5425777435302734,0.3257535696029663,-0.5720212459564209,0.0018141156760975718,2.9526784420013428
198,25577,25575,0.016263872385025024,-0.11474395543336868,0.9305670857429504,8.101930618286133,-1.7733490467071533,-8.836420059204102,0.5768072605133057,0.5436999797821045,0.3256376385688782,-0.41164544224739075,0.17488984763622284,2.87032151222229
199,25587,25585,0.006001980975270271,0.009735183790326118,0.9861701130867004,6.477880954742432,-3.5355420112609863,-9.063304901123047,0.5767195820808411,0.543088436126709,0.32729801535606384,-0.40103450417518616,0.3193811774253845,2.7847092151641846
200,25597,25595,0.012648236937820911,-0.019911102950572968,0.933144748210907,4.688220500946045,-5.673656463623047,-9.24182415008545,0.5780969262123108,0.5426666736602783,0.3273521661758423,-0.4399115741252899,0.35126838088035583,2.6941213607788086
201,25607,25605,0.05370144918560982,-0.03444014862179756,0.948769211769104,1.8060318231582642,-7.72038459777832,-9.6625394821167,0.5800992250442505,0.5432357788085938,0.32730695605278015,-0.3592697083950043,0.3483659625053406,2.601546049118042
202,25617,25615,0.024224575608968735,0.026071809232234955,0.9881110191345215,0.6692478060722351,-9.63455581665039,-9.832428932189941,0.5811337232589722,0.543973982334137,0.32788482308387756,-0.17160627245903015,0.3908485770225525,2.508362054824829
203,25627,25625,0.0380936861038208,0.0028762787114828825,0.9384509325027466,0.12976893782615662,-9.590638160705566,-9.898241996765137,0.5812064409255981,0.5439188480377197,0.32795989513397217,-0.20460191369056702,0.33678629994392395,2.409203290939331
204,25637,25635,-0.002686923136934638,0.02903684601187706,1.0104737281799316,0.14692158997058868,-8.537199974060059,-9.582273483276367,0.5837422013282776,0.5448374152183533,0.3278146982192993,0.0780324786901474,0.3583429157733917,2.314722776412964
205,25647,25645,0.009869757108390331,0.010804235935211182,0.9475379586219788,0.21704988181591034,-6.165487289428711,-9.674217224121094,0.583003044128418,0.544785737991333,0.3266497850418091,-0.14600983262062073,0.3806571066379547,2.211266040802002
206,25657,25655,0.04835306107997894,-0.09400878101587296,0.933736264705658,0.5960214138031006,-2.759993076324463,-9.570318222045898,0.5875112414360046,0.5449232459068298,0.32632607221603394,0.07161904871463776,0.40177905559539795,2.1183509826660156
207,25667,25665,-0.005344262346625328,0.009255089797079563,0.9793899059295654,0.2578388750553131,-2.4680941104888916,-9.683818817138672,0.5872353911399841,0.5448627471923828,0.326273113489151,0.15706612169742584,0.4230692982673645,2.0226309299468994
208,25677,25675,0.02072771079838276,-0.01706266775727272,0.9652183055877686,0.032668471336364746,-2.4754531383514404,-9.263142585754395,0.5878239274024963,0.5448570251464844,0.3260735869407654,0.08187362551689148,0.43960610032081604,1.9222981929779053
209,25687,25685,-0.009387555532157421,0.056517910212278366,1.027786135673523,-0.7560459971427917,-2.6546471118927,-8.599542617797852,0.5901025533676147,0.5449190139770508,0.3260434865951538,0.17007017135620117,0.44528940320014954,1.8318933248519897
210,25697,25695,0.030917774885892868,0.0008437043870799243,0.9582135081291199,-1.3226832151412964,-2.96301007270813,-7.907301902770996,0.5906720161437988,0.5449895858764648,0.3258294463157654,0.25827449560165405,0.43918970227241516,1.7484800815582275
211,25707,25705,0.01732947863638401,0.061856161803007126,1.0318963527679443,-1.0782333612442017,-4.455369472503662,-7.503333568572998,0.591219425201416,0.5451019406318665,0.32560649514198303,0.2803936302661896,0.42801910638809204,1.6690648794174194
212,25717,25715,0.014104630798101425,-0.006655763369053602,0.9613730311393738,-1.2115916013717651,-4.4575676918029785,-7.113953113555908,0.5924625992774963,0.5452117919921875,0.324452668428421,0.31531378626823425,0.3400731682777405,1.6009920835494995
213,25727,25725,0.00790032371878624,0.03339998424053192,1.0323437452316284,0.15083888173103333,-4.6507439613342285,-6.948087215423584,0.5937080383300781,0.5461766719818115,0.3241139352321625,0.42847740650177,0.2677428722381592,1.5382702350616455
214,25737,25735,-0.0014584169257432222,-0.013510813936591148,0.9812260866165161,2.4914214611053467,-4.874194145202637,-6.805249214172363,0.5941025018692017,0.5470148324966431,0.32382383942604065,0.46191269159317017,0.30656561255455017,1.463594675064087
215,25747,25745,0.017240138724446297,0.04792618378996849,1.024428367614746,3.5624120235443115,-3.3570868968963623,-7.0829081535339355,0.5952930450439453,0.5468428730964661,0.3216480314731598,0.48573192954063416,0.37124741077423096,1.3891401290893555
216,25757,25755,0.009996980428695679,-0.0019526927499100566,0.9889894723892212,4.353963375091553,-1.6113512516021729,-7.231119155883789,0.5966547727584839,0.5465903878211975,0.3212061822414398,0.5603960156440735,0.44820526242256165,1.3157968521118164
217,25767,25765,0.006364272907376289,0.04209163039922714,1.0264105796813965,3.8746628761291504,-0.452512264251709,-6.940325736999512,0.5973060727119446,0.5462679266929626,0.3208094537258148,0.5271762013435364,0.37513670325279236,1.2573208808898926
218,25777,25775,0.008325067348778248,0.012538662180304527,1.0473178625106812,2.2063498497009277,1.0250190496444702,-7.502862930297852,0.5988349318504333,0.5476933121681213,0.32037588953971863,0.5516939759254456,0.4486573338508606,1.1842490434646606
219,25787,25785,0.03573775663971901,0.1302049607038498,1.0408523082733154,1.6830545663833618,1.335035800933838,-7.8498735427856445,0.5995656251907349,0.547529935836792,0.3164500296115875,0.4779330790042877,0.4990878701210022,1.1033636331558228
220,25797,25795,0.04052596911787987,0.12387460470199585,0.967931866645813,1.4000414609909058,1.0309878587722778,-7.660944938659668,0.6012604236602783,0.5474158525466919,0.3158704936504364,0.48659732937812805,0.537104606628418,1.0239953994750977
221,25807,25805,0.03705031797289848,0.07967205345630646,0.9812027215957642,-0.08732672780752182,-1.6936893463134766,-7.470706939697266,0.6020855903625488,0.5473158359527588,0.315349817276001,0.5888065099716187,0.4098342955112457,0.9766891598701477
222,25817,25815,-0.012362606823444366,0.0071583157405257225,1.062498688697815,-1.1431732177734375,-3.0551862716674805,-7.439319133758545,0.6018471717834473,0.5490107536315918,0.31542640924453735,0.4913835823535919,0.5001850724220276,0.8807248473167419
223,25827,25825,0.056965216994285583,0.02897762693464756,0.9172077178955078,-0.9126006960868835,-2.409274101257324,-7.344022274017334,0.6040575504302979,0.5482589602470398,0.31488552689552307,0.6310890316963196,0.49863943457603455,0.8127868175506592
224,25837,25835,-0.019396549090743065,0.06037905439734459,1.0937143564224243,-1.3228824138641357,-0.2622639834880829,-7.560643672943115,0.6038024425506592,0.5483230352401733,0.31448403000831604,0.5911691784858704,0.49371615052223206,0.7353984117507935
225,25847,25845,0.04568051919341087,-0.04759994521737099,0.9717940092086792,-1.2438081502914429,1.8205832242965698,-7.72043514251709,0.6053784489631653,0.5484240055084229,0.3146411180496216,0.6040962934494019,0.4811439514160156,0.6616827845573425
226,25857,25855,-0.018101228401064873,0.0076512908563017845,1.063532829284668,-0.9275445342063904,3.267922878265381,-8.193586349487305,0.6062660217285156,0.5485183596611023,0.31422361731529236,0.5965644121170044,0.46606338024139404,0.5862659215927124
227,25867,25865,0.022286083549261093,-0.058140482753515244,0.9970371127128601,0.49504756927490234,5.281795024871826,-7.8840436935424805,0.6072593331336975,0.5485884547233582,0.31382113695144653,0.6238539218902588,0.3967646658420563,0.5212609171867371
228,25877,25875,0.005809400696307421,0.0571938119828701,1.05062997341156,3.0470316410064697,6.099908351898193,-8.303600311279297,0.6075735092163086,0.5493808388710022,0.3136528730392456,0.46629950404167175,0.4396411180496216,0.4287077486515045
229,25887,25885,0.01825108751654625,0.024994637817144394,1.0634615421295166,4.722249984741211,7.743886947631836,-8.360235214233398,0.6095904111862183,0.5491484999656677,0.31327396631240845,0.4442518651485443,0.5102667212486267,0.34262537956237793
230,25897,25895,-0.0020900259260088205,-0.0053701503202319145,1.0276304483413696,4.896709442138672,7.629898548126221,-7.687053203582764,0.6101000905036926,0.5487988591194153,0.31303754448890686,0.4084399938583374,0.5928866267204285,0.2574502229690552
231,25907,25905,0.00486800167709589,-0.03208746761083603,1.0472317934036255,3.643022060394287,6.540494918823242,-6.259287357330322,0.610603928565979,0.5484396815299988,0.31283774971961975,0.38238969445228577,0.6653529405593872,0.18123917281627655
232,25917,25915,0.0019920833874493837,-0.05186019092798233,0.9923964142799377,2.0994274616241455,4.741884231567383,-5.496490478515625,0.6110172271728516,0.5481786131858826,0.3120395839214325,0.2263680100440979,0.6432386040687561,0.12219648063182831
233,25927,25925,0.008972582407295704,0.0799328088760376,1.0773805379867554,1.1216208934783936,3.1296091079711914,-5.464890480041504,0.6129105687141418,0.5488349795341492,0.31178009510040283,0.24227797985076904,0.6765005588531494,0.07094240933656693
234,25937,25935,0.02795928344130516,-0.032418057322502136,0.996543288230896,-0.9370460510253906,2.78090500831604,-6.002931594848633,0.6130865812301636,0.5487560033798218,0.31167978048324585,0.26834836602211,0.6821812987327576,0.022750185802578926
235,25947,25945,-0.01136853452771902,0.05639153718948364,1.0620334148406982,-1.8028013706207275,2.673445701599121,-5.8219499588012695,0.6132365465164185,0.5488292574882507,0.3113601505756378,0.08002493530511856,0.6623854041099548,-0.046678874641656876
236,25957,25955,0.03217792138457298,-0.023822015151381493,1.028206706047058,-2.446829319000244,3.470982551574707,-5.189338684082031,0.6157816052436829,0.5489327311515808,0.3111431300640106,0.12118861079216003,0.625664472579956,-0.09516612440347672
237,25967,25965,-0.01196567714214325,0.04879434034228325,1.0302183628082275,-1.9419336318969727,3.126585006713867,-5.350076675415039,0.6159819960594177,0.5491131544113159,0.3111456036567688,0.0785970538854599,0.5905326008796692,-0.14713306725025177
238,25977,25975,0.01866091415286064,-0.00662352005019784,1.0365315675735474,-0.5470959544181824,2.1650280952453613,-4.47860050201416,0.6169928312301636,0.5492212772369385,0.31342175602912903,0.11522336304187775,0.6404677033424377,-0.20307882130146027
239,25987,25985,0.01202546525746584,0.06148243695497513,1.0239208936691284,0.10728593915700912,1.4155995845794678,-4.237968921661377,0.6171220541000366,0.5484640002250671,0.31360816955566406,0.0861232653260231,0.6987313032150269,-0.25634950399398804
