,timestamp_start,timestamp_end,acc.x,acc.y,acc.z,gyro.x,gyro.y,gyro.z,stateEstimate.x,stateEstimate.y,stateEstimate.z,stabilizer.pitch,stabilizer.roll,stabilizer.yaw
0,25232,25229,-0.01679464802145958,-0.0032889170106500387,1.0647354125976562,-5.5468645095825195,-6.805112361907959,-0.11385170370340347,1.7268553972244263,3.8607709407806396,0.17076413333415985,-0.7273386716842651,-0.058855216950178146,1.5678870677947998
1,25242,25239,0.022240050137043,-0.03269897773861885,1.0441956520080566,-6.486228942871094,-9.53265380859375,-0.15451779961585999,1.727360486984253,3.859138011932373,0.1713787466287613,-0.6683855056762695,0.058945588767528534,1.5915882587432861
2,25252,25249,0.016139300540089607,-0.013194061815738678,1.1163623332977295,-7.216804027557373,-10.607829093933105,0.08802323043346405,1.728200078010559,3.858586072921753,0.17288397252559662,-0.5602086782455444,-0.07931704074144363,1.5787208080291748
3,25262,25259,-0.005073282867670059,-0.06947275996208191,1.0812280178070068,-8.664763450622559,-7.899409770965576,0.6080306172370911,1.7276796102523804,3.8585927486419678,0.17447584867477417,-0.3765288293361664,-0.22181372344493866,1.5757192373275757
4,25272,25269,0.0009673620224930346,-0.09495663642883301,1.0572184324264526,-8.026089668273926,-7.2781291007995605,0.5895310044288635,1.7291336059570312,3.858969211578369,0.17582078278064728,-0.45144975185394287,-0.15954072773456573,1.5967291593551636
5,25282,25279,0.003263777820393443,-0.009374589659273624,1.0753625631332397,-6.891557693481445,-5.921510219573975,0.32942986488342285,1.7298492193222046,3.861192226409912,0.17763923108577728,-0.3798971474170685,-0.3949262499809265,1.579988718032837
6,25292,25289,-0.01072822604328394,0.11014010012149811,1.0642234086990356,-8.824536323547363,-2.04701566696167,1.0975234508514404,1.7309885025024414,3.8627655506134033,0.17935031652450562,-0.2661263644695282,-0.4534510672092438,1.5892103910446167
7,25302,25299,0.009448464028537273,-0.027977310121059418,1.0506458282470703,-7.657077312469482,-4.559807300567627,1.9283701181411743,1.7313205003738403,3.8624584674835205,0.18108272552490234,-0.19938036799430847,-0.5932515859603882,1.5947787761688232
8,25312,25309,0.0009124731295742095,-0.0528133362531662,1.0825507640838623,-3.4515738487243652,-3.654752731323242,1.6129390001296997,1.7359883785247803,3.8636035919189453,0.182907372713089,-0.5989807844161987,-0.6241461634635925,1.6182652711868286
9,25322,25319,-0.008751368150115013,0.06907889246940613,1.0724704265594482,-0.8836902379989624,-6.34860372543335,1.618249535560608,1.738426923751831,3.865239381790161,0.1847037971019745,-0.5709921717643738,-0.538394033908844,1.6507024765014648
10,25332,25329,0.013709056191146374,0.10704051703214645,1.004593014717102,-3.0227174758911133,-11.325028419494629,1.9839200973510742,1.7386538982391357,3.867453098297119,0.1869501918554306,-0.41844648122787476,-0.6374554634094238,1.6551015377044678
11,25342,25339,0.038519132882356644,-0.05271141603589058,1.046229362487793,-3.4388346672058105,-18.17784309387207,2.06772518157959,1.7387865781784058,3.868138551712036,0.18862640857696533,-0.2674385905265808,-0.6806638836860657,1.673518419265747
12,25352,25349,6.933725671842694e-05,-0.10786169022321701,1.0963802337646484,-2.597996950149536,-17.563644409179688,2.430873394012451,1.7391544580459595,3.8696534633636475,0.19070686399936676,-0.03521239757537842,-0.7313942909240723,1.6944451332092285
13,25362,25359,-0.007455598562955856,-0.049267712980508804,1.0168730020523071,-3.2557475566864014,-15.891158103942871,2.7280609607696533,1.7396047115325928,3.870346784591675,0.19286245107650757,0.2516058385372162,-0.7031211256980896,1.720825433731079
14,25372,25369,0.031349487602710724,0.03976844251155853,1.047831654548645,-3.020312786102295,-14.906954765319824,2.8463146686553955,1.740447759628296,3.8733136653900146,0.1981673389673233,0.4877886474132538,-0.8887330293655396,1.731372356414795
15,25382,25379,-0.014925438910722733,0.0578160434961319,1.0786545276641846,-3.1092090606689453,-8.459734916687012,2.5084593296051025,1.7395002841949463,3.8747870922088623,0.20042316615581512,0.7380326986312866,-0.9771674871444702,1.7494522333145142
16,25392,25389,-0.03948909789323807,-0.009183524176478386,0.9987735152244568,-1.4253946542739868,-1.1788519620895386,2.4636788368225098,1.7451409101486206,3.871405839920044,0.2039068192243576,0.39241617918014526,-0.37164565920829773,1.8394936323165894
17,25402,25399,-0.008390001952648163,-0.003407824784517288,1.0495834350585938,-4.926251411437988,0.7136445045471191,2.774564027786255,1.7462272644042969,3.8711013793945312,0.2075231671333313,0.4821664094924927,-0.4474497139453888,1.8549211025238037
18,25412,25409,0.028015082702040672,-0.0680595189332962,0.9965148568153381,-8.958845138549805,0.9347646236419678,2.0238161087036133,1.749207615852356,3.871961832046509,0.21015164256095886,0.31874462962150574,-0.5705683827400208,1.8886924982070923
19,25422,25419,0.016607703641057014,-0.05954733490943909,0.9961501359939575,-12.3829927444458,0.30206817388534546,1.208541750907898,1.750550389289856,3.8739418983459473,0.21291138231754303,0.2625007629394531,-0.8284067511558533,1.9119395017623901
20,25432,25429,0.013846551068127155,0.025255883112549782,0.9278599619865417,-13.510458946228027,-3.0577712059020996,1.2295056581497192,1.7504457235336304,3.8750598430633545,0.21567529439926147,0.3867045044898987,-0.973471999168396,1.9173880815505981
21,25442,25439,0.03553836792707443,-0.0008829977596178651,0.8994389772415161,-10.81571102142334,-13.361310958862305,2.083104372024536,1.7501015663146973,3.8759238719940186,0.21805326640605927,0.5596878528594971,-1.2519984245300293,1.924997329711914
22,25452,25449,0.014960801228880882,0.02253839746117592,0.9389760494232178,-5.546001434326172,-14.571962356567383,2.389725923538208,1.749577283859253,3.8768937587738037,0.2205154150724411,0.8234408497810364,-1.3183655738830566,1.9349175691604614
23,25462,25459,0.0009195490856654942,-0.06278727203607559,0.9971890449523926,1.6016117334365845,-15.388189315795898,2.814842700958252,1.7494672536849976,3.877072811126709,0.22281956672668457,1.015868067741394,-1.4298535585403442,1.9589252471923828
24,25472,25469,-0.08396215736865997,-0.04116488993167877,1.0428111553192139,7.570746898651123,-11.122773170471191,2.286194086074829,1.7556979656219482,3.879772663116455,0.22591732442378998,0.6333838701248169,-1.4176697731018066,2.0499489307403564
25,25482,25479,-0.08545631915330887,-0.019162030890583992,0.9936578273773193,11.848091125488281,-1.734449028968811,2.06833553314209,1.7560747861862183,3.8798696994781494,0.2286195456981659,0.8671954870223999,-1.3092149496078491,2.0526504516601562
26,25492,25489,-0.01382315345108509,0.03579070791602135,0.9750527739524841,13.701508522033691,0.3719727098941803,1.844996690750122,1.7581905126571655,3.881526231765747,0.23099473118782043,0.7623974680900574,-1.2077275514602661,2.0921218395233154
27,25502,25499,0.05534863471984863,0.09941127896308899,0.9018725752830505,12.304841041564941,0.8462598323822021,1.3795137405395508,1.7580362558364868,3.883509397506714,0.23138362169265747,0.8518481254577637,-1.1473287343978882,2.101364850997925
28,25512,25509,0.04398730397224426,0.12914621829986572,0.9700818657875061,9.872817039489746,-1.5422919988632202,1.5568417310714722,1.758462905883789,3.882737636566162,0.23362942039966583,0.7822254300117493,-0.9616672396659851,2.118129014968872
29,25522,25519,0.015179403126239777,0.021990273147821426,0.9542974233627319,6.724996566772461,-5.013445854187012,1.0091677904129028,1.7584069967269897,3.882934093475342,0.23586416244506836,0.8984822034835815,-0.8967761397361755,2.120030403137207
30,25532,25529,0.004293461330235004,-0.06288838386535645,0.9199970364570618,3.29413104057312,-8.06509780883789,0.5897840261459351,1.7578550577163696,3.882155418395996,0.23801997303962708,1.0439581871032715,-0.8050348162651062,2.112053394317627
31,25542,25539,-0.06479702144861221,-0.06698907911777496,0.9482861757278442,0.4480364918708801,-6.802722930908203,0.3516842722892761,1.757886290550232,3.883669137954712,0.2404276579618454,1.1417893171310425,-0.7735999226570129,2.1144392490386963
32,25552,25549,-0.012822862714529037,-0.008623522706329823,0.9397373795509338,-1.2949773073196411,-4.852038860321045,0.2604079246520996,1.7583539485931396,3.883580446243286,0.24248696863651276,1.1489657163619995,-0.7825683355331421,2.125431776046753
33,25562,25559,0.021404119208455086,-0.008086766116321087,0.9063875675201416,-1.6209917068481445,-3.7206718921661377,0.4975152015686035,1.7569022178649902,3.8842411041259766,0.24448007345199585,1.4090417623519897,-0.8141411542892456,2.101134777069092
34,25572,25569,0.0014341080095618963,0.06690224260091782,0.9021034240722656,0.10688343644142151,-0.6767058372497559,0.5958921909332275,1.75761079788208,3.885686159133911,0.24759136140346527,1.4682974815368652,-0.8401950001716614,2.1087541580200195
35,25582,25579,-0.01824023947119713,0.12310800701379776,0.9789589047431946,3.6287190914154053,4.032968997955322,0.29542800784111023,1.7563722133636475,3.885805368423462,0.2494363784790039,1.5353275537490845,-0.8974141478538513,2.1127686500549316
36,25592,25589,-0.019039327278733253,0.13489030301570892,1.0165036916732788,7.353518486022949,8.250642776489258,-0.009801522828638554,1.756213665008545,3.885336399078369,0.25134316086769104,1.5184625387191772,-0.8148979544639587,2.103271722793579
37,25602,25599,-0.007041861303150654,0.09636306017637253,0.9977598786354065,10.835371017456055,12.266246795654297,0.3707294166088104,1.7574567794799805,3.886204957962036,0.2535702884197235,1.2840371131896973,-0.5993222594261169,2.096918821334839
38,25612,25609,0.008306803181767464,0.009976457804441452,0.9564000368118286,11.085951805114746,14.345717430114746,-0.059483759105205536,1.7581911087036133,3.8880534172058105,0.2556180953979492,1.2156563997268677,-0.4820135235786438,2.1031010150909424
39,25622,25619,0.009767584502696991,0.057418134063482285,0.9191284775733948,8.085587501525879,14.195828437805176,-0.14794102311134338,1.7600153684616089,3.8916022777557373,0.25568515062332153,0.9854723215103149,-0.31310325860977173,2.106459140777588
40,25632,25629,0.028691112995147705,0.0946836918592453,0.8973108530044556,3.3188438415527344,12.95101261138916,-0.2033800482749939,1.7611594200134277,3.8914380073547363,0.25635358691215515,0.7793483138084412,-0.2076263427734375,2.1121795177459717
41,25642,25639,0.023809049278497696,0.11216168850660324,0.8830563426017761,-0.8913170099258423,10.460686683654785,-0.28780728578567505,1.7572693824768066,3.8914549350738525,0.258165568113327,1.059065580368042,-0.18386095762252808,2.0815584659576416
42,25652,25649,0.09617343544960022,0.019028235226869583,0.8278110027313232,-3.7341158390045166,3.9508464336395264,0.23146845400333405,1.7583818435668945,3.893098831176758,0.2598443329334259,0.9041417837142944,-0.22439950704574585,2.0904886722564697
43,25662,25659,0.05478634312748909,-0.020221572369337082,0.9318785071372986,-6.0852437019348145,7.847833633422852,0.12069613486528397,1.7568925619125366,3.8947010040283203,0.2612251937389374,0.9512245059013367,-0.2307954877614975,2.0858640670776367
44,25672,25669,0.1293444037437439,-0.0634794607758522,0.9371964335441589,-6.063913822174072,6.9960618019104,-0.194650799036026,1.7600345611572266,3.8978586196899414,0.2633514106273651,0.52103191614151,-0.4173630177974701,2.12440824508667
45,25682,25679,0.11179924011230469,-0.11254500597715378,0.9373556971549988,-3.649304151535034,4.8278727531433105,0.026461664587259293,1.757645606994629,3.8983099460601807,0.26477307081222534,0.650056004524231,-0.506147027015686,2.1214520931243896
46,25692,25689,0.05190099775791168,-0.1514822393655777,0.9270898103713989,-0.1594841629266739,3.507187843322754,-0.22088871896266937,1.767615556716919,3.900622844696045,0.26745322346687317,-0.5296693444252014,-0.47079387307167053,2.1535444259643555
47,25702,25699,0.026103738695383072,-0.1641419678926468,0.919426441192627,4.537146091461182,-0.6504749655723572,-0.2754407823085785,1.7534552812576294,3.9021501541137695,0.271878182888031,1.0750983953475952,-0.44030672311782837,2.099193572998047
48,25712,25709,0.003635122673586011,-0.08934655785560608,0.9369697570800781,7.3713274002075195,-3.5494978427886963,0.4136016368865967,1.765843152999878,3.904674530029297,0.27621912956237793,-0.4758152365684509,-0.4901967942714691,2.1651885509490967
49,25722,25719,0.04619847610592842,-0.06184733659029007,0.9326170682907104,7.178740978240967,-4.396548271179199,0.5057618021965027,1.7532280683517456,3.907078504562378,0.28268513083457947,1.2027511596679688,-0.27788618206977844,2.1143877506256104
50,25732,25729,0.07109321653842926,-0.0662202313542366,0.96638023853302,7.295196056365967,-6.3329033851623535,0.479807585477829,1.7554762363433838,3.9106392860412598,0.2798907458782196,1.1347845792770386,-0.37524333596229553,2.1462411880493164
51,25742,25739,0.026368873193860054,0.025864727795124054,0.9366037845611572,5.543688774108887,0.04044137895107269,0.6850506067276001,1.7526775598526,3.9105277061462402,0.2809109687805176,1.4176373481750488,-0.02745065465569496,2.121039390563965
52,25752,25749,0.0033810765016824007,-0.04151448607444763,0.9620861411094666,2.065392255783081,10.520241737365723,0.8085690140724182,1.7513408660888672,3.9120538234710693,0.2821810245513916,1.3960316181182861,-0.039888057857751846,2.133110761642456
53,25762,25759,-0.006524530239403248,-0.10262376070022583,1.0166836977005005,-0.6875610947608948,19.793210983276367,0.7842457294464111,1.752150058746338,3.912529468536377,0.283945232629776,1.0534963607788086,-0.029887111857533455,2.1423165798187256
54,25772,25769,0.01726227067410946,-0.06648646295070648,0.9840213060379028,-5.572251319885254,32.3548698425293,0.7452226281166077,1.7540795803070068,3.9153382778167725,0.279784232378006,0.6020740270614624,-0.1563630849123001,2.1599080562591553
55,25782,25779,0.008567452430725098,-0.0017430969746783376,0.9426001310348511,-5.737326622009277,33.61491394042969,0.7087846398353577,1.7537809610366821,3.91660475730896,0.2807662785053253,0.20317442715168,-0.32412177324295044,2.176861524581909
56,25792,25789,0.001742724096402526,-0.013355421833693981,0.9569422006607056,-4.250476360321045,28.710981369018555,1.1413155794143677,1.7556926012039185,3.920147657394409,0.281674861907959,-0.17653770744800568,-0.40625056624412537,2.187957763671875
57,25802,25799,0.021240046247839928,-0.03302726522088051,0.9731575846672058,-0.9717599749565125,20.434303283691406,1.1677625179290771,1.7565090656280518,3.922224998474121,0.2803190052509308,-0.44963538646698,-0.4406715929508209,2.203824758529663
58,25812,25809,-0.013785276561975479,0.01813661679625511,0.9813687801361084,3.8933749198913574,9.86788272857666,0.7923732995986938,1.7571873664855957,3.9227588176727295,0.28095224499702454,-0.6336702704429626,-0.3997703492641449,2.2109768390655518
59,25822,25819,0.044404879212379456,-0.07801992446184158,0.9013789296150208,8.19744873046875,0.42779192328453064,0.629148006439209,1.7561895847320557,3.924407958984375,0.2815536856651306,-0.6476119756698608,-0.3610016405582428,2.218782901763916
60,25832,25829,-0.04972612112760544,-0.03522714227437973,1.0189712047576904,11.732563018798828,-12.212024688720703,1.1549451351165771,1.756118893623352,3.926321506500244,0.278425395488739,-0.5788129568099976,-0.32366833090782166,2.228393316268921
61,25842,25839,-0.0762978047132492,-0.16127772629261017,1.023153305053711,12.625969886779785,-7.699106216430664,0.6821045875549316,1.7569373846054077,3.927741765975952,0.27866509556770325,-0.4891732633113861,-0.31366977095603943,2.2350387573242188
62,25852,25849,0.06772751361131668,-0.0852559432387352,0.9865728616714478,12.493438720703125,-7.215275764465332,1.6065884828567505,1.7564609050750732,3.9270591735839844,0.2790502905845642,-0.4475615620613098,-0.061650510877370834,2.2512800693511963
63,25862,25859,0.0701490193605423,0.009241856634616852,0.9930419921875,10.299747467041016,-0.3692343235015869,0.8517759442329407,1.756857991218567,3.9298884868621826,0.279311865568161,-0.4422479569911957,-0.06219439208507538,2.254525899887085
64,25872,25869,0.019879253581166267,-0.058807969093322754,0.9744868278503418,7.116039752960205,2.9264755249023438,0.3361017405986786,1.7575856447219849,3.931760311126709,0.27974507212638855,-0.5948715806007385,-0.014420284889638424,2.256484270095825
65,25882,25879,0.0034376736730337143,-0.03786814585328102,1.0214062929153442,5.955665111541748,6.896670818328857,-0.05626979097723961,1.7581852674484253,3.931867837905884,0.2800310552120209,-0.7225743532180786,0.06558752804994583,2.258607864379883
66,25892,25889,-0.005220033694058657,-0.07729727774858475,0.9607187509536743,5.3035502433776855,6.633560657501221,0.18571333587169647,1.758655309677124,3.932879686355591,0.28030145168304443,-0.7970912456512451,0.0544876828789711,2.254509687423706
67,25902,25899,0.0022484096698462963,-0.07064630836248398,0.935911238193512,4.443516731262207,3.1044788360595703,0.8655868172645569,1.7587361335754395,3.934107780456543,0.28066569566726685,-0.9247656464576721,0.03657379373908043,2.249080181121826
68,25912,25909,0.02822735905647278,-0.12934280931949615,1.0037634372711182,6.995781898498535,-0.792855441570282,-0.01845853589475155,1.7588218450546265,3.9350624084472656,0.2809526026248932,-0.9101428389549255,0.1898825764656067,2.2650139331817627
69,25922,25919,0.009324375540018082,-0.08040156215429306,1.0182832479476929,8.927473068237305,-2.8630154132843018,-0.9223188161849976,1.760667085647583,3.9387600421905518,0.2811684310436249,-0.9017346501350403,0.21990488469600677,2.257596731185913
70,25932,25929,0.019247204065322876,-0.01701955497264862,0.981023371219635,10.187938690185547,-4.629611015319824,-1.1005430221557617,1.7615833282470703,3.9389822483062744,0.27930301427841187,-0.8372674584388733,0.4251241385936737,2.264742612838745
71,25942,25939,0.060319654643535614,-0.0021443164441734552,0.9171496033668518,8.744993209838867,-8.532251358032227,-0.3363654613494873,1.7627159357070923,3.942861557006836,0.2794095277786255,-0.7338123917579651,0.4029024839401245,2.240527629852295
72,25952,25949,-0.021091807633638382,-0.03129500150680542,1.0301029682159424,7.714345455169678,-8.072737693786621,0.3903163969516754,1.7648857831954956,3.9451658725738525,0.2794722020626068,-0.750773012638092,0.5282891392707825,2.2399673461914062
73,25962,25959,0.019088249653577805,0.014248354360461235,0.9916028380393982,5.545132637023926,0.6986479759216309,1.2519807815551758,1.7653968334197998,3.946120262145996,0.28090980648994446,-0.6958385705947876,0.6900357007980347,2.2669079303741455
74,25972,25969,0.042319945991039276,-0.12119923532009125,1.005968451499939,3.524789333343506,8.016366004943848,1.3773483037948608,1.765596866607666,3.9473423957824707,0.2810001075267792,-0.7860311269760132,0.6483862400054932,2.2653491497039795
75,25982,25979,0.02529469132423401,-0.21421745419502258,1.0462621450424194,1.460397720336914,14.281837463378906,1.470167875289917,1.7666797637939453,3.948559522628784,0.2810361981391907,-0.9695888161659241,0.5817874670028687,2.2618303298950195
76,25992,25989,-0.012250822968780994,-0.1328914761543274,1.0519386529922485,0.1628580093383789,19.21880531311035,0.6648437976837158,1.7687419652938843,3.9489166736602783,0.28109613060951233,-1.2328778505325317,0.5843223333358765,2.2654221057891846
77,26002,25999,-0.009335354901850224,-0.05232241377234459,1.0440946817398071,0.5771979093551636,21.21375274658203,0.8988744616508484,1.7688274383544922,3.9498910903930664,0.27975228428840637,-1.4044381380081177,0.570574939250946,2.275451421737671
78,26012,26009,0.044622860848903656,-0.10363352298736572,1.0287574529647827,2.993664026260376,12.774714469909668,1.1393506526947021,1.7690414190292358,3.9520347118377686,0.27982035279273987,-1.5657771825790405,0.49880340695381165,2.270906925201416
79,26022,26019,-0.02415078692138195,0.10769352316856384,1.0863490104675293,4.999664783477783,6.75868034362793,0.5374423265457153,1.770891785621643,3.9543228149414062,0.27991363406181335,-1.7262639999389648,0.5514809489250183,2.27480149269104
80,26032,26029,-0.013778336346149445,0.04818857088685036,1.0712810754776,8.161432266235352,-2.0414724349975586,0.2489071935415268,1.7718003988265991,3.9553394317626953,0.2776821553707123,-1.7534645795822144,0.644228994846344,2.284334182739258
81,26042,26039,0.009101438336074352,-0.07285524904727936,0.9888222217559814,10.243484497070312,-1.8139172792434692,-0.08820050209760666,1.7714887857437134,3.9566268920898438,0.2778833210468292,-1.6004828214645386,0.6286701560020447,2.2767741680145264
82,26052,26049,0.021112531423568726,-0.028871651738882065,1.0045394897460938,10.335958480834961,-8.638851165771484,0.5546032786369324,1.771872878074646,3.9562504291534424,0.2781355082988739,-1.4773865938186646,0.8749512434005737,2.320542335510254
83,26062,26059,-0.016348524019122124,-0.05980544909834862,1.0229153633117676,9.665656089782715,-8.078142166137695,0.7510483860969543,1.7729942798614502,3.9562742710113525,0.2784443497657776,-1.4621425867080688,1.0265976190567017,2.329263687133789
84,26072,26069,0.031773924827575684,0.00391025235876441,1.0553439855575562,6.083016872406006,-4.199541091918945,1.2323330640792847,1.7731128931045532,3.956587314605713,0.2785909175872803,-1.3977919816970825,1.1332483291625977,2.3469016551971436
85,26082,26079,0.022704094648361206,-0.06605269759893417,0.9970482587814331,1.6356691122055054,3.2996106147766113,0.8005216717720032,1.77374267578125,3.9572153091430664,0.27877557277679443,-1.4049631357192993,1.1712639331817627,2.354990243911743
86,26092,26089,-0.029554348438978195,0.11033051460981369,1.0656862258911133,-3.6997475624084473,2.3181843757629395,0.7623000144958496,1.7748066186904907,3.9577929973602295,0.2789604961872101,-1.4825429916381836,1.1256541013717651,2.348432779312134
87,26102,26099,-0.07557746767997742,0.01412058062851429,1.1288882493972778,-6.007518291473389,0.5749666094779968,0.8986028432846069,1.775192141532898,3.957858085632324,0.28187674283981323,-1.4913663864135742,1.084335207939148,2.3627963066101074
88,26112,26109,-0.0246866624802351,0.027275145053863525,1.0709360837936401,-8.011138916015625,3.519266128540039,1.3392679691314697,1.776452660560608,3.959117889404297,0.2823313772678375,-1.5659810304641724,1.0006486177444458,2.3657782077789307
89,26122,26119,0.005818172823637724,-0.04887060448527336,1.0171329975128174,-6.7670159339904785,0.2527168393135071,1.532616376876831,1.7770153284072876,3.9607908725738525,0.2829786539077759,-1.5619173049926758,0.9119512438774109,2.380174160003662
90,26132,26129,0.016243254765868187,-0.053652871400117874,1.0437190532684326,-3.537186861038208,-1.5995818376541138,0.6856440305709839,1.7770944833755493,3.9604744911193848,0.28474926948547363,-1.5008918046951294,0.9384583234786987,2.418616533279419
91,26142,26139,-0.0070321932435035706,-0.07868636399507523,1.0260112285614014,-0.5641994476318359,-4.863757610321045,0.7247507572174072,1.7791754007339478,3.961468458175659,0.28544700145721436,-1.5480537414550781,0.9281400442123413,2.41286039352417
92,26152,26149,0.013746695592999458,-0.05284840241074562,1.000234842300415,1.3160761594772339,-6.5805487632751465,1.232439398765564,1.7802734375,3.9614806175231934,0.2861541211605072,-1.536726713180542,0.9590175151824951,2.4188220500946045
93,26162,26159,-0.012120530940592289,0.012735405005514622,1.018409013748169,1.7736389636993408,-7.458512306213379,0.3479976952075958,1.7815563678741455,3.962796211242676,0.2895679771900177,-1.4239027500152588,1.0049229860305786,2.4401910305023193
94,26172,26169,-0.0035154824145138264,0.026158899068832397,0.9686321020126343,-0.38692575693130493,-3.8160648345947266,-0.06530571728944778,1.7823048830032349,3.963108777999878,0.29054293036460876,-1.377753496170044,1.0279371738433838,2.4448447227478027
95,26182,26179,-0.02900521829724312,0.04644512012600899,0.9560375809669495,-3.8689870834350586,-1.790423035621643,0.42239436507225037,1.7841843366622925,3.9633231163024902,0.29137274622917175,-1.432678461074829,1.0018903017044067,2.4290964603424072
96,26192,26189,0.02517595700919628,0.008226986043155193,0.941328763961792,-6.739953517913818,-6.160376071929932,0.8824830651283264,1.7864162921905518,3.9638891220092773,0.2920134961605072,-1.5430086851119995,0.9334635734558105,2.4018869400024414
97,26202,26199,0.005667265970259905,-0.020902927964925766,1.0577359199523926,-7.544837474822998,-10.170181274414062,1.0246080160140991,1.7882335186004639,3.9646849632263184,0.2944927215576172,-1.4415090084075928,0.826291024684906,2.401918411254883
98,26212,26209,0.02491576038300991,-0.03600779175758362,0.9845888614654541,-7.523312568664551,-11.638236045837402,1.1297320127487183,1.7888671159744263,3.9670727252960205,0.29569533467292786,-1.1587289571762085,0.7079353332519531,2.429725408554077
99,26222,26219,-0.026735249906778336,0.0848875343799591,0.9733540415763855,-5.957373142242432,-7.6795477867126465,0.20656126737594604,1.7902575731277466,3.9675488471984863,0.2965908944606781,-1.1052724123001099,0.6026274561882019,2.4194066524505615
100,26232,26229,0.016369568184018135,0.17922231554985046,0.8804870843887329,-3.5113608837127686,-12.325092315673828,1.7321650981903076,1.7925152778625488,3.9662528038024902,0.29864850640296936,-1.1106840372085571,0.758544921875,2.458252191543579
101,26242,26239,-0.02388487569987774,0.06022907793521881,1.000068187713623,-3.747443437576294,-10.819625854492188,0.7997467517852783,1.7931671142578125,3.9670839309692383,0.29969149827957153,-0.9322419166564941,0.624076247215271,2.45558500289917
102,26252,26249,-0.0454697348177433,-0.017772551625967026,1.0766063928604126,-3.4537622928619385,-15.314661026000977,0.6441757082939148,1.7933127880096436,3.9671478271484375,0.3007097840309143,-0.6825777292251587,0.5727702379226685,2.4755101203918457
103,26262,26259,-0.06703850626945496,0.031236818060278893,1.0694329738616943,-3.296663761138916,-10.438063621520996,1.0500872135162354,1.796345591545105,3.9670653343200684,0.3019755184650421,-0.7454484701156616,0.598958432674408,2.4710497856140137
104,26272,26269,-0.066252700984478,0.1102803498506546,1.056220531463623,-3.158696413040161,-4.412802696228027,1.1176962852478027,1.7978650331497192,3.968679189682007,0.3031425476074219,-0.5670201182365417,0.5438624024391174,2.493354558944702
105,26282,26279,0.013534605503082275,0.09865212440490723,0.9188939332962036,-3.915729284286499,0.36063164472579956,0.605503261089325,1.7991597652435303,3.9694674015045166,0.30421996116638184,-0.5317198038101196,0.48795855045318604,2.4982550144195557
106,26292,26289,0.07852549850940704,0.03942190483212471,0.9231150150299072,-4.793073654174805,-4.524538993835449,0.790368914604187,1.801962971687317,3.9707722663879395,0.305858314037323,-0.5163493156433105,0.4907061755657196,2.513740062713623
107,26302,26299,0.032196320593357086,0.0011280708713456988,0.9428970813751221,-5.909417629241943,-2.64066481590271,0.4454306364059448,1.8022942543029785,3.9708452224731445,0.3069726228713989,-0.39039063453674316,0.40117621421813965,2.524531364440918
108,26312,26309,0.05253938212990761,-0.11238786578178406,0.960611879825592,-6.100155830383301,-6.481510639190674,0.23846973478794098,1.8037248849868774,3.9726877212524414,0.30803266167640686,-0.2708263099193573,0.3008876144886017,2.528738021850586
109,26322,26319,0.06756570935249329,-0.025557974353432655,0.940203845500946,-4.357349872589111,-7.615907192230225,-0.0067968787625432014,1.805728554725647,3.9736125469207764,0.3090128004550934,-0.2756185233592987,0.28369149565696716,2.52510142326355
110,26332,26329,0.044496335089206696,-0.007709770929068327,0.9492112994194031,-2.4523398876190186,-6.510563373565674,0.6930179595947266,1.8060626983642578,3.973555326461792,0.30859604477882385,-0.11921403557062149,0.29154667258262634,2.5393872261047363
111,26342,26339,0.1016082689166069,-0.031054014340043068,0.9297789931297302,-2.283806085586548,-7.85540246963501,0.007237917277961969,1.808535099029541,3.975861072540283,0.30941706895828247,-0.043910764157772064,0.239928737282753,2.541412353515625
112,26352,26349,0.1501859873533249,-0.1514727771282196,0.911231279373169,-1.8666224479675293,-5.965154647827148,-0.41031593084335327,1.810336709022522,3.975543737411499,0.31007176637649536,-0.055589936673641205,0.1943288892507553,2.5288400650024414
113,26362,26359,0.1657029092311859,-0.20718057453632355,0.9222504496574402,-3.298248291015625,-2.8983566761016846,-1.4257208108901978,1.8109779357910156,3.9765071868896484,0.31260576844215393,0.13088838756084442,0.21758492290973663,2.534395217895508
114,26372,26369,0.06784394383430481,0.040342193096876144,0.9468972086906433,-2.6707119941711426,-3.0360054969787598,-1.803585171699524,1.8132367134094238,3.9772567749023438,0.3132905066013336,0.11444985866546631,0.15346531569957733,2.51530122756958
115,26382,26379,-0.0739346444606781,0.02144230343401432,0.9763966798782349,-3.0546133518218994,-1.3626413345336914,-1.9233118295669556,1.8146337270736694,3.977972984313965,0.3138524889945984,0.08657822012901306,0.09833234548568726,2.496826410293579
116,26392,26389,-0.13001473248004913,0.035184346139431,0.9550265669822693,-3.828552007675171,0.17726634442806244,-1.9419976472854614,1.8152332305908203,3.9781408309936523,0.3130262792110443,0.18739978969097137,0.03681822121143341,2.485154628753662
117,26402,26399,-0.060032136738300323,0.03442348912358284,0.9308493137359619,-2.9688720703125,2.1836001873016357,-1.6313576698303223,1.8151588439941406,3.9762234687805176,0.3135083019733429,0.2573752999305725,0.13031840324401855,2.4710168838500977
118,26412,26409,-0.01839430071413517,0.029882332310080528,0.9900931715965271,-1.979156732559204,2.486506700515747,-1.7842109203338623,1.8185590505599976,3.9766688346862793,0.3138783872127533,0.07546263933181763,0.07412450015544891,2.438455581665039
119,26422,26419,0.015179082751274109,0.049035873264074326,1.015569806098938,-2.1952550411224365,3.627166271209717,-2.1548824310302734,1.818819284439087,3.9762065410614014,0.31433019042015076,0.12317042052745819,0.03154680132865906,2.4229397773742676
120,26432,26429,-0.0031859399750828743,0.05627774819731712,1.0299973487854004,-2.547724723815918,4.432981491088867,-2.6172702312469482,1.8211861848831177,3.9770538806915283,0.3127279579639435,-0.05588453635573387,-0.009690452367067337,2.3991317749023438
121,26442,26439,0.014872082509100437,-0.002904324559494853,0.9427630305290222,-1.7996654510498047,-1.5540523529052734,-1.9771208763122559,1.8223780393600464,3.9783754348754883,0.31303882598876953,-0.05519508197903633,-0.055514659732580185,2.3819169998168945
122,26452,26449,-0.0004501693765632808,-0.0627196654677391,0.9937277436256409,-3.263272285461426,3.9930410385131836,-3.4700303077697754,1.8222488164901733,3.9781880378723145,0.31341689825057983,0.07791416347026825,-0.09253440052270889,2.3587000370025635
123,26462,26459,0.01596985198557377,0.03230202943086624,0.9025705456733704,-1.7256457805633545,-1.0526305437088013,-2.7393155097961426,1.8252143859863281,3.9768295288085938,0.3151222765445709,-0.039014317095279694,0.019312139600515366,2.3227860927581787
124,26472,26469,0.02509867399930954,-0.03564083203673363,0.9474952220916748,-0.7996017336845398,-4.715993404388428,-2.306061267852783,1.8256665468215942,3.9767093658447266,0.3154490292072296,0.056695494800806046,-0.009115565568208694,2.296967029571533
125,26482,26479,0.01668861322104931,-0.09595352411270142,1.007644772529602,-0.35636502504348755,-7.20197868347168,-2.3178513050079346,1.8253228664398193,3.976341962814331,0.31575679779052734,0.2570369243621826,0.04735065624117851,2.269359827041626
126,26492,26489,-0.01042878720909357,-0.07110142707824707,1.01553213596344,-1.2946668863296509,-3.837747573852539,-2.474273204803467,1.8261393308639526,3.976208209991455,0.3146617114543915,0.29746314883232117,0.014384262263774872,2.2470309734344482
127,26502,26499,0.02811075747013092,-0.022034505382180214,0.9276439547538757,-3.4276154041290283,4.4792938232421875,-3.024278163909912,1.8272953033447266,3.976393938064575,0.31477317214012146,0.26230576634407043,-0.04225321486592293,2.2221570014953613
128,26512,26509,0.03184172138571739,0.0761750340461731,0.8810853362083435,-4.735378742218018,6.0240349769592285,-2.5137779712677,1.8284204006195068,3.9766173362731934,0.314911812543869,0.24311509728431702,-0.1274782419204712,2.1994786262512207
129,26522,26519,0.07229474931955338,0.0058110966347157955,0.8956416249275208,-4.602193832397461,0.9308238625526428,-1.7963638305664062,1.8295851945877075,3.9761502742767334,0.3149125277996063,0.21217253804206848,-0.1438499242067337,2.177499294281006
130,26532,26529,-0.03313305601477623,0.06279484927654266,0.9524829983711243,-4.207180976867676,1.478839635848999,-1.4072586297988892,1.8304342031478882,3.977013111114502,0.31482821702957153,0.2162913680076599,-0.23106533288955688,2.170511245727539
131,26542,26539,-0.026752425357699394,0.024690864607691765,0.9813573956489563,-2.543384075164795,0.36923450231552124,-0.9346593022346497,1.8305859565734863,3.976895332336426,0.3146964907646179,0.28214746713638306,-0.22336293756961823,2.1537840366363525
132,26552,26549,0.00047075431211851537,-0.1037152037024498,1.0133146047592163,-0.6565815210342407,3.9230611324310303,-1.4289560317993164,1.8313045501708984,3.9767649173736572,0.3145139813423157,0.25778064131736755,-0.2699304223060608,2.1449310779571533
133,26562,26559,0.03304920345544815,-0.053293704986572266,0.9690153002738953,0.5998727083206177,8.317623138427734,-1.4895821809768677,1.8315606117248535,3.977365493774414,0.31457391381263733,0.2679159343242645,-0.2873593866825104,2.1389734745025635
134,26572,26569,0.021166108548641205,0.008757823146879673,0.9197472333908081,1.2673413753509521,4.2981367111206055,-0.3996036648750305,1.8329731225967407,3.976209878921509,0.3143262267112732,0.0984346866607666,-0.20344384014606476,2.1241719722747803
135,26582,26579,-0.004349670838564634,-0.03577132150530815,0.9716615676879883,0.012868102639913559,6.42943811416626,0.42789095640182495,1.83307683467865,3.9760096073150635,0.31418997049331665,0.24042636156082153,-0.20824919641017914,2.1189305782318115
136,26592,26589,0.015380882658064365,-0.07157009094953537,1.0560228824615479,-0.41936397552490234,0.8686203956604004,0.43839195370674133,1.8329498767852783,3.9759128093719482,0.31465944647789,0.23685213923454285,-0.2110828161239624,2.110844135284424
137,26602,26599,0.01889905147254467,-0.04156854748725891,1.0732505321502686,-0.2795794606208801,1.833024024963379,0.3872215449810028,1.8345787525177002,3.9758756160736084,0.31444695591926575,0.1881098449230194,-0.22764544188976288,2.117936611175537
138,26612,26609,-0.04721572622656822,0.10008547455072403,1.0525754690170288,-1.3120784759521484,8.485318183898926,0.14416185021400452,1.8367912769317627,3.976078510284424,0.3142758011817932,0.0636950358748436,-0.25151383876800537,2.13004994392395
139,26622,26619,-0.008584351278841496,0.11982981860637665,0.9542080163955688,-2.5940494537353516,5.581997394561768,0.9397395253181458,1.8358172178268433,3.975465774536133,0.31429240107536316,0.11807864904403687,-0.2870202958583832,2.1304469108581543
140,26632,26629,0.008807530626654625,0.024722175672650337,0.9969779849052429,-2.715407133102417,5.315157413482666,0.9082728624343872,1.83633291721344,3.9759647846221924,0.31517839431762695,0.08978712558746338,-0.3308592140674591,2.138788938522339
141,26642,26639,-0.025259926915168762,-0.020056068897247314,1.0995302200317383,-0.6094556450843811,2.626429557800293,1.2818727493286133,1.8376190662384033,3.977506637573242,0.3152023255825043,0.05643065273761749,-0.3715916574001312,2.165882110595703
142,26652,26649,-0.07065119594335556,-0.011133313179016113,1.0657427310943604,0.6927431225776672,5.783575057983398,1.0278913974761963,1.8378336429595947,3.9783735275268555,0.3152658939361572,0.04761958494782448,-0.3846322298049927,2.175518751144409
143,26662,26659,0.032378826290369034,0.0320795401930809,0.9993017315864563,2.326449394226074,10.29277515411377,0.41197481751441956,1.839125633239746,3.9799859523773193,0.31461140513420105,0.007414506748318672,-0.37446677684783936,2.205853223800659
144,26672,26669,0.0158928781747818,0.09134387969970703,0.9863536953926086,4.508725643157959,1.3816620111465454,1.2519842386245728,1.8395092487335205,3.979294538497925,0.3146938681602478,-0.07980727404356003,-0.3291071057319641,2.2098820209503174
145,26682,26679,0.034965794533491135,-0.16938412189483643,1.0065231323242188,4.090132236480713,2.053210735321045,1.0864437818527222,1.839935064315796,3.9794375896453857,0.3147980570793152,-0.09487159550189972,-0.2552472651004791,2.2218496799468994
146,26692,26689,-0.007411300670355558,-0.1242595836520195,1.0452123880386353,2.4223947525024414,7.583448886871338,0.7229062914848328,1.8405483961105347,3.9793221950531006,0.3159477114677429,-0.19366154074668884,-0.26383697986602783,2.230823516845703
147,26702,26699,-0.01974855363368988,-0.012108814902603626,1.0435434579849243,0.5960186719894409,7.482154846191406,0.6475839614868164,1.8406428098678589,3.979095697402954,0.31615298986434937,-0.25819188356399536,-0.2210550755262375,2.2363181114196777
148,26712,26709,0.012768923304975033,0.07238670438528061,0.9841515421867371,-2.586082935333252,8.51321792602539,0.7822638154029846,1.841406226158142,3.978998899459839,0.31642764806747437,-0.33058786392211914,-0.2145613431930542,2.2414960861206055
149,26722,26719,0.06083841994404793,-0.0803958848118782,0.9406635761260986,-3.123624324798584,3.022606611251831,0.8475898504257202,1.8418846130371094,3.979630708694458,0.3133881688117981,-0.3999885618686676,-0.251158207654953,2.2538645267486572
150,26732,26729,-0.035812411457300186,-0.13109661638736725,1.0622658729553223,-0.68253093957901,-1.6339367628097534,0.9197864532470703,1.8440512418746948,3.9806861877441406,0.31332889199256897,-0.5613921880722046,-0.37143880128860474,2.268552780151367
151,26742,26739,-0.00952592957764864,-0.14970484375953674,0.9747675657272339,0.7601743340492249,1.4547091722488403,0.5822648406028748,1.8436789512634277,3.979682207107544,0.3133942484855652,-0.4951849579811096,-0.37101197242736816,2.2712717056274414
152,26752,26749,-0.024723682552576065,-0.01048047561198473,1.000204086303711,2.512838840484619,1.0385626554489136,0.7521573901176453,1.8434462547302246,3.979964017868042,0.3135215938091278,-0.4520229697227478,-0.34564289450645447,2.2741713523864746
153,26762,26759,-0.07617630064487457,0.09244921058416367,0.9968366026878357,5.361690521240234,0.33796456456184387,0.2718717157840729,1.8436921834945679,3.979609727859497,0.314142107963562,-0.3799952566623688,-0.2853185832500458,2.2755913734436035
154,26772,26769,-0.012834574095904827,-0.10814718902111053,1.009228229522705,6.246943950653076,1.6115171909332275,0.41373211145401,1.8446626663208008,3.979245185852051,0.3141983151435852,-0.4050435423851013,-0.18618880212306976,2.2823612689971924
155,26782,26779,0.02187129482626915,-0.06286954879760742,0.9814068078994751,5.6720147132873535,2.1718788146972656,0.08394847810268402,1.8456476926803589,3.9799530506134033,0.3142434358596802,-0.45154479146003723,-0.152669295668602,2.2944791316986084
156,26792,26789,-0.02342136763036251,0.0100267194211483,1.037091851234436,3.76861572265625,2.5805602073669434,-0.07599104940891266,1.8464481830596924,3.9805490970611572,0.3152344524860382,-0.5092750787734985,-0.12616178393363953,2.29827880859375
157,26802,26799,0.039766114205121994,-0.015637464821338654,0.978268027305603,0.7645350098609924,3.554894208908081,-0.23039674758911133,1.847152829170227,3.9803223609924316,0.31540486216545105,-0.4939021170139313,-0.05360580235719681,2.2953953742980957
158,26812,26809,-0.05141603201627731,0.09696301072835922,1.0199623107910156,-1.760932445526123,2.9731857776641846,-0.26775988936424255,1.8472222089767456,3.9819703102111816,0.31557801365852356,-0.4688106179237366,-0.11259136348962784,2.2990574836730957
159,26822,26819,-0.007466637995094061,-0.00881901290267706,1.0111548900604248,-2.0274527072906494,3.3045098781585693,-0.1775728464126587,1.8474681377410889,3.982039451599121,0.31682801246643066,-0.45732811093330383,-0.12391280382871628,2.2950704097747803
160,26832,26829,0.0006383261061273515,-0.012274914421141148,1.0062086582183838,-1.4452219009399414,3.533428430557251,-0.32145416736602783,1.8490670919418335,3.9834187030792236,0.31704041361808777,-0.5334811210632324,-0.14606907963752747,2.312701463699341
161,26842,26839,0.028538938611745834,-0.02323342300951481,0.998290479183197,-0.05467137694358826,2.6940629482269287,-0.3212226629257202,1.8498635292053223,3.983279228210449,0.31723156571388245,-0.6062213182449341,-0.15308792889118195,2.319455623626709
162,26852,26849,0.005715782288461924,-0.021093634888529778,1.0104626417160034,1.773278832435608,2.516286611557007,0.07303136587142944,1.8510631322860718,3.9836909770965576,0.31742095947265625,-0.6672845482826233,-0.13645990192890167,2.317047357559204
163,26862,26859,-0.007659707684069872,0.0640401840209961,0.9967372417449951,3.297116994857788,1.8318617343902588,-0.16888810694217682,1.8507213592529297,3.984330415725708,0.3154667317867279,-0.647243082523346,-0.0939035564661026,2.328601598739624
164,26872,26869,-0.006422590464353561,0.05165818706154823,1.0321078300476074,4.179809093475342,2.2281129360198975,-0.2553228735923767,1.8507269620895386,3.983759641647339,0.31560665369033813,-0.6054458618164062,-0.033152662217617035,2.3276093006134033
165,26882,26879,0.0366746187210083,-0.07161649316549301,0.9349218010902405,3.768496513366699,1.163659930229187,0.7725392580032349,1.8529514074325562,3.9835574626922607,0.3156662881374359,-0.7326107621192932,0.042243387550115585,2.332075834274292
166,26892,26889,0.06365104764699936,-0.06522509455680847,0.9660345911979675,2.1709039211273193,-0.4362861216068268,0.6797642707824707,1.8546838760375977,3.9850683212280273,0.31439208984375,-0.8315677046775818,-0.04668333753943443,2.332736015319824
167,26902,26899,0.024334808811545372,-0.060666535049676895,1.0305999517440796,0.7726356983184814,-2.4145796298980713,0.188104510307312,1.8554047346115112,3.9856603145599365,0.31435853242874146,-0.8205646872520447,0.011319480836391449,2.350579261779785
168,26912,26909,0.040103476494550705,-0.08729803562164307,0.9526219964027405,-0.3862367570400238,-0.27006012201309204,-0.4472741186618805,1.85739266872406,3.98626446723938,0.31418636441230774,-0.9346616864204407,0.039012517780065536,2.3643031120300293
169,26922,26919,-0.036799173802137375,0.002113968599587679,0.9735932350158691,-0.654930591583252,-1.6865456104278564,-0.0074064722284674644,1.8578838109970093,3.986097812652588,0.31410494446754456,-0.8841204047203064,0.04484005644917488,2.36228084564209
170,26932,26929,0.024302517995238304,-0.063923679292202,0.9421154260635376,-1.1555513143539429,-4.953023910522461,0.23603852093219757,1.8581887483596802,3.9860434532165527,0.3141486644744873,-0.7351950407028198,0.04621061682701111,2.3595681190490723
171,26942,26939,0.024758445098996162,-0.06901609897613525,1.040434718132019,0.8558710813522339,-8.252172470092773,-0.014344208873808384,1.8608062267303467,3.986081838607788,0.313881516456604,-0.8700759410858154,0.044298671185970306,2.364086389541626
172,26952,26949,0.012142919935286045,-0.0037759309634566307,1.0571266412734985,1.6050416231155396,-6.308351993560791,-0.6774544715881348,1.8605138063430786,3.986226797103882,0.3146155774593353,-0.636289656162262,0.06370903551578522,2.3690969944000244
173,26962,26959,-0.0281191635876894,0.07522568106651306,0.9955010414123535,0.7957426309585571,-2.9017152786254883,-1.0544309616088867,1.8617855310440063,3.9874091148376465,0.3145589828491211,-0.5941648483276367,0.014298754744231701,2.369774580001831
174,26972,26969,0.0011320142075419426,0.02865864522755146,0.9184748530387878,0.32853594422340393,-2.0344715118408203,-0.638065755367279,1.8616141080856323,3.987945079803467,0.3146267235279083,-0.42758461833000183,-0.037204302847385406,2.3565385341644287
175,26982,26979,-0.011446930468082428,0.043635446578264236,1.056261420249939,0.9300035238265991,-2.3344523906707764,-0.39360806345939636,1.8653464317321777,3.9895119667053223,0.3144969046115875,-0.6011909246444702,-0.010858525522053242,2.379995584487915
176,26992,26989,0.01126014906913042,-0.019480057060718536,1.02064847946167,2.348200798034668,-2.14827036857605,-0.03834153711795807,1.8654578924179077,3.989516258239746,0.3147066831588745,-0.45248308777809143,0.024086857214570045,2.3762993812561035
177,27002,26999,-0.0030905085150152445,-0.040540680289268494,1.0037761926651,1.125895619392395,-0.6120660305023193,-0.19084657728672028,1.8676010370254517,3.9893932342529297,0.3146129548549652,-0.5549346208572388,0.07670337706804276,2.3757967948913574
178,27012,27009,-0.0076380581595003605,0.03743348643183708,0.9996410608291626,-0.16557088494300842,1.8662548065185547,-0.3965391218662262,1.8697091341018677,3.989428997039795,0.31445205211639404,-0.6635391712188721,0.10815583169460297,2.376403570175171
179,27022,27019,0.014880520291626453,0.08985434472560883,1.046998143196106,-0.5525898933410645,-5.091851711273193,0.2123597264289856,1.869841456413269,3.989067792892456,0.3123643100261688,-0.5427963137626648,0.11801628768444061,2.3729028701782227
180,27032,27029,0.02223765105009079,0.01147101167589426,1.0632071495056152,0.8911228775978088,-9.728843688964844,-0.22436723113059998,1.8701086044311523,3.990372896194458,0.3122996687889099,-0.42479854822158813,0.045366592705249786,2.378232955932617
181,27042,27039,-0.033919062465429306,0.023967936635017395,1.037035346031189,0.5288916826248169,-7.230818748474121,-1.1453568935394287,1.87025785446167,3.9901888370513916,0.31232011318206787,-0.2560480237007141,0.06913197040557861,2.366703748703003
182,27052,27049,-0.057639338076114655,0.09707196801900864,0.9611711502075195,-0.803215503692627,-3.5840587615966797,-0.4860639274120331,1.8726588487625122,3.9901113510131836,0.3100789487361908,-0.4232509136199951,0.08572835475206375,2.371904134750366
183,27062,27059,-0.05352926254272461,0.07357510179281235,1.010361909866333,-0.135467529296875,-2.4793741703033447,-0.6626056432723999,1.872422695159912,3.9907665252685547,0.31012824177742004,-0.22408835589885712,0.08798129111528397,2.3951423168182373
184,27072,27069,0.03769763931632042,-0.032603099942207336,0.9753048419952393,0.8834314942359924,1.4755210876464844,-1.3807717561721802,1.874074101448059,3.9911158084869385,0.309901624917984,-0.2915240228176117,0.09611372649669647,2.3820998668670654
185,27082,27079,0.03101244382560253,-0.020778203383088112,0.9914779663085938,0.8810954689979553,-0.09353667497634888,-0.9956912994384766,1.875508427619934,3.991960287094116,0.30978453159332275,-0.2474946677684784,0.11399822682142258,2.394850492477417
186,27092,27089,-0.01746894046664238,0.06756757199764252,0.9370375275611877,1.1778203248977661,-2.086970329284668,-1.1164355278015137,1.8774309158325195,3.9926888942718506,0.31164783239364624,-0.35590118169784546,0.05973358824849129,2.382854461669922
187,27102,27099,-0.06864521652460098,0.06183818727731705,0.9541181921958923,-0.045876987278461456,-4.548266887664795,0.05887136608362198,1.8773268461227417,3.9933526515960693,0.31166109442710876,-0.20072096586227417,0.09040088951587677,2.389606475830078
188,27112,27109,0.03612636402249336,-0.12802034616470337,1.0276697874069214,0.5490483641624451,-7.754591941833496,-0.20005661249160767,1.8777165412902832,3.994844913482666,0.311531662940979,-0.10695119947195053,-0.039396364241838455,2.3856637477874756
189,27122,27119,-0.010598085820674896,-0.12663854658603668,1.0793942213058472,2.8685691356658936,-4.301131248474121,-1.428215742111206,1.8772859573364258,3.9946718215942383,0.3124089539051056,0.08449012041091919,-0.0020725762005895376,2.3849594593048096
190,27132,27129,-0.012267127633094788,-0.10588051378726959,0.9693540334701538,3.0629351139068604,1.6908501386642456,-1.0140342712402344,1.878252387046814,3.994441270828247,0.31240785121917725,0.14885206520557404,0.05989779531955719,2.374253988265991
191,27142,27139,0.03717467933893204,-0.077359639108181,0.9636683464050293,2.4883296489715576,2.8457419872283936,0.22168253362178802,1.8791202306747437,3.9941487312316895,0.31237542629241943,0.13817019760608673,0.12790243327617645,2.3636016845703125
192,27152,27149,0.09146071970462799,-0.16351531445980072,1.02276611328125,2.6292340755462646,2.6096279621124268,0.09007425606250763,1.8807169198989868,3.994750738143921,0.31317925453186035,0.022139180451631546,0.1859179437160492,2.376033067703247
193,27162,27159,0.05637603625655174,-0.14141766726970673,1.0387725830078125,0.3992472290992737,6.365084648132324,-0.8382976055145264,1.8817869424819946,3.995145797729492,0.31313279271125793,-0.09453828632831573,0.162358358502388,2.40627121925354
194,27172,27169,0.0035564375575631857,-0.04818706586956978,0.9949973821640015,-1.1893310546875,5.553840160369873,-0.9691759347915649,1.8832638263702393,3.9974582195281982,0.3132329285144806,-0.08840523660182953,0.11329931765794754,2.402329683303833
195,27182,27179,0.01716271974146366,-0.043561551719903946,0.9707191586494446,-2.4411144256591797,4.381857872009277,-0.7474075555801392,1.8859559297561646,3.9985809326171875,0.31318968534469604,-0.2306613177061081,0.04203728586435318,2.3852295875549316
196,27192,27189,0.03767721354961395,-0.04163499176502228,1.0854676961898804,0.49061983823776245,-2.9440388679504395,-1.543993353843689,1.8860903978347778,3.9984493255615234,0.3164196312427521,-0.17704416811466217,0.03907688334584236,2.3705954551696777
197,27202,27199,-0.00013216423394624144,0.07636530697345734,1.0235509872436523,1.317080020904541,-4.614913463592529,-0.6858429312705994,1.8859031200408936,3.9987332820892334,0.3167785704135895,-0.042488232254981995,0.06926923245191574,2.3598787784576416
198,27212,27209,0.008848137222230434,-0.11032572388648987,1.0730226039886475,2.7798702716827393,-0.8012887835502625,-1.5520448684692383,1.8858109712600708,3.9983952045440674,0.31714415550231934,0.06538119167089462,0.11483032256364822,2.3579437732696533
199,27222,27219,0.036348260939121246,0.004027558956295252,0.9608379006385803,2.773879051208496,-0.4155288636684418,-0.986408531665802,1.8876062631607056,3.999263048171997,0.31429582834243774,0.04461608827114105,0.10416381806135178,2.3499674797058105
200,27232,27229,0.0023067379370331764,0.10511960089206696,1.0731215476989746,3.173388719558716,1.6951308250427246,-0.6983391642570496,1.888152837753296,4.0006232261657715,0.3145269453525543,0.1483333259820938,0.10387258976697922,2.361379623413086
201,27242,27239,0.0029599922709167004,-0.029600903391838074,0.998820960521698,2.334775447845459,4.191110134124756,-0.7158398032188416,1.889546513557434,3.999718189239502,0.31473374366760254,0.05013817548751831,0.25668373703956604,2.347827434539795
202,27252,27249,-0.020321032032370567,-0.04617566615343094,0.9952428936958313,1.140141248703003,7.864688873291016,-1.7230437994003296,1.891409993171692,4.001913547515869,0.3132156729698181,-0.011521343141794205,0.2375887781381607,2.3717639446258545
203,27262,27259,-0.040414635092020035,0.07136768102645874,0.9327976703643799,-1.8691929578781128,7.6924333572387695,-1.8367607593536377,1.8935662508010864,4.002150058746338,0.31322669982910156,-0.18906210362911224,0.269212543964386,2.380131244659424
204,27272,27269,-0.05137228965759277,0.1328776776790619,1.0439146757125854,-2.825894355773926,2.950258731842041,-1.416582465171814,1.8943220376968384,4.003886699676514,0.3133948743343353,-0.19999785721302032,0.17598462104797363,2.367758274078369
205,27282,27279,-0.007389523554593325,0.01058792881667614,1.0272769927978516,-2.772144317626953,-0.7731319069862366,-1.8080620765686035,1.894508719444275,4.0041046142578125,0.3135678768157959,-0.1575625240802765,0.15257707238197327,2.3690295219421387
206,27292,27289,-0.07736779749393463,0.04895241931080818,1.0417263507843018,-1.1612942218780518,-1.2949621677398682,-1.5011651515960693,1.8940870761871338,4.004731178283691,0.3143293857574463,-0.07050884515047073,0.13042588531970978,2.353893518447876
207,27302,27299,-0.1148233413696289,0.12912830710411072,0.994563639163971,-0.04191577434539795,-1.4189820289611816,-1.380825161933899,1.8955450057983398,4.006171703338623,0.3145884573459625,-0.048056479543447495,0.13107089698314667,2.369551181793213
208,27312,27309,-0.057367660105228424,0.08209308981895447,0.9615207314491272,2.1277880668640137,-2.725879669189453,-0.9283456206321716,1.8956029415130615,4.0065999031066895,0.31490176916122437,0.06133868917822838,0.15641778707504272,2.392360210418701
209,27322,27319,-0.05509002506732941,0.08116564899682999,1.0402003526687622,3.156540632247925,0.5876212120056152,-0.7139827013015747,1.898419737815857,4.007767200469971,0.3151170313358307,-0.06451362371444702,0.21300804615020752,2.3784210681915283
210,27332,27329,-0.0029262860771268606,0.00030774116748943925,1.0314257144927979,3.9111244678497314,2.4672024250030518,-0.9417938590049744,1.897900938987732,4.007301330566406,0.31535860896110535,-0.005754505749791861,0.21340176463127136,2.3740861415863037
211,27342,27339,-0.03732616454362869,-0.03643638640642166,0.9387177228927612,2.591311454772949,3.435821533203125,-1.1878206729888916,1.8985675573349,4.008429050445557,0.3155600130558014,-0.047308776527643204,0.14784108102321625,2.355484962463379
212,27352,27349,-0.04023256525397301,0.014425545930862427,0.9557790160179138,0.21099556982517242,3.646101713180542,-1.5857586860656738,1.899566411972046,4.008892059326172,0.31445929408073425,-0.1070721223950386,0.21201837062835693,2.3566408157348633
213,27362,27359,-0.04610645771026611,0.08085012435913086,1.0187243223190308,-0.8799880743026733,4.96207857131958,-1.5177406072616577,1.9009510278701782,4.008918285369873,0.31447651982307434,-0.24093864858150482,0.23665350675582886,2.342435598373413
214,27372,27369,0.004279709421098232,-0.007145536132156849,0.9632481336593628,-0.7489112615585327,1.6292774677276611,-1.075863003730774,1.901909589767456,4.0089006423950195,0.31459861993789673,-0.22986599802970886,0.2448917031288147,2.3272080421447754
215,27382,27379,-0.04562416300177574,0.0506027415394783,1.0422255992889404,-0.3928769528865814,1.8206400871276855,-0.9345608949661255,1.9027113914489746,4.009068012237549,0.31547120213508606,-0.25789493322372437,0.25358113646507263,2.3092591762542725
216,27392,27389,0.0023102418053895235,-0.001026573358103633,1.0057734251022339,0.9226137399673462,-1.743374228477478,-2.126646041870117,1.9028533697128296,4.00904655456543,0.3156365156173706,-0.19733554124832153,0.26749691367149353,2.300391912460327
217,27402,27399,-0.039333947002887726,0.0417943075299263,0.9729424715042114,0.3533627390861511,-3.6435046195983887,-1.5645132064819336,1.903472661972046,4.009396076202393,0.31574636697769165,-0.170902281999588,0.29438185691833496,2.293405771255493
218,27412,27409,-0.04596283286809921,0.09745946526527405,1.0420559644699097,0.20561006665229797,-1.0778567790985107,-1.8580142259597778,1.90463125705719,4.009591102600098,0.3158296048641205,-0.19815665483474731,0.3129826486110687,2.3007919788360596
219,27422,27419,0.024580564349889755,-0.011582124046981335,0.9847701787948608,0.6387618780136108,-1.8646475076675415,-2.092991352081299,1.906791090965271,4.011568069458008,0.31705063581466675,-0.2533753514289856,0.25212863087654114,2.2935712337493896
220,27432,27429,-0.012972291558980942,0.032480478286743164,1.0141185522079468,0.033712223172187805,-0.36871740221977234,-2.909135580062866,1.9069557189941406,4.01287841796875,0.3173748850822449,-0.145871102809906,0.20072002708911896,2.3029072284698486
221,27442,27439,-0.06860527396202087,0.002979688113555312,1.0194505453109741,0.5263814330101013,1.326840877532959,-2.4766762256622314,1.9069839715957642,4.013184070587158,0.317620187997818,-0.06567136198282242,0.22806517779827118,2.270411968231201
222,27452,27449,0.01408928819000721,-0.029287392273545265,0.9974759221076965,1.3774299621582031,-1.325074553489685,-2.7919762134552,1.9079512357711792,4.013437271118164,0.3189786970615387,-0.1210968866944313,0.25136321783065796,2.2537083625793457
223,27462,27459,-0.00016898533795028925,0.08475151658058167,1.019019365310669,1.9513797760009766,0.26413461565971375,-2.2988388538360596,1.9077904224395752,4.013038635253906,0.31930631399154663,-0.05155608430504799,0.28985467553138733,2.2204108238220215
224,27472,27469,0.025239182636141777,0.10693687200546265,1.0149632692337036,2.0028114318847656,2.9386415481567383,-2.601349353790283,1.9093496799468994,4.014345169067383,0.31953075528144836,-0.1609976887702942,0.25773346424102783,2.2137551307678223
225,27482,27479,0.022973375394940376,0.0068735466338694096,0.9739158153533936,1.491272211074829,3.5617167949676514,-2.4180147647857666,1.9102977514266968,4.014287948608398,0.3167043626308441,-0.21577522158622742,0.30793559551239014,2.179436445236206
226,27492,27489,-0.05995256081223488,-0.04147002473473549,1.0331518650054932,1.722739577293396,3.586808204650879,-2.4617879390716553,1.9111229181289673,4.014094829559326,0.31687378883361816,-0.18752801418304443,0.3510671854019165,2.16349720954895
227,27502,27499,0.03031274303793907,-0.037479616701602936,0.963975727558136,1.389662265777588,0.10926739126443863,-2.5927181243896484,1.9104864597320557,4.01447057723999,0.3169651925563812,-0.16524742543697357,0.3873627781867981,2.154689311981201
228,27512,27509,-0.006260661408305168,0.08296408504247665,0.9914912581443787,0.23899029195308685,-0.86100172996521,-2.3695621490478516,1.9125815629959106,4.015693664550781,0.3169727921485901,-0.3209005296230316,0.2633092999458313,2.126798152923584
229,27522,27519,0.016201363876461983,0.1277845948934555,0.9974691867828369,-0.635339081287384,1.17043936252594,-1.8704414367675781,1.9126276969909668,4.016150951385498,0.3174722194671631,-0.23913350701332092,0.28479817509651184,2.1191322803497314
230,27532,27529,0.029521211981773376,0.0537722148001194,0.9842462539672852,-0.26028671860694885,1.3907734155654907,-2.0396370887756348,1.9149258136749268,4.016119003295898,0.3174484372138977,-0.4116247296333313,0.29294028878211975,2.1046271324157715
231,27542,27539,0.0017947133164852858,-0.0026248639915138483,1.007028341293335,1.2703447341918945,-3.209167003631592,-2.4773600101470947,1.9150792360305786,4.017171859741211,0.3176124691963196,-0.34072035551071167,0.23354606330394745,2.0863375663757324
232,27552,27549,-0.041970137506723404,-0.0336320586502552,1.0140337944030762,2.927807331085205,-5.760255813598633,-1.8669792413711548,1.9159644842147827,4.017132759094238,0.3185780644416809,-0.2919035255908966,0.2817038595676422,2.0591068267822266
233,27562,27559,-0.027596337720751762,0.038295719772577286,0.9979889392852783,3.009685754776001,-3.6500582695007324,-1.2739893198013306,1.9155938625335693,4.017215728759766,0.318822979927063,-0.13626493513584137,0.3496714234352112,2.051802158355713
234,27572,27569,0.015612109564244747,0.1117093563079834,0.9942159652709961,2.1546812057495117,-0.20683203637599945,-0.8940648436546326,1.9183710813522339,4.019054889678955,0.31884169578552246,-0.31508713960647583,0.26659122109413147,2.046072244644165
235,27582,27579,0.0025342232547700405,-0.021732710301876068,0.9799162149429321,1.3041317462921143,0.32404810190200806,-0.8122138977050781,1.9184834957122803,4.018693447113037,0.32083335518836975,-0.21787573397159576,0.3267040252685547,2.044006586074829
236,27592,27589,-0.02476455084979534,-0.1876722276210785,0.9900093674659729,1.7633072137832642,0.5841564536094666,-0.47284775972366333,1.9199138879776,4.019526481628418,0.32110410928726196,-0.2165609747171402,0.3697594106197357,2.046940326690674
237,27602,27599,-0.016093632206320763,-0.07813923805952072,1.0126707553863525,0.8918924927711487,1.3774865865707397,-0.5688654780387878,1.9201347827911377,4.019253730773926,0.3214593529701233,-0.12722913920879364,0.41733211278915405,2.0353267192840576
238,27612,27609,0.03777695074677467,-0.02847636118531227,0.9738343954086304,-0.48525139689445496,1.4371401071548462,-0.6917129755020142,1.9227066040039062,4.018540382385254,0.3215705156326294,-0.30040767788887024,0.5212129354476929,2.023099899291992
239,27622,27619,-0.05450640246272087,0.12164924293756485,0.9891990423202515,-1.2364377975463867,1.2264208793640137,-0.5946083068847656,1.923250675201416,4.019045829772949,0.31654590368270874,-0.2755095660686493,0.5154100060462952,2.0317161083221436
