,timestamp_start,timestamp_end,acc.x,acc.y,acc.z,gyro.x,gyro.y,gyro.z,stateEstimate.x,stateEstimate.y,stateEstimate.z,stabilizer.pitch,stabilizer.roll,stabilizer.yaw
0,23078,23077,0.01417671237140894,-0.02263532020151615,1.016048550605774,7.984626293182373,-14.621114730834961,3.556009292602539,2.018378973007202,4.016994476318359,0.16868381202220917,1.0063002109527588,-0.38848647475242615,3.2478394508361816
1,23088,23087,0.008944434113800526,0.07474715262651443,0.9899999499320984,8.527817726135254,-12.316293716430664,4.588982582092285,2.017134189605713,4.0178327560424805,0.17018789052963257,1.3346771001815796,-0.42983657121658325,3.3108654022216797
2,23098,23097,0.009995639324188232,0.14977756142616272,1.0552928447723389,6.923556804656982,-3.638136625289917,4.9742560386657715,2.0161290168762207,4.017385959625244,0.17146827280521393,1.4796690940856934,0.016713619232177734,3.300917148590088
3,23108,23107,-0.024659596383571625,0.02447466552257538,1.094087839126587,0.6822307109832764,6.596680164337158,4.9212799072265625,2.016649007797241,4.015835762023926,0.17339304089546204,1.5083954334259033,0.06900493055582047,3.351959228515625
4,23118,23117,-0.036239951848983765,-0.007805167231708765,1.095015048980713,-5.959027290344238,16.573083877563477,4.781632423400879,2.017719030380249,4.013723373413086,0.17504212260246277,1.1696339845657349,0.14989718794822693,3.3817121982574463
5,23128,23127,-0.009892483241856098,0.1278473138809204,1.0175381898880005,-12.682001113891602,21.981027603149414,5.060708522796631,2.0174691677093506,4.014500617980957,0.17728911340236664,1.064516305923462,-0.07770455628633499,3.4610002040863037
6,23138,23137,-0.00283258780837059,0.13917003571987152,1.0196001529693604,-20.30742645263672,21.756195068359375,4.33314323425293,2.0158531665802,4.014896869659424,0.17764201760292053,0.8271811604499817,-0.05381722003221512,3.482081413269043
7,23148,23147,-0.019847892224788666,0.04673587530851364,1.0882177352905273,-21.85249137878418,14.174650192260742,3.997556447982788,2.0153615474700928,4.013144493103027,0.17952580749988556,0.6461429595947266,-0.5004892349243164,3.561293601989746
8,23158,23157,-0.03244836628437042,0.019572388380765915,1.0601524114608765,-16.148561477661133,6.321502685546875,4.341101169586182,2.0136663913726807,4.014303207397461,0.1817295253276825,0.8215221166610718,-0.8422406911849976,3.6319265365600586
9,23168,23167,0.02282208763062954,-0.008396709337830544,1.061563491821289,-8.36378002166748,1.9828667640686035,4.293850898742676,2.011446475982666,4.014853477478027,0.18093548715114594,0.8237144351005554,-0.9803109765052795,3.6757795810699463
10,23178,23177,-0.00019241665722802281,-0.1035415306687355,1.0945806503295898,0.8499914407730103,0.4937724471092224,3.8726258277893066,2.0110361576080322,4.014918327331543,0.1826731264591217,0.7941141128540039,-1.044426441192627,3.7157230377197266
11,23188,23187,-0.01962525025010109,-0.12549108266830444,1.0617233514785767,9.883740425109863,0.868975043296814,4.469841003417969,2.010317325592041,4.015619277954102,0.18462571501731873,0.7906719446182251,-1.004637598991394,3.756945848464966
12,23198,23197,0.03589358925819397,-0.028354430571198463,0.9429401159286499,15.69111156463623,5.745973587036133,4.579324245452881,2.0099010467529297,4.015117168426514,0.18657943606376648,0.7543957233428955,-0.8111721873283386,3.7955474853515625
13,23208,23207,0.031004931777715683,0.023678425699472427,0.9699559211730957,14.335152626037598,12.55540943145752,4.283099174499512,2.0103297233581543,4.016086101531982,0.18771257996559143,0.5091074705123901,-0.650618314743042,3.845982789993286
14,23218,23217,0.005221485160291195,-0.07306954264640808,1.1043455600738525,9.985589027404785,12.936152458190918,4.292564868927002,2.01098895072937,4.015738010406494,0.18982726335525513,0.7313936948776245,-0.6825318336486816,3.885226011276245
15,23228,23227,0.01808432675898075,-0.017832284793257713,1.0212156772613525,5.859244346618652,14.056023597717285,3.8917629718780518,2.007492780685425,4.0174241065979,0.19168730080127716,0.4002699553966522,-0.5402955412864685,3.9306700229644775
16,23238,23237,0.0007951556472107768,0.11731032282114029,0.989925742149353,0.4162580966949463,16.82900047302246,3.126850128173828,2.0073156356811523,4.016037464141846,0.19316864013671875,0.19352908432483673,-0.4862423539161682,3.966470241546631
17,23248,23247,-0.004673065152019262,0.06884945929050446,1.0047364234924316,-1.7081305980682373,10.59103775024414,3.0663254261016846,2.007071018218994,4.01565408706665,0.19517096877098083,0.05411582440137863,-0.490714430809021,3.9975554943084717
18,23258,23257,0.0025792147498577833,0.012924962677061558,1.03228759765625,-2.840514898300171,11.22215747833252,2.268846273422241,2.00626802444458,4.0164794921875,0.19715362787246704,0.07090738415718079,-0.5222595930099487,4.020565032958984
19,23268,23267,0.013091190718114376,0.09128014743328094,1.0018330812454224,-2.8990917205810547,9.87652587890625,1.8546096086502075,2.003753662109375,4.016016006469727,0.20006434619426727,-0.19391995668411255,-0.554368257522583,4.046854019165039
20,23278,23277,0.026872750371694565,0.013023965060710907,0.9907914400100708,-0.04739268124103546,6.76020622253418,1.224200963973999,2.004643201828003,4.016438007354736,0.20225565135478973,-0.39515140652656555,-0.6360058188438416,4.064130783081055
21,23288,23287,-0.0026887967251241207,-0.01915334351360798,1.0287131071090698,2.864593029022217,3.8829801082611084,0.8892260789871216,2.005127429962158,4.01702356338501,0.20430071651935577,-0.18040701746940613,-0.7975704073905945,4.059349536895752
22,23298,23297,-0.016782516613602638,0.09326013177633286,1.0014712810516357,8.086343765258789,-0.6431030035018921,0.9632923007011414,2.0022308826446533,4.018115520477295,0.2063736766576767,0.06511566787958145,-0.6490346193313599,4.06443452835083
23,23308,23307,-0.022037791088223457,0.1532619148492813,1.0218807458877563,11.268095970153809,2.0852036476135254,0.5401425957679749,1.999247431755066,4.017536640167236,0.2096773087978363,-0.07867099344730377,-0.4513629972934723,4.084151268005371
24,23318,23317,-0.03816170617938042,0.039516814053058624,1.049684762954712,13.59695816040039,5.319255828857422,-0.3119867146015167,1.999382495880127,4.0169525146484375,0.21223436295986176,-0.17660650610923767,-0.36376941204071045,4.084985256195068
25,23328,23327,-0.056636080145835876,-0.016723690554499626,1.0586066246032715,12.677592277526855,7.0250115394592285,-1.2476669549942017,1.997572660446167,4.016573429107666,0.21463057398796082,-0.08786574006080627,-0.19218453764915466,4.076615810394287
26,23338,23337,-0.008352195844054222,-0.012687435373663902,1.0125536918640137,11.420702934265137,11.523200988769531,-1.4615888595581055,1.994268536567688,4.016066074371338,0.21698929369449615,-0.2975948750972748,-0.04323991388082504,4.067721366882324
27,23348,23347,-0.019205404445528984,0.1084267795085907,1.0028443336486816,8.004312515258789,13.801145553588867,-2.16098952293396,1.9945217370986938,4.01579475402832,0.21946443617343903,-0.6063584089279175,0.062324024736881256,4.053616046905518
28,23358,23357,-0.0059203291311860085,0.032241612672805786,0.9722846150398254,3.6773436069488525,10.269674301147461,-3.308384418487549,1.9937020540237427,4.0158233642578125,0.22201456129550934,-0.874316930770874,0.17186006903648376,4.033541679382324
29,23368,23367,-0.052404917776584625,0.001222815946675837,0.9921291470527649,-0.5963627696037292,9.2321195602417,-3.2742111682891846,1.9942935705184937,4.015627861022949,0.22394099831581116,-1.0827969312667847,0.06408978998661041,3.983055830001831
30,23378,23377,-0.005138264503329992,0.012639825232326984,0.94161456823349,-1.9393088817596436,4.193411827087402,-3.3504440784454346,1.9947949647903442,4.016631603240967,0.22623129189014435,-1.223800778388977,0.07327529042959213,3.949723243713379
31,23388,23387,0.003088338067755103,0.028719518333673477,0.9672066569328308,-2.188478946685791,-3.2850983142852783,-3.319735050201416,1.995116114616394,4.016725063323975,0.22839748859405518,-1.2404279708862305,-0.008459211327135563,3.908331871032715
32,23398,23397,0.026480689644813538,-0.01777823083102703,1.0310540199279785,0.4069743752479553,-10.231575012207031,-3.0574042797088623,1.9952069520950317,4.016982078552246,0.2293100208044052,-1.1376203298568726,0.013857414945960045,3.8832883834838867
33,23408,23407,0.03936241567134857,-0.05428929254412651,0.9853642582893372,3.557812452316284,-14.168519973754883,-3.9750142097473145,1.9924544095993042,4.015275001525879,0.23151695728302002,-0.9556201696395874,0.29227665066719055,3.902693510055542
34,23418,23417,-0.029220404103398323,0.0024894278030842543,0.9552659392356873,6.473239898681641,-14.56290340423584,-4.285569190979004,1.9915721416473389,4.01265811920166,0.2337445616722107,-0.8182910084724426,1.1532965898513794,4.024347305297852
35,23428,23427,0.02134438045322895,-0.03495440259575844,0.8569867610931396,4.681210517883301,-11.21417236328125,-4.773091793060303,1.9919462203979492,4.005026340484619,0.23499305546283722,-0.6426321864128113,1.1321187019348145,3.9655423164367676
36,23438,23437,0.06307126581668854,-0.056847769767045975,0.903358519077301,-4.740030765533447,-7.71912145614624,-4.7113847732543945,1.9918746948242188,4.004837512969971,0.23717153072357178,0.6100386381149292,-1.5273535251617432,3.5176234245300293
37,23448,23447,0.067381851375103,-0.1874711960554123,0.9735763072967529,-16.82300567626953,-3.536362886428833,-3.4306533336639404,1.979575276374817,4.0278449058532715,0.24707143008708954,0.5400478839874268,-1.4973796606063843,3.4824397563934326
38,23458,23457,0.015590977855026722,-0.1673332154750824,1.0307703018188477,-13.424346923828125,6.2135009765625,-3.3146238327026367,1.9791475534439087,4.028101921081543,0.2509427070617676,0.44142118096351624,-1.537644386291504,3.463021993637085
39,23468,23467,0.013919060118496418,-0.10652993619441986,0.959894597530365,-0.16187380254268646,23.34748649597168,-3.9151771068573,1.9790087938308716,4.028307914733887,0.2528344988822937,0.17387203872203827,-1.4423245191574097,3.44372820854187
40,23478,23477,-0.049261488020420074,-0.049649421125650406,0.9231579899787903,21.38806915283203,31.89596939086914,-3.7932376861572266,1.9792808294296265,4.029787063598633,0.2563994526863098,-0.19255651533603668,-1.065486192703247,3.433239459991455
41,23488,23487,-0.11190179735422134,-0.02674221247434616,0.9871377348899841,40.379127502441406,35.47439193725586,-4.037538528442383,1.9784674644470215,4.0279412269592285,0.2602175772190094,-0.8567909002304077,-0.535642147064209,3.4279305934906006
42,23498,23497,-0.11194651573896408,-0.0536663718521595,1.0071521997451782,51.80124282836914,31.49099349975586,-5.12558126449585,1.980934739112854,4.027222156524658,0.25962671637535095,-0.9677602648735046,-0.002386301290243864,3.38423490524292
43,23508,23507,-0.01351719070225954,-0.0507168173789978,0.9339962601661682,52.977962493896484,24.21793556213379,-6.118737697601318,1.9775211811065674,4.027473449707031,0.2619059979915619,-1.3688586950302124,0.40143945813179016,3.317119836807251
44,23518,23517,-0.04729790613055229,0.06130819395184517,0.904859721660614,46.58812713623047,12.01893138885498,-6.815162658691406,1.9776619672775269,4.029641151428223,0.2639913558959961,-1.5826442241668701,1.0497549772262573,3.2754244804382324
45,23528,23527,-0.04699774086475372,0.0942808985710144,0.9068084955215454,31.47833824157715,2.5429670810699463,-6.263066291809082,1.9761433601379395,4.02927827835083,0.26610901951789856,-1.698739767074585,1.4895435571670532,3.215057134628296
46,23538,23537,-0.04383306950330734,-0.015739239752292633,0.9162691235542297,14.868061065673828,-8.783891677856445,-6.28318452835083,1.9738844633102417,4.029146671295166,0.26617035269737244,-1.6903856992721558,1.9485256671905518,3.1903419494628906
47,23548,23547,0.010968470014631748,-0.1698441207408905,0.973863959312439,-2.0703277587890625,-14.863455772399902,-6.212843894958496,1.9735732078552246,4.028312683105469,0.2677980661392212,-1.6217492818832397,2.027595043182373,3.118504047393799
48,23558,23557,0.0373036228120327,-0.2403462529182434,0.9755327701568604,-12.957778930664062,-17.57914161682129,-6.541440963745117,1.972855806350708,4.02974796295166,0.269491583108902,-1.4028149843215942,1.9550727605819702,3.0536293983459473
49,23568,23567,-0.02675788104534149,-0.22371691465377808,0.9556534290313721,-17.16887855529785,-16.938589096069336,-7.219363689422607,1.9715580940246582,4.029964923858643,0.2681196630001068,-1.2477096319198608,1.7636412382125854,2.966407537460327
50,23578,23577,-0.1235334500670433,-0.053556300699710846,0.988833487033844,-16.523042678833008,-11.282903671264648,-6.990054130554199,1.9707218408584595,4.031259059906006,0.26963791251182556,-1.1492820978164673,1.6976284980773926,2.9046437740325928
51,23588,23587,-0.05684031918644905,-0.01164301484823227,0.9584212303161621,-12.758397102355957,-2.0486180782318115,-6.172811508178711,1.9705162048339844,4.029626369476318,0.27106356620788574,-1.1102551221847534,1.5114328861236572,2.8231263160705566
52,23598,23597,-0.01700635254383087,0.0042215799912810326,0.933121919631958,-5.165421485900879,2.85115122795105,-5.876881122589111,1.9700989723205566,4.0305495262146,0.27186119556427,-1.3146029710769653,1.5667259693145752,2.752756357192993
53,23608,23607,-0.033026501536369324,0.09380537271499634,0.949843168258667,3.1694061756134033,5.186946868896484,-5.713789939880371,1.9711461067199707,4.029480934143066,0.2731904983520508,-1.4751133918762207,1.600320816040039,2.682612180709839
54,23618,23617,-0.02079974301159382,0.1224401518702507,0.9162153601646423,7.219498634338379,6.038079738616943,-5.860809326171875,1.972366452217102,4.028456687927246,0.27445828914642334,-1.5461609363555908,1.6572338342666626,2.620643377304077
55,23628,23627,0.020592249929904938,0.00022001737670507282,0.8887878656387329,9.024300575256348,0.2314406931400299,-5.622448921203613,1.972532033920288,4.029050350189209,0.2744220197200775,-1.6123133897781372,1.8132027387619019,2.575784206390381
56,23638,23637,0.07250165194272995,0.02321460098028183,0.8794643878936768,6.723380088806152,-4.690062999725342,-5.743314743041992,1.9735864400863647,4.02853536605835,0.2751287519931793,-1.6613646745681763,1.9657853841781616,2.519855260848999
57,23648,23647,0.11826974898576736,0.014475024305284023,0.906498908996582,-1.451275110244751,-13.823773384094238,-5.587124347686768,1.9724708795547485,4.028128623962402,0.2751609683036804,-1.398036241531372,2.0846500396728516,2.5265774726867676
58,23658,23657,0.027968425303697586,0.0031606373377144337,0.9545685648918152,-9.495139122009277,-20.718490600585938,-5.547086238861084,1.9710826873779297,4.02707576751709,0.2769462466239929,-1.0761469602584839,2.0179240703582764,2.500159502029419
59,23668,23667,-0.01195831410586834,0.008196242153644562,0.9562443494796753,-16.587629318237305,-22.65926170349121,-5.509586811065674,1.9692562818527222,4.026493549346924,0.27556806802749634,-0.7897655963897705,2.051098108291626,2.4964683055877686
60,23678,23677,0.0008064538706094027,0.004910090938210487,0.9054943919181824,-22.225208282470703,-18.356082916259766,-5.948044300079346,1.96774423122406,4.0241899490356445,0.2761097550392151,-0.495791494846344,1.6518276929855347,2.4176559448242188
61,23688,23687,-0.02860942669212818,-0.028674783185124397,0.9388858079910278,-23.971738815307617,-11.92667293548584,-5.876748085021973,1.965805172920227,4.02551794052124,0.27686986327171326,-0.28961381316185,1.2295856475830078,2.3295369148254395
62,23698,23697,-0.045952849090099335,5.9689904446713626e-05,0.9480727910995483,-22.83041763305664,-3.161972761154175,-5.237332820892334,1.96441650390625,4.026126384735107,0.2770838141441345,-0.9012178182601929,1.2856389284133911,2.1408395767211914
63,23708,23707,-0.0388530008494854,0.02490665391087532,0.9479228854179382,-15.566757202148438,3.8963000774383545,-4.070627689361572,1.970569372177124,4.022613525390625,0.27776893973350525,-0.8828796148300171,1.0123943090438843,2.0857927799224854
64,23718,23717,-0.04074323922395706,0.04704643413424492,0.9742185473442078,-9.090813636779785,5.144647598266602,-3.7031993865966797,1.9713748693466187,4.022218704223633,0.27874600887298584,-0.93407142162323,0.8911792635917664,2.0493671894073486
65,23728,23727,-0.022941648960113525,0.039786774665117264,0.9942638874053955,-4.488168239593506,2.2709028720855713,-2.962876081466675,1.9716724157333374,4.022057056427002,0.2794504165649414,-0.9541794061660767,0.8120661377906799,2.017608404159546
66,23738,23737,0.03687519207596779,-0.04625742882490158,1.0030879974365234,-1.5184434652328491,-3.831779718399048,-2.9295835494995117,1.9715360403060913,4.01973295211792,0.27988067269325256,-0.9097055792808533,0.9462162852287292,2.0254433155059814
67,23748,23747,0.0016811593668535352,-0.008537184447050095,0.9699863195419312,-0.00996487494558096,-9.543866157531738,-3.251206636428833,1.971498966217041,4.0205512046813965,0.2803683578968048,-0.8440145254135132,0.877883791923523,1.9774922132492065
68,23758,23757,0.0006255998159758747,-0.00954383984208107,0.9836386442184448,-2.9518425464630127,-15.153239250183105,-2.730372667312622,1.9701448678970337,4.020627498626709,0.28093624114990234,-0.5902084112167358,0.8035101890563965,1.9642950296401978
69,23768,23767,-0.011800821870565414,-0.045305028557777405,0.9850465059280396,-7.256449222564697,-19.28223991394043,-2.3309502601623535,1.9711896181106567,4.020506858825684,0.2859734892845154,-0.4900898039340973,0.6812204122543335,1.9095195531845093
70,23778,23777,0.01350008137524128,-0.0336231030523777,0.902392566204071,-9.654871940612793,-17.83792495727539,-2.3377983570098877,1.9704816341400146,4.019087314605713,0.28663262724876404,-0.2774338722229004,0.6562873125076294,1.8995051383972168
71,23788,23787,0.03822028264403343,-0.00032832808210514486,0.9087072610855103,-12.046321868896484,-14.891082763671875,-1.6989363431930542,1.970831036567688,4.0186638832092285,0.2872241735458374,-0.10327078402042389,0.5048736333847046,1.8743066787719727
72,23798,23797,0.05333956703543663,-0.09640892595052719,1.0068968534469604,-13.381462097167969,-12.908674240112305,-1.508847713470459,1.9707050323486328,4.018913745880127,0.28590473532676697,0.031404927372932434,0.3194330632686615,1.8491941690444946
73,23808,23807,0.02348298951983452,-0.19290690124034882,1.0761899948120117,-11.332112312316895,-8.837964057922363,-0.3584575355052948,1.9725652933120728,4.016277313232422,0.28630292415618896,-0.03629963845014572,0.3673582375049591,1.8301855325698853
74,23818,23817,0.04400540143251419,-0.26044806838035583,1.0415560007095337,-7.421402454376221,-6.413344383239746,-0.551688551902771,1.9714230298995972,4.015379905700684,0.28679096698760986,0.11040244251489639,0.3360263705253601,1.8405121564865112
75,23828,23827,0.0013315471587702632,0.05777839198708534,1.0067998170852661,-5.414747714996338,-3.9716169834136963,-0.15930354595184326,1.9709739685058594,4.014108180999756,0.28653016686439514,0.1459594964981079,0.2740510404109955,1.8337236642837524
76,23838,23837,0.0033391695469617844,0.02652779594063759,0.9440338611602783,-5.994793891906738,-4.154942035675049,-0.2301209568977356,1.971632957458496,4.01306676864624,0.28753843903541565,0.2022407501935959,0.1154184639453888,1.8262168169021606
77,23848,23847,-0.024127677083015442,-0.07736685127019882,0.9874640703201294,-5.961824893951416,-9.676957130432129,-0.2966657280921936,1.9726399183273315,4.011589050292969,0.2879254221916199,0.19370639324188232,0.11477027833461761,1.8190410137176514
78,23858,23857,-0.05893268808722496,-0.037432629615068436,1.0495413541793823,-6.0550761222839355,-6.335231304168701,-0.35871583223342896,1.9707409143447876,4.009546279907227,0.287967324256897,0.4661584198474884,-0.013492790050804615,1.8332401514053345
79,23868,23867,0.012403251603245735,-0.07379591464996338,1.019874095916748,-7.3588104248046875,-7.056023120880127,-0.30373525619506836,1.9702223539352417,4.009634971618652,0.2927888035774231,0.5206131339073181,-0.08752024173736572,1.8275798559188843
80,23878,23877,0.004812651313841343,0.00225959368981421,1.0316673517227173,-7.44901180267334,-7.084007263183594,0.20957143604755402,1.9696804285049438,4.008915424346924,0.29278624057769775,0.5976094603538513,-0.12073971331119537,1.8275865316390991
81,23888,23887,0.0074784099124372005,-0.012676303274929523,0.9792652726173401,-8.207834243774414,-6.113918304443359,0.34626325964927673,1.969342589378357,4.007939338684082,0.29349249601364136,0.667712926864624,-0.23499992489814758,1.8310946226119995
82,23898,23897,-0.00019227935990784317,-0.01891360431909561,1.0064260959625244,-6.302934646606445,-4.768228054046631,0.5093540549278259,1.9688795804977417,4.006651878356934,0.29515406489372253,0.7122107148170471,-0.34326156973838806,1.8361374139785767
83,23908,23907,0.030554626137018204,-0.008830848149955273,0.9992978572845459,-4.318907737731934,-2.411593437194824,0.4111950099468231,1.9675379991531372,4.004382133483887,0.29591208696365356,0.8481538891792297,-0.42640063166618347,1.8444188833236694
84,23918,23917,0.05721895396709442,-0.047831617295742035,1.0289167165756226,-4.093905925750732,-0.9811263084411621,0.8362279534339905,1.9669840335845947,4.004313945770264,0.29668116569519043,0.8643953204154968,-0.46959206461906433,1.8526716232299805
85,23928,23927,0.04527156427502632,-0.05047900229692459,1.000252604484558,-2.2939860820770264,1.535714030265808,0.14727480709552765,1.9669560194015503,4.003589153289795,0.29732057452201843,0.8113574385643005,-0.423859179019928,1.851908802986145
86,23938,23937,-0.010148088447749615,0.05876680091023445,0.944993257522583,-1.7587069272994995,2.301563262939453,0.7800533175468445,1.9688457250595093,4.002666473388672,0.298109233379364,0.6407605409622192,-0.4327075481414795,1.8552767038345337
87,23948,23947,-0.03003048524260521,0.01818741112947464,0.9968443512916565,-2.758356809616089,1.5767682790756226,0.4980444610118866,1.9684067964553833,4.0010881423950195,0.29887551069259644,0.6381072998046875,-0.44569888710975647,1.8583033084869385
88,23958,23957,0.05780520662665367,-0.04167182743549347,0.8919165730476379,-3.3412907123565674,3.004603147506714,0.5645435452461243,1.9685734510421753,4.000243663787842,0.2996034622192383,0.623619019985199,-0.4725615382194519,1.862648606300354
89,23968,23967,-0.03102743811905384,0.0005512322532013059,1.0131659507751465,-3.6119184494018555,-2.6012253761291504,0.7439929842948914,1.9686849117279053,3.999619722366333,0.3001672029495239,0.650831401348114,-0.5154662728309631,1.870856761932373
90,23978,23977,0.04676565155386925,-0.10814891010522842,1.017203450202942,-4.0392327308654785,-1.5170414447784424,0.6910486221313477,1.9684959650039673,4.000073432922363,0.3008168041706085,0.6985950469970703,-0.630276620388031,1.8862206935882568
91,23988,23987,0.06953252851963043,-0.20665369927883148,1.023603081703186,-3.691494941711426,-3.272477388381958,0.9514649510383606,1.9678184986114502,4.000302314758301,0.30142471194267273,0.7629112005233765,-0.7412254214286804,1.901807427406311
92,23998,23997,0.05183966085314751,-0.13569451868534088,0.9429637789726257,-0.9572224617004395,-3.1903772354125977,0.8396527171134949,1.9676355123519897,3.9979822635650635,0.3046875,0.8403705954551697,-0.5987344980239868,1.8858399391174316
93,24008,24007,-0.01871129497885704,-0.11785224080085754,0.9917423725128174,-0.22961761057376862,-2.4795618057250977,0.5996106863021851,1.9672504663467407,3.997260808944702,0.3055148720741272,0.8357821106910706,-0.6586067080497742,1.9046788215637207
94,24018,24017,-0.01603439822793007,-0.1065588966012001,0.9496104717254639,0.7468382120132446,0.368196576833725,0.5497628450393677,1.967475175857544,3.9971580505371094,0.30632853507995605,0.7995154857635498,-0.7005230188369751,1.9206619262695312
95,24028,24027,0.04335717484354973,-0.06852185726165771,0.8845305442810059,0.0945010855793953,3.580246925354004,0.2138393521308899,1.9664514064788818,3.996706962585449,0.3057902753353119,0.7924630045890808,-0.7275919914245605,1.9280961751937866
96,24038,24037,0.06956735998392105,-0.021468721330165863,0.9402323961257935,-1.4338743686676025,5.1515350341796875,0.42811641097068787,1.9655390977859497,3.996425151824951,0.3064213693141937,0.8913151025772095,-0.7700678110122681,1.9210608005523682
97,24048,24047,0.04812784492969513,0.04278681427240372,1.0195868015289307,-0.522245466709137,5.6425323486328125,-0.005485723726451397,1.9658758640289307,3.9968230724334717,0.3069857060909271,0.7998714447021484,-0.7437615990638733,1.9204518795013428
98,24058,24057,0.0153158875182271,0.023862289264798164,0.9891343116760254,0.13018739223480225,5.775620460510254,-0.4187723696231842,1.9662972688674927,3.996077060699463,0.30749064683914185,0.7463757395744324,-0.7370526194572449,1.9142605066299438
99,24068,24067,0.013706664554774761,-0.055515583604574203,0.9091838002204895,0.9960808157920837,5.651015281677246,-0.459945410490036,1.9654390811920166,3.995980978012085,0.30558905005455017,0.6498015522956848,-0.7556165456771851,1.9167845249176025
100,24078,24077,0.009444152005016804,-0.03906158357858658,0.933567225933075,1.8550444841384888,3.5789663791656494,-0.627713143825531,1.9656181335449219,3.996218204498291,0.3058988153934479,0.5830373764038086,-0.6792342066764832,1.9035851955413818
101,24088,24087,-0.01905810832977295,0.09431955963373184,0.908711850643158,2.6812326908111572,4.155208110809326,-0.686195433139801,1.965984582901001,3.9952445030212402,0.30615004897117615,0.5410163998603821,-0.6558191776275635,1.8938239812850952
102,24098,24097,-0.03817473351955414,0.06993572413921356,0.9621349573135376,1.6234716176986694,2.316558599472046,-0.5911685228347778,1.9655108451843262,3.9942848682403564,0.30719366669654846,0.4716758131980896,-0.6668592095375061,1.8975839614868164
103,24108,24107,0.009758606553077698,0.018259728327393532,0.9869886040687561,1.0750404596328735,2.7632617950439453,-0.6117504835128784,1.9654995203018188,3.9941532611846924,0.3073464334011078,0.4236617982387543,-0.6708365678787231,1.8943345546722412
104,24118,24117,-0.023041339591145515,0.011311554349958897,1.0655914545059204,-0.11239895224571228,0.7015872597694397,-0.4729134440422058,1.9649653434753418,3.9935765266418457,0.307526558637619,0.48341983556747437,-0.6163617372512817,1.8707778453826904
105,24128,24127,-0.0421157106757164,-0.05019182339310646,1.059840440750122,-0.7616259455680847,-0.8649845719337463,-0.6173768639564514,1.9644092321395874,3.993253231048584,0.3054942786693573,0.41287657618522644,-0.65274578332901,1.8791717290878296
106,24138,24137,-0.14520905911922455,0.10550698637962341,1.0599329471588135,0.3772393465042114,-1.5449117422103882,0.03417028486728668,1.9649627208709717,3.993335485458374,0.30552107095718384,0.5262110233306885,-0.6672336459159851,1.8664662837982178
107,24148,24147,-0.052671778947114944,0.11602175235748291,0.9512439966201782,-0.0598672516644001,0.9224032759666443,0.15937042236328125,1.963513970375061,3.992081880569458,0.3056216835975647,0.5094649195671082,-0.6845429539680481,1.8719570636749268
108,24158,24157,0.02636711299419403,0.249441459774971,0.9661768078804016,-0.2860085666179657,3.9530980587005615,0.17468392848968506,1.9634432792663574,3.99179744720459,0.3045394718647003,0.4392414689064026,-0.6271138191223145,1.8713481426239014
109,24168,24167,0.058210041373968124,0.11375272274017334,1.0186331272125244,-0.8331515789031982,3.465836524963379,0.2821239233016968,1.9633270502090454,3.9908223152160645,0.30458107590675354,0.4026581048965454,-0.6331165432929993,1.872128963470459
110,24178,24177,0.0509607195854187,-0.03278763219714165,1.0031709671020508,-0.7452573180198669,2.872047185897827,0.3571344017982483,1.9637141227722168,3.9908716678619385,0.304585725069046,0.40473243594169617,-0.6130526065826416,1.8694926500320435
111,24188,24187,0.004560394212603569,-0.029337286949157715,1.0001771450042725,0.4165218472480774,2.1427407264709473,-0.18991325795650482,1.9635939598083496,3.989748001098633,0.3045930862426758,0.4282008111476898,-0.5565032958984375,1.854844331741333
112,24198,24197,0.013791984878480434,-0.012898562476038933,0.8917077779769897,0.37243103981018066,2.769563674926758,0.49576812982559204,1.9626622200012207,3.9891200065612793,0.30334368348121643,0.36633145809173584,-0.5774751901626587,1.8631432056427002
113,24208,24207,-0.008781573735177517,0.053133394569158554,0.9785676002502441,0.9865973591804504,1.940200686454773,0.27844011783599854,1.9631229639053345,3.9890987873077393,0.3032698929309845,0.3945416808128357,-0.5849906802177429,1.8641685247421265
114,24218,24217,0.018254173919558525,0.026495669037103653,1.0755327939987183,-0.025168361142277718,1.2265022993087769,0.7213248014450073,1.9625940322875977,3.9892189502716064,0.30311447381973267,0.3595674932003021,-0.6018257737159729,1.8774690628051758
115,24228,24227,0.00034931476693600416,-0.004790260922163725,1.0353049039840698,-0.8268247246742249,2.518341541290283,0.9930628538131714,1.9625855684280396,3.988908290863037,0.30431562662124634,0.3101460635662079,-0.6292844414710999,1.8896114826202393
116,24238,24237,-0.017985137179493904,0.039740972220897675,0.9949641227722168,0.10090908408164978,2.4413557052612305,0.5686298608779907,1.9631246328353882,3.9893903732299805,0.3042871952056885,0.3314291536808014,-0.6438880562782288,1.8930854797363281
117,24248,24247,-0.0039694770239293575,0.0965094119310379,0.9347988367080688,0.11922728270292282,6.0559916496276855,0.3476041853427887,1.9616951942443848,3.9883930683135986,0.30429714918136597,0.2959086298942566,-0.6543626189231873,1.895603895187378
118,24258,24257,0.028018150478601456,0.20701362192630768,0.9004725217819214,1.4669541120529175,7.339183330535889,0.3780669867992401,1.9611741304397583,3.98840069770813,0.30418652296066284,0.20129969716072083,-0.6506787538528442,1.8962368965148926
119,24268,24267,0.0097514558583498,0.04536595940589905,0.9421312212944031,3.0984597206115723,4.9669413566589355,0.30732131004333496,1.9605456590652466,3.9880924224853516,0.30412930250167847,0.10601988434791565,-0.6885770559310913,1.911108136177063
120,24278,24277,-0.0008845276315696537,-0.04845995828509331,0.9886090755462646,1.6332396268844604,0.8915855884552002,0.8732945919036865,1.9606530666351318,3.9883220195770264,0.3039982318878174,0.0625900849699974,-0.6567941904067993,1.9207184314727783
121,24288,24287,-0.044421907514333725,0.07966885715723038,1.0842541456222534,4.136658668518066,-0.38874465227127075,0.7933542132377625,1.9603629112243652,3.9879212379455566,0.3038070797920227,0.12654975056648254,-0.6009085178375244,1.9187219142913818
122,24298,24297,-0.004937354475259781,0.04449186474084854,1.0433473587036133,4.482062816619873,1.3719079494476318,1.4938865900039673,1.9590612649917603,3.988013982772827,0.3013097941875458,0.08477663993835449,-0.5297786593437195,1.9309521913528442
123,24308,24307,0.02237122692167759,-0.1741029918193817,1.0603479146957397,4.177822589874268,1.2198340892791748,1.3571730852127075,1.9589320421218872,3.9875733852386475,0.30103376507759094,0.05194336548447609,-0.46780335903167725,1.9485777616500854
124,24318,24317,-0.026419509202241898,-0.0654386430978775,1.1158602237701416,2.905367374420166,2.8029654026031494,1.2160245180130005,1.9582303762435913,3.9868950843811035,0.3008701205253601,0.06642386317253113,-0.49106815457344055,1.9591444730758667
125,24328,24327,-0.04473623260855675,-0.011067545972764492,1.0765376091003418,-0.45348578691482544,0.8274074196815491,1.3330060243606567,1.9563539028167725,3.9874820709228516,0.30280250310897827,0.02967257797718048,-0.47686493396759033,1.974368929862976
126,24338,24337,-0.07743841409683228,0.10705718398094177,1.042539358139038,-0.6853378415107727,2.2430825233459473,1.4093506336212158,1.9565612077713013,3.987037181854248,0.3028701841831207,0.050976213067770004,-0.49070248007774353,1.984405755996704
127,24348,24347,-0.025834502652287483,0.020612582564353943,1.0210516452789307,-0.9240713119506836,3.4386065006256104,1.6147887706756592,1.955873966217041,3.987278461456299,0.3030000627040863,0.05068988725543022,-0.5782938599586487,1.9991599321365356
128,24358,24357,0.011721751652657986,0.0033826655708253384,1.0012823343276978,1.8236720561981201,3.577665090560913,1.9437378644943237,1.9553380012512207,3.9880497455596924,0.3030937612056732,-0.027023687958717346,-0.5520034432411194,2.021451473236084
129,24368,24367,0.008035816252231598,0.00611442606896162,0.9799180626869202,3.5129318237304688,1.812490701675415,1.943321704864502,1.955115556716919,3.9881458282470703,0.30332159996032715,0.06844843924045563,-0.5641815662384033,2.0309507846832275
130,24378,24377,-0.006107409950345755,-0.015646973624825478,1.0129523277282715,5.544081211090088,6.346685409545898,2.302910327911377,1.9530364274978638,3.987926483154297,0.303498774766922,-0.119731605052948,-0.46196621656417847,2.0647974014282227
131,24388,24387,0.07018399238586426,-0.06112196296453476,1.017890453338623,5.94719123840332,16.245868682861328,1.924004316329956,1.9540427923202515,3.986915349960327,0.30318883061408997,-0.36295732855796814,-0.42654651403427124,2.0974314212799072
132,24398,24397,0.018751366063952446,-0.0014991966309025884,1.0549839735031128,5.307948589324951,21.567026138305664,2.330322742462158,1.9545209407806396,3.9868173599243164,0.3033435642719269,-0.4741901159286499,-0.31950947642326355,2.1130831241607666
133,24408,24407,-0.0028573093004524708,-0.04219591245055199,1.0499032735824585,5.0015869140625,23.737703323364258,1.8396509885787964,1.9540241956710815,3.9869232177734375,0.30358824133872986,-0.42741549015045166,-0.5248000621795654,2.10489821434021
134,24418,24417,-0.03730445355176926,-0.061569202691316605,1.0126075744628906,4.0490827560424805,20.86411476135254,1.7172479629516602,1.950735092163086,3.9892654418945312,0.3039872646331787,-0.8293824791908264,-0.41268986463546753,2.1337890625
135,24428,24427,-0.04150721803307533,-0.02600095421075821,0.9889537692070007,4.097071647644043,17.934898376464844,1.6397933959960938,1.9521563053131104,3.989061117172241,0.30528712272644043,-1.0842610597610474,-0.31206148862838745,2.1575570106506348
136,24438,24437,0.02922028675675392,-0.05400018021464348,0.9677615761756897,4.606165885925293,15.290485382080078,1.486074686050415,1.9527207612991333,3.9887120723724365,0.30566179752349854,-1.1390942335128784,-0.21272969245910645,2.1700220108032227
137,24448,24447,0.0017073815688490868,-0.03508959338068962,1.0693317651748657,5.31022834777832,8.936812400817871,2.1963489055633545,1.9515197277069092,3.9882190227508545,0.3061266839504242,-1.3331955671310425,-0.2576116621494293,2.1850509643554688
138,24458,24457,0.016163714230060577,-0.10070627182722092,1.0092841386795044,6.485452651977539,5.191493988037109,1.464499831199646,1.952130913734436,3.988922595977783,0.30865123867988586,-1.4423089027404785,-0.12222044169902802,2.2111823558807373
139,24468,24467,-0.017202744260430336,-0.03593192249536514,0.9361516237258911,6.008473873138428,4.672863006591797,1.5111862421035767,1.9524762630462646,3.988534688949585,0.30917441844940186,-1.3789875507354736,-0.07151945680379868,2.2185451984405518
140,24478,24477,0.003825876396149397,-0.04210216552019119,0.935129702091217,4.61903715133667,3.3499062061309814,2.189116954803467,1.9513003826141357,3.9888155460357666,0.3098086416721344,-1.4518413543701172,0.03536396846175194,2.2482481002807617
141,24488,24487,0.03847581148147583,-0.1110813170671463,1.004876971244812,3.4479150772094727,1.4372341632843018,3.011516809463501,1.9518041610717773,3.9885144233703613,0.3101707994937897,-1.4847766160964966,0.04205895960330963,2.272578716278076
142,24498,24497,-0.015858182683587074,-0.07628445327281952,1.11053466796875,2.7240068912506104,1.5179417133331299,2.760749340057373,1.951725721359253,3.9890167713165283,0.3105948865413666,-1.5046366453170776,-0.10862548649311066,2.269261121749878
143,24508,24507,-0.037488535046577454,-0.016752924770116806,1.0469025373458862,2.7506983280181885,3.8663008213043213,2.534654140472412,1.9521088600158691,3.9910144805908203,0.311052531003952,-1.4087406396865845,-0.02163497917354107,2.3031749725341797
144,24518,24517,-0.07633040845394135,0.08814943581819534,0.9435724020004272,3.343546152114868,7.994222164154053,2.002255439758301,1.950424075126648,3.990536689758301,0.3122532367706299,-1.4727129936218262,0.0069143399596214294,2.325671434402466
145,24528,24527,-0.07309319078922272,0.14361287653446198,0.9041276574134827,3.208350658416748,9.257296562194824,2.0977468490600586,1.9509543180465698,3.9896299839019775,0.3110726773738861,-1.6836867332458496,0.14774899184703827,2.369474172592163
146,24538,24537,-0.0486852303147316,0.10128334909677505,0.9733396172523499,3.668586015701294,7.7982072830200195,1.8036917448043823,1.9514482021331787,3.9897546768188477,0.31150516867637634,-1.8213859796524048,0.23379957675933838,2.4023287296295166
147,24548,24547,-0.037412162870168686,0.053547728806734085,1.058910608291626,3.069270372390747,6.1540446281433105,2.2757363319396973,1.9517632722854614,3.988795042037964,0.3119141459465027,-1.7092713117599487,0.06351400911808014,2.3665683269500732
148,24558,24557,-0.049512285739183426,0.04196600243449211,1.11527419090271,2.6864523887634277,2.5216073989868164,2.090456485748291,1.9511256217956543,3.9901187419891357,0.3104914426803589,-1.7939913272857666,0.15243279933929443,2.4018499851226807
149,24568,24567,-0.062317293137311935,0.10745207220315933,1.0252031087875366,2.462116241455078,0.716623067855835,1.811254620552063,1.9505712985992432,3.9892964363098145,0.3108137547969818,-1.8273403644561768,0.22676528990268707,2.4338812828063965
150,24578,24577,-0.024936120957136154,0.10708542913198471,0.9122421741485596,2.404416084289551,3.474849224090576,0.9661131501197815,1.9503247737884521,3.9879534244537354,0.31123170256614685,-1.8434391021728516,0.25409162044525146,2.453453302383423
151,24588,24587,0.03709080070257187,0.1482309103012085,0.827820897102356,1.3091846704483032,3.360384702682495,1.0165050029754639,1.9510680437088013,3.9870359897613525,0.311644047498703,-1.7909752130508423,0.2709120213985443,2.4692792892456055
152,24598,24597,0.023359837010502815,0.07364899665117264,0.8823680281639099,1.3766405582427979,-4.078323841094971,1.0810492038726807,1.949472427368164,3.9868838787078857,0.3120649755001068,-1.8093172311782837,0.3226451575756073,2.4883036613464355
153,24608,24607,0.03292356804013252,-0.07683086395263672,0.9591928720474243,-1.7167203426361084,-5.28469181060791,1.7108508348464966,1.9496616125106812,3.986558675765991,0.3122742176055908,-1.8158113956451416,0.26634320616722107,2.48179030418396
154,24618,24617,0.03485149145126343,-0.1855839639902115,1.0512371063232422,-0.20624348521232605,-6.301978588104248,1.959075689315796,1.950079321861267,3.9869134426116943,0.31234976649284363,-1.765324354171753,0.2545338273048401,2.4982059001922607
155,24628,24627,0.006798023823648691,-0.10394496470689774,0.9552208781242371,0.7978054285049438,-2.404625654220581,1.0714406967163086,1.9501392841339111,3.986915349960327,0.31367257237434387,-1.775346040725708,0.22624225914478302,2.506338119506836
156,24638,24637,-0.006562608759850264,-0.008951716125011444,0.8844334483146667,0.4395589828491211,3.3654799461364746,0.6319271326065063,1.9513174295425415,3.987086534500122,0.3137924075126648,-1.734594702720642,0.18626829981803894,2.5080549716949463
157,24648,24647,0.024561848491430283,-0.005312046967446804,0.9048314690589905,-0.23666715621948242,5.293997764587402,1.0521726608276367,1.951632022857666,3.987687826156616,0.3139194846153259,-1.8330565690994263,0.22593386471271515,2.5179765224456787
158,24658,24657,0.026147611439228058,-0.042830031365156174,1.0406248569488525,0.8624208569526672,2.2283334732055664,1.2021831274032593,1.9530750513076782,3.9877402782440186,0.3138664662837982,-1.8535232543945312,0.2592167854309082,2.53998064994812
159,24668,24667,-0.014046984724700451,-0.05190255865454674,1.1194456815719604,1.5878748893737793,-1.2494689226150513,0.5858257412910461,1.9527311325073242,3.9863827228546143,0.3138120472431183,-1.981224536895752,0.22306327521800995,2.5365777015686035
160,24678,24677,-0.0009091870160773396,-0.020050514489412308,1.0271918773651123,2.455353260040283,-0.6439048051834106,-0.22285053133964539,1.9541075229644775,3.9870312213897705,0.3137000501155853,-1.8363600969314575,0.28431087732315063,2.5628786087036133
161,24688,24687,-0.08485717326402664,0.19706974923610687,0.8622047901153564,3.3206424713134766,-4.290029048919678,-0.6307839751243591,1.9526697397232056,3.985419511795044,0.3138841986656189,-1.832781434059143,0.3552534878253937,2.5751664638519287
162,24698,24697,-0.09596885740756989,0.19213305413722992,0.908174991607666,1.4358019828796387,-5.107150077819824,-0.1445334404706955,1.9526515007019043,3.9841859340667725,0.31394410133361816,-1.8701090812683105,0.34602880477905273,2.5481882095336914
163,24708,24707,-0.037484049797058105,0.06623940914869308,1.0429459810256958,-0.4828386604785919,-7.327765464782715,0.009721934795379639,1.9541305303573608,3.985015392303467,0.31386062502861023,-1.866875171661377,0.36640629172325134,2.5485715866088867
164,24718,24717,-0.04845605418086052,0.030643204227089882,1.132509708404541,-1.5134358406066895,-9.747438430786133,-0.18764185905456543,1.9547120332717896,3.98498797416687,0.31809622049331665,-1.8166775703430176,0.39959150552749634,2.548603057861328
165,24728,24727,-0.05334579199552536,0.0637887567281723,0.9969887733459473,-0.912507176399231,-7.226475238800049,-0.5162529945373535,1.955919861793518,3.985116958618164,0.3183002173900604,-1.754823088645935,0.3216862976551056,2.5280890464782715
166,24738,24737,0.023900065571069717,-0.04123774915933609,0.9927281737327576,-2.224618434906006,-9.297842025756836,0.6051852703094482,1.9567664861679077,3.9849743843078613,0.3185480237007141,-1.6821357011795044,0.31128552556037903,2.521235704421997
167,24748,24747,0.025127246975898743,-0.020423756912350655,1.0122148990631104,-2.101655960083008,-3.2836763858795166,-0.4804716110229492,1.9566292762756348,3.9852378368377686,0.31890055537223816,-1.5374886989593506,0.22334761917591095,2.5069844722747803
168,24758,24757,0.03807666897773743,0.017230726778507233,1.0085713863372803,-0.5123885869979858,-6.347668170928955,0.30257657170295715,1.9592454433441162,3.9848406314849854,0.31682923436164856,-1.6945219039916992,0.22097213566303253,2.495762348175049
169,24768,24767,-0.0013571697054430842,-0.004081106279045343,1.0247467756271362,2.91963267326355,-9.561656951904297,-0.542894721031189,1.9584261178970337,3.984153985977173,0.3171336352825165,-1.4888529777526855,0.24255982041358948,2.512511730194092
170,24778,24777,-0.016470495611429214,0.010150391608476639,0.9807892441749573,3.1795120239257812,-10.302824020385742,-1.0300512313842773,1.9588018655776978,3.983865261077881,0.3173829913139343,-1.32668137550354,0.3086760938167572,2.5250959396362305
171,24788,24787,-0.05810677260160446,0.05049769580364227,0.9563983082771301,3.181617498397827,-7.118714332580566,-1.6078091859817505,1.960247278213501,3.9835920333862305,0.3149268329143524,-1.3856117725372314,0.3803970217704773,2.5176548957824707
172,24798,24797,0.008959375321865082,-0.03329412266612053,0.9285968542098999,0.5575312972068787,-9.641021728515625,-0.7078976631164551,1.960557222366333,3.984879970550537,0.31500735878944397,-1.2165391445159912,0.2907189428806305,2.4839940071105957
173,24808,24807,0.00031540519557893276,0.03172680735588074,1.0286809206008911,-0.8314899206161499,-10.449957847595215,-0.6085110902786255,1.9601621627807617,3.984461784362793,0.31510990858078003,-1.2661350965499878,0.35296016931533813,2.4762325286865234
174,24818,24817,0.05153094604611397,-0.016703790053725243,1.0753452777862549,-1.8446227312088013,-7.738195896148682,-0.22510220110416412,1.9631472826004028,3.9846391677856445,0.31589198112487793,-1.1663141250610352,0.3505786657333374,2.468952178955078
175,24828,24827,0.09220770001411438,-0.1306503713130951,1.0045139789581299,-2.1949267387390137,-6.511706829071045,-0.8941794633865356,1.9636698961257935,3.9855213165283203,0.315999299287796,-0.9884119629859924,0.2655501663684845,2.456439971923828
176,24838,24837,0.025708485394716263,-0.2523004114627838,0.9677171111106873,-1.633142352104187,-5.514128684997559,-1.620955467224121,1.96555495262146,3.985931158065796,0.3160080313682556,-0.9996469020843506,0.25631120800971985,2.4457478523254395
177,24848,24847,-0.019492942839860916,-0.21643492579460144,0.9399545788764954,-0.7210056781768799,-7.600381374359131,-0.9990651607513428,1.9659796953201294,3.986022710800171,0.3161737024784088,-0.8592678904533386,0.25586190819740295,2.439417839050293
178,24858,24857,0.027657995000481606,-0.16237835586071014,0.9161757230758667,1.6959439516067505,-9.602842330932617,-0.5500906109809875,1.967864751815796,3.9858415126800537,0.3178146183490753,-0.937251627445221,0.2678645849227905,2.4229562282562256
179,24868,24867,0.03791428729891777,-0.05272061750292778,0.9479102492332458,1.780807375907898,-9.204123497009277,-1.8216036558151245,1.9676324129104614,3.9859938621520996,0.31807801127433777,-0.6463626027107239,0.2339276671409607,2.4217920303344727
180,24878,24877,-0.007467560935765505,-0.011830871924757957,0.9882974624633789,2.5698091983795166,-9.197244644165039,-1.3585091829299927,1.969469428062439,3.98553466796875,0.3180706799030304,-0.6139681935310364,0.2915146052837372,2.4069950580596924
181,24888,24887,-0.025977324694395065,0.011936696246266365,1.0332828760147095,2.191321849822998,-8.033472061157227,-1.2651739120483398,1.9704781770706177,3.98575758934021,0.3166995346546173,-0.49751248955726624,0.27806222438812256,2.389042377471924
182,24898,24897,0.0021226678509265184,-0.10999329388141632,1.0046281814575195,1.823005199432373,-9.323136329650879,-1.0517792701721191,1.9718725681304932,3.985596179962158,0.31662455201148987,-0.40604865550994873,0.34193217754364014,2.38069224357605
183,24908,24907,-0.07118121534585953,-0.09114494919776917,1.0845030546188354,2.586214780807495,-10.014026641845703,-1.2355096340179443,1.974229335784912,3.9858601093292236,0.3164327144622803,-0.4710659980773926,0.31625646352767944,2.355316400527954
184,24918,24917,-0.07291201502084732,0.03686204180121422,0.9834305047988892,1.2884573936462402,-6.508197784423828,-1.9818772077560425,1.9747517108917236,3.9856910705566406,0.31698980927467346,-0.27658045291900635,0.3801209628582001,2.352400541305542
185,24928,24927,-0.05081046000123024,0.030947072431445122,0.9820771217346191,-0.8679242730140686,-3.0876076221466064,-2.0224177837371826,1.9759882688522339,3.9862494468688965,0.3170408010482788,-0.2095298171043396,0.3388758897781372,2.328702211380005
186,24938,24937,0.0027708180714398623,0.016526466235518456,1.004729986190796,-1.8689095973968506,-2.2982234954833984,-1.9413670301437378,1.9780583381652832,3.987165927886963,0.316967636346817,-0.11961536109447479,0.29128316044807434,2.307985782623291
187,24948,24947,-0.0186615027487278,0.04545115679502487,1.0466232299804688,0.07570728659629822,-4.054953098297119,-2.065984010696411,1.9779598712921143,3.9866867065429688,0.317158579826355,-0.09744486957788467,0.27717679738998413,2.2876994609832764
188,24958,24957,0.010166212916374207,-0.027461213991045952,0.9967806339263916,0.9731228351593018,-4.731453895568848,-2.559018135070801,1.9807813167572021,3.986419200897217,0.3180461525917053,-0.24324733018875122,0.3052530884742737,2.257354974746704
189,24968,24967,-0.006401874590665102,-0.0038367072120308876,0.9868003726005554,2.0353050231933594,-5.175508975982666,-2.612189292907715,1.9815316200256348,3.9863333702087402,0.31823787093162537,-0.11293380707502365,0.34513652324676514,2.235497236251831
190,24978,24977,-0.012787841260433197,-0.020637791603803635,0.9910221695899963,1.7767647504806519,-5.557485103607178,-2.4641456604003906,1.9818792343139648,3.9855148792266846,0.3184327185153961,0.024068420752882957,0.3981674015522003,2.212048053741455
191,24988,24987,-0.029244408011436462,0.07431395351886749,0.9788264036178589,1.483478307723999,-4.1543097496032715,-2.211954116821289,1.983412265777588,3.9861795902252197,0.3169216215610504,0.001101845409721136,0.36745890974998474,2.183013677597046
192,24998,24997,-0.017418738454580307,0.07851056754589081,1.031044840812683,0.23537756502628326,-5.3833394050598145,-2.0532662868499756,1.9849697351455688,3.986854076385498,0.3169204890727997,0.0484095923602581,0.3655405342578888,2.1607143878936768
193,25008,25007,-0.04151511937379837,0.04827513173222542,1.118180513381958,0.17593072354793549,-6.627201557159424,-2.2441976070404053,1.9859071969985962,3.9858343601226807,0.31692421436309814,0.10768908262252808,0.3953930735588074,2.138993263244629
194,25018,25017,-0.03466833755373955,0.021776949986815453,1.0988539457321167,1.077082633972168,-7.271183967590332,-2.40877103805542,1.9872490167617798,3.985396385192871,0.31502482295036316,0.25426414608955383,0.3442195951938629,2.122298002243042
195,25028,25027,-0.13884912431240082,0.1896410435438156,1.0774482488632202,1.765416145324707,-1.1552354097366333,-3.0567691326141357,1.9875565767288208,3.9856514930725098,0.31511199474334717,0.34869489073753357,0.3075706660747528,2.1029982566833496
196,25038,25037,-0.10476046800613403,0.18133917450904846,0.9209710955619812,0.009875970892608166,3.066253423690796,-2.5172605514526367,1.987471342086792,3.9861207008361816,0.31530529260635376,0.22269943356513977,0.4269806742668152,2.0581440925598145
197,25048,25047,-0.09618619084358215,0.18896381556987762,0.9832638502120972,-0.30960339307785034,3.734905958175659,-1.829340934753418,1.990578055381775,3.9853789806365967,0.3172096908092499,0.2183184176683426,0.36498329043388367,2.0411794185638428
198,25058,25057,0.014212287031114101,0.07165742665529251,0.9910677075386047,0.11376405507326126,0.6942630410194397,-1.7323962450027466,1.9915239810943604,3.985949754714966,0.31747204065322876,0.21951645612716675,0.3867669701576233,2.0217459201812744
199,25068,25067,-0.006538012530654669,0.06982883810997009,1.1134103536605835,0.6347834467887878,-2.840803861618042,-1.7650771141052246,1.9926217794418335,3.9859323501586914,0.31770533323287964,0.20219014585018158,0.38854172825813293,2.003340482711792
200,25078,25077,-0.021106204017996788,0.061604470014572144,1.069247841835022,1.305470585823059,-4.384761333465576,-2.3495266437530518,1.9948527812957764,3.98588490486145,0.3178579807281494,0.18992941081523895,0.44008487462997437,1.978756308555603
201,25088,25087,-0.042837150394916534,0.06097492575645447,1.0394314527511597,0.38136613368988037,-3.4270875453948975,-1.8511323928833008,1.995246410369873,3.9858415126800537,0.31677350401878357,0.28605595231056213,0.3868032693862915,1.9680535793304443
202,25098,25097,0.029884861782193184,-0.044265661388635635,0.9420486688613892,-0.41392087936401367,-4.102133274078369,-1.869526743888855,1.9957443475723267,3.986616373062134,0.3170841336250305,0.3019392192363739,0.408367395401001,1.9458268880844116
203,25108,25107,-0.0276471059769392,0.06783754378557205,1.0068691968917847,-1.1929163932800293,-1.1339890956878662,-2.1323130130767822,1.9965567588806152,3.9864795207977295,0.3173735737800598,0.3802957832813263,0.41413211822509766,1.9293125867843628
204,25118,25117,-0.008120641112327576,0.03612160310149193,0.9657036662101746,-0.9873346090316772,-1.8457322120666504,-1.5896638631820679,1.997310757637024,3.986539602279663,0.3187750577926636,0.3986161947250366,0.4048997461795807,1.9074070453643799
205,25128,25127,0.013551117852330208,0.08342904597520828,1.0940971374511719,0.41521987318992615,-1.5343457460403442,-1.4182337522506714,1.9990408420562744,3.9870200157165527,0.31907984614372253,0.2754038870334625,0.41964688897132874,1.879536747932434
206,25138,25137,0.009849810041487217,0.046371929347515106,1.0725454092025757,-0.45689857006073,0.9443255066871643,-2.5249526500701904,1.9996275901794434,3.9870963096618652,0.31944388151168823,0.4011177122592926,0.351739764213562,1.881354570388794
207,25148,25147,-0.02253805659711361,0.0003725052811205387,1.0145634412765503,-0.8731659650802612,2.56731915473938,-2.788818836212158,1.9998209476470947,3.988102436065674,0.31577637791633606,0.25300511717796326,0.36044415831565857,1.8508919477462769
208,25158,25157,-0.0363779254257679,-0.020331542938947678,0.950491189956665,-1.2231475114822388,3.5028634071350098,-2.843414783477783,2.002227544784546,3.9882149696350098,0.3159011900424957,0.2511749863624573,0.3592110276222229,1.826702356338501
209,25168,25167,0.018111279234290123,-0.08420015871524811,0.8925610780715942,0.21298372745513916,1.6108323335647583,-2.5050408840179443,2.0031814575195312,3.987891674041748,0.31613585352897644,0.33159759640693665,0.36436837911605835,1.804744839668274
210,25178,25177,0.009920690208673477,-0.01812606491148472,0.9674075841903687,0.286205917596817,-3.313135862350464,-2.0941402912139893,2.0033600330352783,3.9881386756896973,0.3164086937904358,0.2919863164424896,0.377106636762619,1.7771321535110474
211,25188,25187,-0.029769178479909897,-0.01308705285191536,0.9870404601097107,0.6529064774513245,-4.28592586517334,-1.6949278116226196,2.0036041736602783,3.9865128993988037,0.3176769018173218,0.37310096621513367,0.3959752023220062,1.7548720836639404
212,25198,25197,-0.042396318167448044,-0.019492069259285927,0.9872938394546509,-0.14690592885017395,-2.2301464080810547,-1.521401047706604,2.004157543182373,3.9863362312316895,0.3178459107875824,0.4112302362918854,0.4022435247898102,1.7306790351867676
213,25208,25207,0.05296832695603371,-0.08326888084411621,0.9880235195159912,-1.2545777559280396,0.7273192405700684,-1.2905142307281494,2.0055274963378906,3.9865622520446777,0.31792914867401123,0.4296357333660126,0.33208832144737244,1.7324706315994263
214,25218,25217,0.04685613885521889,-0.09620871394872665,0.975797712802887,-1.2486120462417603,1.1485260725021362,-1.6466810703277588,2.0061419010162354,3.9868764877319336,0.3166502118110657,0.45329833030700684,0.32928916811943054,1.7193820476531982
215,25228,25227,-0.00476116593927145,-0.03495724871754646,0.9783288836479187,-0.6776422262191772,2.895216226577759,-1.304945945739746,2.007037878036499,3.987285852432251,0.31663399934768677,0.3742091655731201,0.3250424265861511,1.6908550262451172
216,25238,25237,0.00957842543721199,-0.10283510386943817,0.9666441679000854,-0.6827206611633301,4.440818786621094,-1.3251088857650757,2.0091145038604736,3.986725091934204,0.31660187244415283,0.3513147830963135,0.324726939201355,1.676858901977539
217,25248,25247,0.0028530277777463198,-0.07778217643499374,0.9740975499153137,-0.21956123411655426,3.64650559425354,-0.8326846361160278,2.01039719581604,3.9867751598358154,0.3153653144836426,0.3930651545524597,0.3250173330307007,1.6643929481506348
218,25258,25257,0.029566247016191483,-0.05336654931306839,0.9540243148803711,0.1341724395751953,4.889270782470703,-1.1592319011688232,2.0099620819091797,3.9861953258514404,0.31530702114105225,0.33920517563819885,0.40494123101234436,1.6402145624160767
219,25268,25267,0.04289782792329788,-0.01719496212899685,0.9878939986228943,0.02227126993238926,4.957271575927734,-0.5880074501037598,2.011256456375122,3.9853971004486084,0.3151237964630127,0.355874627828598,0.32936689257621765,1.6433178186416626
220,25278,25277,0.04492494836449623,-0.025113720446825027,0.9769421219825745,-1.314820647239685,2.9260528087615967,-0.9714644551277161,2.011558771133423,3.9862029552459717,0.3149825930595398,0.3131376802921295,0.3330194056034088,1.635730266571045
221,25288,25287,-0.0013922527432441711,-0.008056574501097202,1.0089908838272095,-1.129696011543274,2.0259079933166504,-1.5449492931365967,2.0114188194274902,3.9854626655578613,0.31410354375839233,0.19067415595054626,0.322299987077713,1.6227010488510132
222,25298,25297,-0.0054506100714206696,-0.12405934184789658,0.9920768737792969,-1.873223900794983,0.9359434247016907,-1.1415361166000366,2.0138769149780273,3.9849417209625244,0.3137412965297699,0.1854160577058792,0.3041945993900299,1.6025092601776123
223,25308,25307,-0.026139317080378532,-0.0745331421494484,1.041100263595581,-1.8342235088348389,1.9800245761871338,-1.1047214269638062,2.0138065814971924,3.984030246734619,0.313487708568573,0.16939722001552582,0.2884945273399353,1.583989143371582
224,25318,25317,0.03396653011441231,-0.03825477138161659,0.9530016183853149,-1.3319545984268188,1.054336667060852,-0.6827626824378967,2.015017509460449,3.9835970401763916,0.313869446516037,0.1583501696586609,0.2682025134563446,1.5570107698440552
225,25328,25327,0.05520177632570267,-0.023432094603776932,0.9651359915733337,-1.7305023670196533,2.626147747039795,-0.4530588686466217,2.0157532691955566,3.983602523803711,0.31367236375808716,-0.0022522076033055782,0.1726730763912201,1.544455647468567
226,25338,25337,0.06339623034000397,-0.12164489179849625,0.9888779520988464,-2.573181629180908,2.710902452468872,-0.7802388668060303,2.017728328704834,3.983030319213867,0.3132948875427246,-0.003549405839294195,0.15562541782855988,1.5335345268249512
227,25348,25347,0.041574276983737946,-0.21430040895938873,1.0161621570587158,-1.2619041204452515,-0.21989701688289642,-0.8147981762886047,2.018815755844116,3.9831154346466064,0.3130384385585785,-0.0648101270198822,0.14220693707466125,1.5239183902740479
228,25358,25357,0.0016196350334212184,-0.2049376368522644,1.0477741956710815,2.4106016159057617,-3.9741413593292236,-0.7392531633377075,2.019840955734253,3.9831395149230957,0.31274375319480896,-0.0005024387501180172,0.16046810150146484,1.5143901109695435
229,25368,25367,0.0197362769395113,-0.1188778281211853,0.9802853465080261,3.5213868618011475,-2.8731534481048584,-0.7613519430160522,2.0201501846313477,3.982607126235962,0.31258440017700195,0.08002025634050369,0.21143151819705963,1.4961045980453491
230,25378,25377,0.03624093532562256,-0.018354374915361404,0.9605894684791565,4.7452192306518555,-1.188072681427002,-1.0714502334594727,2.020153760910034,3.9821386337280273,0.3119799792766571,0.22159139811992645,0.20419572293758392,1.4940478801727295
231,25388,25387,0.09759558737277985,-0.03551696240901947,0.9632998704910278,1.9368655681610107,0.30159154534339905,-0.9295927882194519,2.019221544265747,3.9826879501342773,0.3117482662200928,0.25742247700691223,0.27181383967399597,1.4932981729507446
232,25398,25397,0.08113134652376175,-0.11259592324495316,1.0356404781341553,-0.062059808522462845,-0.16046056151390076,-1.370181679725647,2.020198345184326,3.9820826053619385,0.3114762008190155,0.12994922697544098,0.22883640229701996,1.488436222076416
233,25408,25407,0.003090506885200739,-0.15976306796073914,1.0479307174682617,-1.3600680828094482,0.3071054220199585,-1.162629246711731,2.0216927528381348,3.982788562774658,0.31115230917930603,0.08658796548843384,0.238858163356781,1.4732015132904053
234,25418,25417,-0.01669766753911972,-0.07806247472763062,0.9972270131111145,-2.375760078430176,3.003192901611328,-0.8574397563934326,2.023406505584717,3.982656717300415,0.3125278353691101,0.01889791712164879,0.22207801043987274,1.4634848833084106
235,25428,25427,-0.008129616267979145,0.007487460970878601,1.0119173526763916,-1.881246566772461,2.9455854892730713,-0.48583635687828064,2.0251288414001465,3.983224391937256,0.3123224973678589,0.0869268849492073,0.19465836882591248,1.4628784656524658
236,25438,25437,0.043624069541692734,0.017297670245170593,0.9847720861434937,-0.29411911964416504,6.362749099731445,-1.1522854566574097,2.0256471633911133,3.9833247661590576,0.31234225630760193,0.059074923396110535,0.17738011479377747,1.4505867958068848
237,25448,25447,-0.0058426400646567345,0.0032883326057344675,1.0677194595336914,0.41834089159965515,-0.16312548518180847,-1.0722582340240479,2.027590751647949,3.9826669692993164,0.3075340986251831,-0.013432847335934639,0.26408717036247253,1.4340826272964478
238,25458,25457,-0.014901505783200264,-0.03380368649959564,1.078744888305664,1.3149553537368774,-4.873948097229004,-0.8113811612129211,2.0276598930358887,3.981623649597168,0.30718711018562317,-0.01987753063440323,0.266935795545578,1.4156405925750732
239,25468,25467,-0.09530477225780487,0.19760701060295105,1.034935474395752,1.6817286014556885,-6.340368270874023,0.2994612157344818,2.0295732021331787,3.9813098907470703,0.30677294731140137,0.025877004489302635,0.3799600899219513,1.4031962156295776
240,25478,25477,-0.06382294744253159,0.2330847978591919,1.0188730955123901,-1.3876463174819946,-2.9656436443328857,0.26220420002937317,2.0295183658599854,3.9801032543182373,0.30945885181427,0.14073172211647034,0.30257779359817505,1.4106900691986084
