,timestamp_start,timestamp_end,acc.x,acc.y,acc.z,gyro.x,gyro.y,gyro.z,stateEstimate.x,stateEstimate.y,stateEstimate.z,stabilizer.pitch,stabilizer.roll,stabilizer.yaw
0,19737,19736,-0.019096923992037773,-0.04708465561270714,1.0908081531524658,-5.624388694763184,4.13382625579834,0.4394579827785492,1.8395861387252808,3.7619335651397705,0.16008366644382477,1.1022201776504517,-0.14928027987480164,2.3950352668762207
1,19747,19746,0.050159648060798645,-0.04893936589360237,0.9831464290618896,-2.460598945617676,3.839648962020874,0.3401924967765808,1.840449333190918,3.760810375213623,0.16236023604869843,1.105347752571106,-0.006445371080189943,2.385986566543579
2,19757,19756,-0.014888526871800423,-0.03804819658398628,1.0214972496032715,1.008742094039917,0.04412892088294029,-0.04496750235557556,1.8419110774993896,3.760483503341675,0.16486243903636932,1.0102322101593018,0.00014055610517971218,2.386094093322754
3,19767,19766,-0.01907404512166977,-0.1442885845899582,1.0363523960113525,2.1638832092285156,-1.268563985824585,0.0855979174375534,1.8407843112945557,3.760977268218994,0.16772973537445068,1.2855918407440186,-0.18290363252162933,2.410275459289551
4,19777,19776,0.004356577526777983,-0.06796783208847046,1.0164457559585571,2.4351954460144043,-3.182351589202881,-0.13993076980113983,1.8432761430740356,3.761967658996582,0.16739462316036224,1.0061339139938354,-0.15958477556705475,2.4063379764556885
5,19787,19786,0.00822499394416809,0.006295390892773867,1.0492068529129028,2.361860513687134,-5.324641227722168,-0.42752695083618164,1.8427530527114868,3.762701988220215,0.16992025077342987,1.2538312673568726,-0.2793410122394562,2.42526912689209
6,19797,19796,0.0022755556274205446,-0.027992436662316322,1.0205469131469727,3.074086904525757,-6.791318416595459,-0.4278225600719452,1.8431830406188965,3.763857841491699,0.17241182923316956,1.3448213338851929,-0.223251610994339,2.419891595840454
7,19807,19806,-0.0012701639207080007,0.01748535968363285,1.0341706275939941,3.1353156566619873,-6.750565052032471,-0.5959682464599609,1.838849425315857,3.7572851181030273,0.17486873269081116,2.3446524143218994,0.8849305510520935,2.254093885421753
8,19817,19816,-0.054716140031814575,0.14968357980251312,0.9212068915367126,-1.6194888353347778,-1.3788946866989136,1.29728102684021,1.8371055126190186,3.7572782039642334,0.17803381383419037,2.427645206451416,0.776089072227478,2.2731680870056152
9,19827,19826,-0.07738248258829117,0.15652355551719666,1.0460339784622192,-9.818937301635742,2.9899098873138428,1.6356878280639648,1.8374475240707397,3.7574403285980225,0.18182452023029327,2.338557243347168,0.6112052798271179,2.311614751815796
10,19837,19836,0.011545275337994099,-0.13916733860969543,1.0132176876068115,-18.55248260498047,19.60989761352539,0.2647290825843811,1.8389618396759033,3.756786823272705,0.1846972405910492,2.147738456726074,0.6959405541419983,2.277139902114868
11,19847,19846,-0.0044832308776676655,-0.020446138456463814,1.0430889129638672,-21.56124496459961,26.555280685424805,-0.0025646185968071222,1.8415499925613403,3.760178327560425,0.18914222717285156,1.7673310041427612,0.26573821902275085,2.344512701034546
12,19857,19856,-0.029517417773604393,0.055328369140625,0.9928083419799805,-24.76970672607422,30.964860916137695,0.14691267907619476,1.8427125215530396,3.7603657245635986,0.1922198385000229,1.2966654300689697,-0.11371681094169617,2.3744146823883057
13,19867,19866,-0.008247781544923782,-0.01120197307318449,0.9626693725585938,-22.195228576660156,29.018695831298828,0.46380144357681274,1.8412511348724365,3.763167381286621,0.19513747096061707,1.2216308116912842,-0.579475998878479,2.4399523735046387
14,19877,19876,-0.03645959869027138,0.03831883519887924,1.033849835395813,-14.564242362976074,19.74372100830078,0.6159844398498535,1.8439513444900513,3.765171527862549,0.19607077538967133,0.709528386592865,-0.9724928736686707,2.4679713249206543
15,19887,19886,0.005493395961821079,0.018189052119851112,0.9947375059127808,-3.9025866985321045,12.572019577026367,0.519814133644104,1.8438571691513062,3.7663803100585938,0.19862093031406403,0.5053846836090088,-1.2155202627182007,2.4852588176727295
16,19897,19896,0.055726513266563416,-0.14386913180351257,0.9681606292724609,7.518031120300293,3.7358815670013428,0.4165123701095581,1.8450678586959839,3.7662301063537598,0.20151306688785553,0.12525610625743866,-1.1322190761566162,2.4666850566864014
17,19907,19906,0.023231888189911842,-0.21095168590545654,0.9966078400611877,17.79656410217285,-5.107256889343262,0.48705407977104187,1.8422149419784546,3.7660484313964844,0.20332732796669006,0.7164124250411987,-1.1038511991500854,2.442260265350342
18,19917,19916,-0.00247807870618999,-0.2159578502178192,0.9799482822418213,23.051523208618164,-7.79892110824585,0.6797645092010498,1.8424830436706543,3.7657504081726074,0.2060888111591339,0.7046313285827637,-0.8230574727058411,2.4350225925445557
19,19927,19926,-0.04253396391868591,-0.11214066296815872,0.9887418746948242,22.730947494506836,-4.884976863861084,0.4088027775287628,1.844140887260437,3.7673003673553467,0.20871224999427795,0.7471949458122253,-0.6869934797286987,2.4551265239715576
20,19937,19936,-0.03121318854391575,-0.03971857950091362,0.9357503056526184,16.17557144165039,1.2637559175491333,-0.34629738330841064,1.8447189331054688,3.767385244369507,0.21043534576892853,0.7587860822677612,-0.37516292929649353,2.4592249393463135
21,19947,19946,0.015336520038545132,-0.035291075706481934,0.9205528497695923,7.120632171630859,7.725725173950195,-1.2038923501968384,1.8467340469360352,3.7690114974975586,0.21302086114883423,0.5954186320304871,-0.2056896835565567,2.470881938934326
22,19957,19956,0.11267287284135818,-0.06219453737139702,0.9241013526916504,-2.907569408416748,12.437591552734375,-1.4080886840820312,1.8478662967681885,3.7692551612854004,0.21571654081344604,0.40929877758026123,-0.17818886041641235,2.4737284183502197
23,19967,19966,0.03719303756952286,-0.025123553350567818,0.9623662829399109,-10.30440902709961,13.863447189331055,-1.9072346687316895,1.8497170209884644,3.7715277671813965,0.2180059403181076,0.24012918770313263,-0.2392776757478714,2.4675753116607666
24,19977,19976,0.0482613742351532,-0.11800562590360641,0.9773831963539124,-14.250594139099121,12.284473419189453,-1.562502384185791,1.850264310836792,3.7722980976104736,0.2175319939851761,0.14480918645858765,-0.33205145597457886,2.446512222290039
25,19987,19986,0.05443590134382248,-0.16423438489437103,0.949199378490448,-13.172658920288086,8.871614456176758,-1.8436371088027954,1.8502963781356812,3.7728281021118164,0.21957866847515106,0.0013952249428257346,-0.5625923871994019,2.4363226890563965
26,19997,19996,0.04032227396965027,-0.11885819584131241,0.9395357966423035,-8.391313552856445,5.278128147125244,-1.653804063796997,1.8509210348129272,3.7748351097106934,0.2215573936700821,-0.0018731752643361688,-0.7613511681556702,2.4154863357543945
27,20007,20006,0.025295943021774292,-0.04414341226220131,0.9283249378204346,-0.8427425026893616,1.8246359825134277,-1.5737011432647705,1.8506746292114258,3.775153160095215,0.22401924431324005,-0.03959530591964722,-0.86617112159729,2.398430109024048
28,20017,20016,0.041199199855327606,-0.016121644526720047,0.8867060542106628,7.61014986038208,0.08497178554534912,-1.2086647748947144,1.8500596284866333,3.7750909328460693,0.2260293811559677,-0.10406064242124557,-0.8469755053520203,2.386117696762085
29,20027,20026,0.07583655416965485,-0.027406448498368263,0.850847065448761,14.84571647644043,-1.7218067646026611,-1.2132084369659424,1.850021481513977,3.77457332611084,0.2279476821422577,-0.13517414033412933,-0.6891050338745117,2.3771889209747314
30,20037,20036,0.09006352722644806,-0.04227261245250702,0.8789450526237488,17.396047592163086,-1.0350297689437866,-0.8638684749603271,1.8522074222564697,3.7744855880737305,0.23011361062526703,-0.3619791269302368,-0.5012730956077576,2.38447642326355
31,20047,20046,0.08174490183591843,-0.09919477254152298,0.9211737513542175,16.40770149230957,-4.723668098449707,-1.2157429456710815,1.8571137189865112,3.775002956390381,0.23128636181354523,-0.9218505024909973,-0.2045442759990692,2.4279065132141113
32,20057,20056,0.13293173909187317,-0.22476349771022797,0.9405961036682129,11.462735176086426,-5.7696967124938965,-1.449149489402771,1.8510314226150513,3.778838634490967,0.235737606883049,-0.04874724522233009,-0.60445636510849,2.3153154850006104
33,20067,20066,0.06747593730688095,-0.27006229758262634,0.9970073103904724,7.091088771820068,-11.75713062286377,-1.215835452079773,1.8521969318389893,3.7799746990203857,0.23758788406848907,-0.10991773009300232,-0.4237429201602936,2.3154568672180176
34,20077,20076,0.008742274716496468,-0.24445024132728577,0.9823135733604431,4.539801597595215,-9.216261863708496,-0.9773984551429749,1.852347493171692,3.779634714126587,0.23876182734966278,-0.013570585288107395,-0.24493110179901123,2.314575672149658
35,20087,20086,-0.01954907923936844,0.011585754342377186,1.027177095413208,3.7024457454681396,-2.957214593887329,-1.3880877494812012,1.8509676456451416,3.780254364013672,0.24041076004505157,0.11674004048109055,-0.19082967936992645,2.303844690322876
36,20097,20096,0.007092068903148174,0.09850577265024185,0.9893364906311035,4.797126770019531,0.4574323296546936,-1.1865534782409668,1.8508520126342773,3.7812626361846924,0.24197934567928314,0.1644279658794403,-0.2233000546693802,2.286869764328003
37,20107,20106,0.08216282725334167,0.0020682131871581078,0.890201985836029,6.0902018547058105,4.746639251708984,-1.022579312324524,1.8528306484222412,3.780862331390381,0.2406770884990692,0.07117331027984619,-0.08596818894147873,2.285900831222534
38,20117,20116,0.11486243456602097,0.028407029807567596,0.8903055787086487,7.312281608581543,7.2819719314575195,-1.1446605920791626,1.8532705307006836,3.7808001041412354,0.24206332862377167,-0.009834939613938332,0.06569472700357437,2.2838692665100098
39,20127,20126,0.007181873545050621,0.026416590437293053,1.0058329105377197,8.192825317382812,5.7935380935668945,-1.1109493970870972,1.8536096811294556,3.7808585166931152,0.24336497485637665,-0.045894864946603775,0.15639562904834747,2.273268222808838
40,20137,20136,0.09982578456401825,-0.0438874252140522,0.9682766795158386,6.290665149688721,7.106059551239014,-1.25358247756958,1.8542683124542236,3.781003713607788,0.2444249838590622,-0.13313499093055725,0.3219139277935028,2.2693960666656494
41,20147,20146,0.12612897157669067,-0.07258917391300201,0.9658711552619934,5.3650383949279785,0.6736456155776978,-1.6019080877304077,1.8546602725982666,3.780634880065918,0.2455771416425705,-0.22533923387527466,0.4508243799209595,2.2629456520080566
42,20157,20156,-0.0004623997665476054,0.0328700952231884,0.9744418263435364,2.1886391639709473,-2.26399564743042,-1.6291497945785522,1.8556082248687744,3.780380964279175,0.24667389690876007,-0.31502407789230347,0.5491259694099426,2.2506885528564453
43,20167,20166,0.008563747629523277,0.09271201491355896,0.8631507158279419,-0.2573573589324951,-1.706361174583435,-2.060622215270996,1.8557425737380981,3.7809855937957764,0.24922238290309906,-0.2750731408596039,0.5160932540893555,2.2292721271514893
44,20177,20176,-0.006889769341796637,0.1691049337387085,0.9247336387634277,-2.3300724029541016,-9.271849632263184,-1.6294169425964355,1.8574210405349731,3.781438112258911,0.2503517270088196,-0.21348443627357483,0.5950556397438049,2.2180492877960205
45,20187,20186,0.027975652366876602,0.08409039676189423,0.9913826584815979,-3.1856167316436768,-9.457606315612793,-2.0412368774414062,1.8568484783172607,3.782902956008911,0.25151777267456055,-0.07273631542921066,0.4103991985321045,2.1880240440368652
46,20197,20196,-0.0362246111035347,0.025728043168783188,1.1064989566802979,-3.4836795330047607,-11.091728210449219,-1.932094931602478,1.8570817708969116,3.783477783203125,0.25250157713890076,0.08377594500780106,0.45283371210098267,2.1772069931030273
47,20207,20206,-0.08878608793020248,-0.023331407457590103,1.0809861421585083,-1.803373098373413,-7.881143569946289,-1.9873907566070557,1.8571712970733643,3.7812891006469727,0.25579407811164856,0.2528231143951416,0.7029315233230591,2.1834640502929688
48,20217,20216,-0.031246645376086235,0.0081440145149827,1.0529227256774902,-3.083066940307617,-0.9881415367126465,-1.8807992935180664,1.8568977117538452,3.7816014289855957,0.25706806778907776,0.3530023396015167,0.7212197780609131,2.1656036376953125
49,20227,20226,-0.01098429411649704,0.12540395557880402,0.955266535282135,-4.827810764312744,3.610095262527466,-1.8307116031646729,1.8576616048812866,3.779083490371704,0.2581489384174347,0.3560338616371155,0.9360739588737488,2.1595075130462646
50,20237,20236,-0.013158164918422699,0.21717093884944916,0.9778212308883667,-7.631192207336426,7.133645534515381,-1.9782437086105347,1.8574873208999634,3.780261993408203,0.25922197103500366,0.282258540391922,0.7227495312690735,2.1281988620758057
51,20247,20246,0.03370872139930725,0.1465711146593094,0.9790647625923157,-11.370562553405762,8.339526176452637,-1.9659526348114014,1.861614465713501,3.7859725952148438,0.2610844075679779,-0.14615005254745483,0.10486681759357452,2.0476322174072266
52,20257,20256,0.03353896364569664,0.026612045243382454,0.9902182817459106,-11.37469482421875,6.225303649902344,-1.1742814779281616,1.859886884689331,3.7857954502105713,0.26267120242118835,-0.03101033717393875,0.08222141116857529,2.051253318786621
53,20267,20266,0.027367422357201576,-0.05238005891442299,0.9494964480400085,-7.849081516265869,2.896087408065796,-1.1208335161209106,1.8622400760650635,3.790940523147583,0.2610018253326416,-0.19523002207279205,-0.3842463493347168,2.010530471801758
54,20277,20276,0.003086367854848504,-0.03785330429673195,0.9627471566200256,-1.4499074220657349,-2.930525779724121,-0.8983477354049683,1.8656944036483765,3.792771339416504,0.26200345158576965,-0.3594607412815094,-0.45102232694625854,1.9903661012649536
55,20287,20286,0.004826392978429794,6.171679706312716e-05,1.001739740371704,8.192007064819336,-7.944127082824707,-0.3534265458583832,1.8649879693984985,3.7923216819763184,0.26335543394088745,-0.2631664276123047,-0.3178980350494385,1.9957163333892822
56,20297,20296,0.018628649413585663,-0.001997667830437422,0.9959262013435364,16.300756454467773,-12.204471588134766,-0.1942043900489807,1.867287039756775,3.793179750442505,0.2642627954483032,-0.3937942385673523,-0.2094806730747223,1.9862027168273926
57,20307,20306,-0.012847251258790493,0.04297516494989395,0.9441145658493042,20.21581268310547,-14.288710594177246,-0.030700059607625008,1.8677016496658325,3.792405605316162,0.26426631212234497,-0.21093738079071045,0.09870916604995728,1.9988645315170288
58,20317,20316,0.015850381925702095,-0.10085082054138184,1.0020579099655151,18.969968795776367,-16.2757511138916,0.16065889596939087,1.8661463260650635,3.79252290725708,0.26532626152038574,0.07950396835803986,0.37267571687698364,2.0079877376556396
59,20327,20326,0.0353565514087677,-0.0754353329539299,0.9744121432304382,12.028956413269043,-14.468280792236328,-0.08406534790992737,1.868179202079773,3.7929069995880127,0.2662779986858368,0.14669978618621826,0.5222386121749878,2.0027718544006348
60,20337,20336,-0.003479417646303773,-0.058367036283016205,1.0009593963623047,2.6721644401550293,-9.953062057495117,-0.6310973167419434,1.8685119152069092,3.793095350265503,0.27137523889541626,0.2685610353946686,0.7173783779144287,2.0051283836364746
61,20347,20346,0.020710986107587814,-0.05889962613582611,0.9660564661026001,-4.590527534484863,-6.1231369972229,-1.112597942352295,1.8710020780563354,3.7949039936065674,0.2725481688976288,0.25408053398132324,0.6747968196868896,1.9860073328018188
62,20357,20356,0.11099445074796677,-0.06368747353553772,0.890870213508606,-11.587189674377441,-0.9939185380935669,-1.337695837020874,1.8707448244094849,3.7971253395080566,0.2737909257411957,0.39442992210388184,0.5854297876358032,1.976637840270996
63,20367,20366,0.032019805163145065,-0.007643979042768478,0.9717767238616943,-14.239802360534668,-1.2061436176300049,-1.5446021556854248,1.8699617385864258,3.7990152835845947,0.2756359875202179,0.543339729309082,0.4064422845840454,1.9696439504623413
64,20377,20376,0.08112287521362305,-0.08925750106573105,0.997108519077301,-12.247611999511719,0.12079280614852905,-1.5353708267211914,1.8693948984146118,3.7965049743652344,0.2767695486545563,0.6602634191513062,0.5665678977966309,1.9690442085266113
65,20387,20386,0.09660281985998154,-0.14789971709251404,0.9484597444534302,-8.548700332641602,0.6394871473312378,-1.628672480583191,1.8697199821472168,3.798558235168457,0.2778736352920532,0.6746295690536499,0.3562646806240082,1.9578913450241089
66,20397,20396,0.009036974050104618,-0.04064701125025749,1.0020605325698853,-4.440049648284912,0.14790304005146027,-1.781371831893921,1.8707337379455566,3.7989003658294678,0.27888500690460205,0.6859951019287109,0.3657650947570801,1.9438858032226562
67,20407,20406,0.01328731793910265,0.006859768182039261,0.9312880039215088,-1.3164469003677368,1.0118416547775269,-2.059098958969116,1.8707022666931152,3.79927396774292,0.2785499691963196,0.6838111877441406,0.3498295843601227,1.927072286605835
68,20417,20416,0.049197450280189514,0.01417148020118475,0.8751788139343262,0.558137059211731,1.1269017457962036,-1.952052354812622,1.8722765445709229,3.800513744354248,0.279451847076416,0.6586645841598511,0.30964231491088867,1.9051165580749512
69,20427,20426,0.026287753134965897,0.02098694071173668,0.9723721146583557,1.2061034440994263,-0.12343467772006989,-1.8091096878051758,1.8728418350219727,3.8004517555236816,0.2802887260913849,0.6494342088699341,0.29659518599510193,1.8852988481521606
70,20437,20436,0.03195697069168091,0.0009142112685367465,0.9817596673965454,0.5902789235115051,0.42653167247772217,-2.185411214828491,1.873535394668579,3.801349401473999,0.2836954891681671,0.6331047415733337,0.3639194369316101,1.866956353187561
71,20447,20446,0.004064236301928759,-0.0379282608628273,1.0282546281814575,-0.6083149909973145,2.000216245651245,-2.2655208110809326,1.8741132020950317,3.801853895187378,0.28457513451576233,0.6101469397544861,0.3428601324558258,1.8463891744613647
72,20457,20456,0.004030947107821703,-0.10886582732200623,1.0551121234893799,-2.348802328109741,-2.102217435836792,-2.416743516921997,1.8741093873977661,3.8020331859588623,0.2855686545372009,0.5761693716049194,0.300300270318985,1.8229539394378662
73,20467,20466,-0.025220153853297234,-0.1027468889951706,1.0169737339019775,-3.7393858432769775,-1.9924917221069336,-2.513413667678833,1.8746007680892944,3.8041346073150635,0.28667837381362915,0.6046677827835083,0.16124875843524933,1.8047648668289185
74,20477,20476,-0.10750888288021088,-0.009242488071322441,1.0147172212600708,-4.999420166015625,-3.2782204151153564,-2.245558977127075,1.87423574924469,3.8037097454071045,0.2876303791999817,0.6556551456451416,0.16273480653762817,1.7816071510314941
75,20487,20486,-0.05791287496685982,0.08338440209627151,0.9802417755126953,-5.292766094207764,-2.044999361038208,-2.274712085723877,1.8742825984954834,3.8029346466064453,0.28861522674560547,0.702703595161438,0.1467205286026001,1.7556731700897217
76,20497,20496,-0.013325249776244164,0.11767761409282684,0.9907363057136536,-4.551098346710205,-0.6983610391616821,-2.464984178543091,1.8743672370910645,3.8032543659210205,0.2870030701160431,0.7245161533355713,0.0450565442442894,1.7347962856292725
77,20507,20506,0.010326795279979706,0.00013787695206701756,0.9405489563941956,-3.7433581352233887,0.7156533002853394,-2.289799451828003,1.8739804029464722,3.8027596473693848,0.2878127098083496,0.7235838174819946,0.039585959166288376,1.708544373512268
78,20517,20516,0.015592493116855621,-0.13208043575286865,0.8969284892082214,-1.400766134262085,3.038222312927246,-2.2848191261291504,1.8740726709365845,3.8022072315216064,0.2885720431804657,0.6904271841049194,0.050096478313207626,1.6800888776779175
79,20527,20526,-0.014917843043804169,0.020883161574602127,1.0180432796478271,-0.23008129000663757,3.2602593898773193,-2.4121413230895996,1.8733704090118408,3.801980495452881,0.28926882147789,0.7097334265708923,0.08801703155040741,1.6547324657440186
80,20537,20536,-0.01563010737299919,0.019849905744194984,1.0046359300613403,0.011209391057491302,3.235260009765625,-2.404160261154175,1.8734298944473267,3.8022260665893555,0.2933662235736847,0.6382628083229065,0.05601651966571808,1.6324008703231812
81,20547,20546,-0.04809245094656944,0.09386416524648666,1.013238787651062,-0.6176238656044006,3.1928188800811768,-2.468698024749756,1.873443603515625,3.804425001144409,0.2942349910736084,0.6534375548362732,-0.12288514524698257,1.6208430528640747
82,20557,20556,-0.06222431734204292,0.16293588280677795,0.9841925501823425,-1.904348611831665,3.12982439994812,-2.8161678314208984,1.873382329940796,3.8046815395355225,0.2951112985610962,0.5860273241996765,-0.1433948129415512,1.5961617231369019
83,20567,20566,-0.03310060873627663,0.19272349774837494,0.9498156309127808,-2.4299941062927246,3.3806231021881104,-2.706129789352417,1.8735530376434326,3.8073277473449707,0.29560017585754395,0.5198193192481995,-0.18229112029075623,1.5784672498703003
84,20577,20576,-0.01498910877853632,0.23664866387844086,0.9533460140228271,-1.5858656167984009,4.252951145172119,-2.782233953475952,1.873491644859314,3.808295249938965,0.2964213192462921,0.44521623849868774,-0.21886539459228516,1.5513544082641602
85,20587,20586,0.0022918242029845715,0.24609535932540894,0.9547678232192993,0.4607911705970764,3.9063169956207275,-2.4130611419677734,1.8709629774093628,3.806096315383911,0.29724952578544617,0.6720487475395203,-0.006208206061273813,1.5138118267059326
86,20597,20596,0.004376537632197142,0.06003868952393532,0.9715012311935425,2.0686488151550293,3.298600435256958,-1.8800712823867798,1.8704618215560913,3.8089652061462402,0.29664847254753113,0.5783675909042358,-0.16920337080955505,1.4989055395126343
87,20607,20606,0.02426982671022415,0.062396690249443054,0.9652877449989319,2.5740838050842285,4.57277250289917,-2.5176143646240234,1.8735616207122803,3.8091347217559814,0.29734134674072266,0.16623355448246002,-0.13489791750907898,1.4785079956054688
88,20617,20616,0.02580930106341839,-3.231835216865875e-05,0.9565666317939758,2.491896629333496,4.183386325836182,-2.5218982696533203,1.8734657764434814,3.809399127960205,0.29784172773361206,0.09609875082969666,-0.09733002632856369,1.4539988040924072
89,20627,20626,0.017158718779683113,-0.014712338335812092,0.9664782881736755,1.8657996654510498,1.6087119579315186,-2.633791923522949,1.8736642599105835,3.8100595474243164,0.29834404587745667,0.041712936013936996,-0.14236736297607422,1.431141972541809
90,20637,20636,-0.024135004729032516,0.013748323544859886,0.9760780334472656,1.7898938655853271,-1.757907748222351,-2.5697240829467773,1.873525619506836,3.809962511062622,0.298698365688324,0.032243359833955765,-0.10819472372531891,1.404746174812317
91,20647,20646,-0.07871735095977783,0.07698306441307068,0.9085099697113037,1.5328065156936646,-4.44256591796875,-2.349186897277832,1.8736993074417114,3.80981183052063,0.2991586923599243,0.0767103061079979,-0.07894445210695267,1.3777774572372437
92,20657,20656,-0.012043958529829979,-0.007578504271805286,0.933271586894989,0.49884548783302307,-6.150251388549805,-1.51039719581604,1.8740218877792358,3.810812473297119,0.299566388130188,0.09433984756469727,-0.05770619213581085,1.3549437522888184
93,20667,20666,0.024439994245767593,-0.027711572125554085,0.9650120139122009,-0.6445924043655396,-5.1893510818481445,-2.023334503173828,1.8735920190811157,3.811937093734741,0.30072852969169617,0.21768474578857422,-0.12825438380241394,1.3383405208587646
94,20677,20676,0.0336826853454113,0.10205836594104767,0.9378772974014282,-1.161422848701477,-4.563104152679443,-1.863987684249878,1.873220682144165,3.81238055229187,0.3010556697845459,0.322618693113327,-0.13481475412845612,1.3195451498031616
95,20687,20686,0.037428174167871475,0.034663863480091095,0.962669312953949,0.639741837978363,-4.527679443359375,-2.2193470001220703,1.866579294204712,3.805492401123047,0.3013576865196228,1.115702509880066,0.5686056017875671,1.2839818000793457
96,20697,20696,-0.001539020100608468,0.015235571190714836,1.0336923599243164,0.2428165078163147,0.035423241555690765,-1.7757915258407593,1.8653544187545776,3.805377960205078,0.3030160963535309,1.2563304901123047,0.515800416469574,1.2635178565979004
97,20707,20706,-0.03526432067155838,-0.12877920269966125,1.0420676469802856,-5.696718215942383,9.084382057189941,-0.6799584627151489,1.8654323816299438,3.805711030960083,0.3035905063152313,1.1459088325500488,0.4368061423301697,1.2498130798339844
98,20717,20716,-0.04271753504872322,-0.23321004211902618,1.0290188789367676,-10.47191333770752,17.458608627319336,-0.7808709144592285,1.8642343282699585,3.805356025695801,0.3037388324737549,1.1383421421051025,0.4325920045375824,1.241654396057129
99,20727,20726,-0.05361244082450867,-0.18462762236595154,1.0505213737487793,-15.380971908569336,24.213666915893555,-0.6219416260719299,1.8655363321304321,3.8054399490356445,0.30436089634895325,0.8181799650192261,0.33182936906814575,1.2338415384292603
100,20737,20736,-0.07119084149599075,-0.07603412866592407,1.0448887348175049,-16.864208221435547,27.840137481689453,-0.8027756810188293,1.8673536777496338,3.806636333465576,0.3030830919742584,0.40475961565971375,0.08058205246925354,1.2304433584213257
101,20747,20746,-0.000928032211959362,-0.03001437336206436,0.9676648378372192,-17.925458908081055,27.14092254638672,-0.3435855209827423,1.8642174005508423,3.8063459396362305,0.3033791780471802,0.3364071249961853,-0.10688180476427078,1.2270500659942627
102,20757,20756,-0.0008003978873603046,0.01063839066773653,0.9403131604194641,-14.970596313476562,22.18183708190918,-1.0458449125289917,1.8643816709518433,3.8061718940734863,0.30387964844703674,-0.046685222536325455,-0.37521088123321533,1.2247436046600342
103,20767,20766,-0.03766598924994469,0.017249329015612602,0.9890425801277161,-10.991997718811035,16.358972549438477,-0.9195091128349304,1.8642054796218872,3.8055479526519775,0.30391234159469604,-0.3145763576030731,-0.4977366626262665,1.212497353553772
104,20777,20776,-0.05955469608306885,0.08371098339557648,1.0085500478744507,-4.9457783699035645,7.793382167816162,-0.016730474308133125,1.8639626502990723,3.8051950931549072,0.30421963334083557,-0.4553855359554291,-0.6171869039535522,1.2023383378982544
105,20787,20786,0.04778556153178215,-0.05908970534801483,0.9844678640365601,0.6406629681587219,1.449314832687378,0.19506262242794037,1.8635493516921997,3.804471731185913,0.30452194809913635,-0.5560874342918396,-0.6456763744354248,1.200134515762329
106,20797,20796,0.022585980594158173,0.008845056407153606,1.001373052597046,4.215238094329834,-2.7777392864227295,-0.28982990980148315,1.8630353212356567,3.804028272628784,0.3041955232620239,-0.5527712106704712,-0.6590685844421387,1.1998262405395508
107,20807,20806,-0.005109582561999559,0.09475146234035492,0.9450176358222961,4.684498310089111,-3.301532745361328,-0.24267296493053436,1.862337350845337,3.8045687675476074,0.30443716049194336,-0.49561941623687744,-0.622557520866394,1.1963775157928467
108,20817,20816,0.015491573140025139,0.15987470746040344,0.9354662299156189,3.7210233211517334,-0.9841796159744263,-0.5047889947891235,1.8630644083023071,3.804241418838501,0.3046838343143463,-0.5294378995895386,-0.5824769139289856,1.1963554620742798
109,20827,20826,0.02033865451812744,0.22327619791030884,0.9556041359901428,1.5436151027679443,5.441911220550537,-0.5729167461395264,1.8621619939804077,3.803377151489258,0.30385836958885193,-0.5231052041053772,-0.4824545979499817,1.1953480243682861
110,20837,20836,0.005486082285642624,0.056739628314971924,0.9685987830162048,-1.6605550050735474,10.9055757522583,0.4807320833206177,1.861383080482483,3.803417921066284,0.3039070963859558,-0.5465079545974731,-0.514958918094635,1.1873944997787476
111,20847,20846,0.014317557215690613,-0.05805840715765953,0.9989994168281555,-5.043030261993408,25.159286499023438,-0.8223773241043091,1.8628005981445312,3.8037314414978027,0.30397462844848633,-0.8702818751335144,-0.5945033431053162,1.1961588859558105
112,20857,20856,-0.0341964028775692,-0.007700869347900152,1.087841510772705,-6.15543794631958,30.126728057861328,-0.4798189103603363,1.8615916967391968,3.804366111755371,0.3040536344051361,-1.0415023565292358,-0.7083011269569397,1.1766176223754883
113,20867,20866,-0.0706990510225296,-0.0013459445908665657,1.0845609903335571,-5.458488464355469,26.70489501953125,0.0122562600299716,1.860587239265442,3.8039932250976562,0.3068819046020508,-1.2832947969436646,-0.7532217502593994,1.1661869287490845
114,20877,20876,-0.15386584401130676,0.07072870433330536,1.0748651027679443,-2.8680059909820557,28.212602615356445,0.4060254395008087,1.8620188236236572,3.8038973808288574,0.3071698844432831,-1.7235569953918457,-0.7778512835502625,1.1772704124450684
115,20887,20886,-0.06532169133424759,0.0012675210600718856,1.030298113822937,-1.5389788150787354,24.00496482849121,1.1373425722122192,1.8615494966506958,3.8048062324523926,0.3076329231262207,-1.9109277725219727,-0.8396835327148438,1.1657896041870117
116,20897,20896,0.0418497733771801,0.02127668634057045,1.0088545083999634,2.2595584392547607,15.133552551269531,1.5343986749649048,1.8627911806106567,3.8050994873046875,0.3075885474681854,-2.21962833404541,-0.8610949516296387,1.1762652397155762
117,20907,20906,0.0666564404964447,-0.05381011217832565,1.0335731506347656,4.633184909820557,7.223655700683594,1.6316814422607422,1.863015055656433,3.8054089546203613,0.3079932928085327,-2.3815131187438965,-0.8272174596786499,1.192613959312439
118,20917,20916,-0.0028055140282958746,-0.018923236057162285,1.0699076652526855,7.4442596435546875,0.6868926286697388,1.2304198741912842,1.8625211715698242,3.804979085922241,0.30849018692970276,-2.3890373706817627,-0.7473077178001404,1.213486909866333
119,20927,20926,0.01476821769028902,-0.027525877580046654,0.9859172105789185,7.685908794403076,-6.935831546783447,1.5691006183624268,1.8617984056472778,3.804978609085083,0.3076234459877014,-2.2995975017547607,-0.7089769840240479,1.209189772605896
120,20937,20936,0.01816331222653389,-0.0582570806145668,0.9766685366630554,7.393342971801758,-7.226180076599121,1.487768530845642,1.86148202419281,3.805940866470337,0.30806320905685425,-2.2066352367401123,-0.7369563579559326,1.1922621726989746
121,20947,20946,0.08541160076856613,-0.05921466648578644,0.8708729147911072,5.637608051300049,-3.7321503162384033,1.5579863786697388,1.8616782426834106,3.805720329284668,0.3085198402404785,-2.128772497177124,-0.6184021830558777,1.2222310304641724
122,20957,20956,0.12268559634685516,0.026049036532640457,0.9073655009269714,4.4461350440979,0.9051002264022827,1.2369951009750366,1.8617806434631348,3.8052778244018555,0.3088730275630951,-2.112788200378418,-0.529142439365387,1.250006914138794
123,20967,20966,0.02690715529024601,0.026908788830041885,0.9853960871696472,3.792137384414673,3.6071178913116455,1.3476154804229736,1.8637726306915283,3.8045578002929688,0.3076538145542145,-2.2943127155303955,-0.45490023493766785,1.2884607315063477
124,20977,20976,0.09605073183774948,-0.09433075040578842,0.9605387449264526,2.2684903144836426,8.411316871643066,1.086408257484436,1.8642481565475464,3.804534435272217,0.3077253997325897,-2.3745031356811523,-0.4004178047180176,1.3103117942810059
125,20987,20986,0.1063648909330368,-0.17522363364696503,0.9650449156761169,1.095331072807312,8.886597633361816,0.9971810579299927,1.8656995296478271,3.805406332015991,0.3078005015850067,-2.5083746910095215,-0.3727419376373291,1.3268133401870728
126,20997,20996,0.04391384497284889,-0.11678121984004974,0.9795348048210144,1.6577857732772827,5.750427722930908,0.567534327507019,1.8667120933532715,3.807011365890503,0.30463510751724243,-2.6232290267944336,-0.5081027746200562,1.2846928834915161
127,21007,21006,0.03585010766983032,-0.05063995346426964,0.9383301734924316,0.9796276092529297,-0.06409715861082077,1.101381540298462,1.867295503616333,3.808379650115967,0.3044881820678711,-2.653024435043335,-0.47373613715171814,1.2956370115280151
128,21017,21016,0.0074652209877967834,-0.015413209795951843,1.021742343902588,3.4286301136016846,-6.406946182250977,1.224660038948059,1.86748468875885,3.8076350688934326,0.30436933040618896,-2.5834851264953613,-0.43201813101768494,1.3108456134796143
129,21027,21026,0.033156055957078934,-0.034663472324609756,1.0022263526916504,5.718460559844971,-7.533125877380371,0.9010807275772095,1.8678276538848877,3.8070898056030273,0.3032996356487274,-2.5341148376464844,-0.35598480701446533,1.3396700620651245
130,21037,21036,-0.013507429510354996,-0.05117441713809967,1.0546129941940308,7.0345563888549805,-11.726324081420898,0.8587082624435425,1.8676881790161133,3.8077025413513184,0.3031136393547058,-2.350022792816162,-0.40177497267723083,1.2998961210250854
131,21047,21046,-0.012444103136658669,-0.13142246007919312,1.0880982875823975,7.567137718200684,-13.092729568481445,1.062706470489502,1.8691651821136475,3.8078484535217285,0.30281782150268555,-2.360936164855957,-0.34444233775138855,1.3121585845947266
132,21057,21056,-0.07496586441993713,0.0376523919403553,1.0915169715881348,6.96746826171875,-11.022819519042969,0.9578897356987,1.8703622817993164,3.8079516887664795,0.3026231527328491,-2.2447080612182617,-0.19645601511001587,1.3525882959365845
133,21067,21066,-0.05705270543694496,0.12361108511686325,0.9998974204063416,6.245878219604492,-7.555606365203857,1.0112615823745728,1.8717912435531616,3.8082616329193115,0.30467602610588074,-2.1676840782165527,-0.14293572306632996,1.3573005199432373
134,21077,21076,0.01214503962546587,0.06444095820188522,1.0224790573120117,4.435253620147705,-6.875038146972656,1.1894357204437256,1.8722257614135742,3.8091959953308105,0.30476537346839905,-2.0639824867248535,-0.11114862561225891,1.3543685674667358
135,21087,21086,0.012097223661839962,0.03505587950348854,1.0973354578018188,2.9652745723724365,-5.398489475250244,1.2191483974456787,1.8731145858764648,3.8092761039733887,0.3048388659954071,-2.0457961559295654,-0.10433944314718246,1.3529601097106934
136,21097,21096,-0.016837960109114647,0.01635771617293358,1.0333319902420044,3.369037389755249,-5.464605808258057,1.2335700988769531,1.8726754188537598,3.8093652725219727,0.3067891299724579,-1.8764173984527588,-0.029000531882047653,1.3771306276321411
137,21107,21106,-0.05098174884915352,0.042680855840444565,0.9707427620887756,3.570709466934204,-5.134055137634277,1.0332739353179932,1.8729257583618164,3.80934739112854,0.3071194887161255,-1.7999566793441772,0.045898884534835815,1.4028884172439575
138,21117,21116,-0.018039235845208168,0.023968009278178215,1.0034518241882324,3.2457728385925293,-6.0562520027160645,0.9023687839508057,1.8747694492340088,3.810495138168335,0.30736202001571655,-1.8749079704284668,-0.03225129097700119,1.3763940334320068
139,21127,21126,0.03277381509542465,-0.09347441792488098,1.0265790224075317,3.2330129146575928,-7.352425575256348,1.4069350957870483,1.8769261837005615,3.8107986450195312,0.30694296956062317,-1.9177987575531006,0.04535350203514099,1.4026837348937988
140,21137,21136,-0.003597957082092762,0.0013829338131472468,1.0441902875900269,4.628260612487793,-9.757125854492188,1.1812245845794678,1.8795499801635742,3.811969757080078,0.30710703134536743,-1.92135488986969,0.05366002395749092,1.4089614152908325
141,21147,21146,0.001624898868612945,-0.18847529590129852,1.0037682056427002,5.711414337158203,-13.279218673706055,1.0541236400604248,1.880615234375,3.811837673187256,0.30743226408958435,-1.7814322710037231,0.15269862115383148,1.4373807907104492
142,21157,21156,-0.03988272696733475,-0.13071878254413605,1.039158821105957,6.509894847869873,-14.586023330688477,0.7238566279411316,1.8809949159622192,3.8128387928009033,0.3078928589820862,-1.5165390968322754,0.19170278310775757,1.4422394037246704
143,21167,21166,0.04090668633580208,-0.09931300580501556,0.929763913154602,6.192061901092529,-14.861672401428223,1.158429503440857,1.8835991621017456,3.81307315826416,0.3081763982772827,-1.4763227701187134,0.24671247601509094,1.4459130764007568
144,21177,21176,0.012185316532850266,-0.03114449232816696,0.9868999719619751,4.163910865783691,-13.756507873535156,1.0856491327285767,1.8841756582260132,3.81390643119812,0.3085101842880249,-1.2807763814926147,0.36051300168037415,1.4723374843597412
145,21187,21186,0.034696951508522034,-0.10605354607105255,1.0134656429290771,2.6845459938049316,-14.024186134338379,0.41191786527633667,1.8848766088485718,3.813938856124878,0.3088375926017761,-1.0886396169662476,0.3628389835357666,1.472240924835205
146,21197,21196,0.05652744695544243,-0.17652903497219086,0.9769220948219299,0.6338094472885132,-11.18448543548584,0.4920247793197632,1.8868358135223389,3.814157485961914,0.3076690435409546,-1.0636308193206787,0.33983516693115234,1.4608186483383179
147,21207,21206,0.0272170789539814,-0.10020631551742554,0.9548999071121216,-0.6393693089485168,-3.2442879676818848,0.08834132552146912,1.8884187936782837,3.814946413040161,0.30778297781944275,-1.0055558681488037,0.2872592806816101,1.4483506679534912
148,21217,21216,0.12817136943340302,-0.07350759208202362,0.8479388356208801,-1.080453872680664,-6.2051873207092285,0.2864531874656677,1.8885303735733032,3.8149526119232178,0.3080953359603882,-0.8021358847618103,0.3033246099948883,1.4593309164047241
149,21227,21226,0.13781151175498962,-0.10808661580085754,0.8681598901748657,-1.0321581363677979,-7.116454124450684,0.5140153765678406,1.8907901048660278,3.815925121307373,0.30516165494918823,-0.8333876132965088,0.3053992986679077,1.4597620964050293
150,21237,21236,0.04293014109134674,-0.07917911559343338,0.9887488484382629,-0.3373916447162628,-7.79818058013916,1.1131935119628906,1.8927761316299438,3.8165574073791504,0.304892361164093,-0.7393407225608826,0.31668761372566223,1.4689006805419922
151,21247,21246,0.036089684814214706,-0.24140259623527527,1.0069530010223389,0.5128034353256226,-8.959358215332031,1.1824183464050293,1.8940685987472534,3.816420793533325,0.30457404255867004,-0.6332089304924011,0.3365299105644226,1.4840302467346191
152,21257,21256,0.01499718613922596,-0.2642669975757599,1.0251789093017578,1.2062221765518188,-8.724172592163086,1.264879584312439,1.8970253467559814,3.8163933753967285,0.3036702573299408,-0.7422786355018616,0.37073349952697754,1.4889951944351196
153,21267,21266,-0.013083800673484802,-0.06723930686712265,1.0478794574737549,0.8533753752708435,-6.649560928344727,1.4636398553848267,1.8963121175765991,3.816387891769409,0.3035065531730652,-0.4685794413089752,0.40067267417907715,1.5140105485916138
154,21277,21276,0.05259380489587784,-0.03861411660909653,0.9692226648330688,1.560983419418335,-7.425673007965088,1.2179630994796753,1.8988744020462036,3.816638708114624,0.30307841300964355,-0.5420976877212524,0.432584285736084,1.5211259126663208
155,21287,21286,0.08252143114805222,-0.08058442920446396,1.0269092321395874,0.47924965620040894,-6.827762603759766,1.5412795543670654,1.899753451347351,3.816869020462036,0.3029172122478485,-0.36869436502456665,0.4557311236858368,1.5402514934539795
156,21297,21296,0.0866401419043541,-0.13780313730239868,1.0274280309677124,-0.8635391592979431,-7.549620151519775,1.9626634120941162,1.9017422199249268,3.817676544189453,0.3008599281311035,-0.35829493403434753,0.3852907121181488,1.5459928512573242
157,21307,21306,0.04396532475948334,-0.06557320058345795,0.9961071014404297,-1.5078699588775635,-6.857882499694824,1.8799426555633545,1.9025174379348755,3.817657947540283,0.3005160391330719,-0.26637518405914307,0.38052427768707275,1.5642865896224976
158,21317,21316,0.030665170401334763,-0.019153984263539314,0.9828284978866577,-1.4246110916137695,-4.88839054107666,2.1088414192199707,1.903400182723999,3.8175227642059326,0.3003055453300476,-0.10239282250404358,0.44300585985183716,1.5928136110305786
159,21327,21326,0.029952581971883774,0.012625091709196568,1.033911108970642,-1.575929045677185,-5.219440937042236,2.6041269302368164,1.9066568613052368,3.818812131881714,0.30081042647361755,-0.21167711913585663,0.3398759961128235,1.6002891063690186
160,21337,21336,-0.003410535166040063,-0.04141625016927719,1.0980384349822998,-0.8868842124938965,-6.605690002441406,3.159759521484375,1.9085074663162231,3.819380044937134,0.3005810081958771,-0.12675413489341736,0.32627442479133606,1.6291041374206543
161,21347,21346,-0.012651708908379078,0.006254160776734352,1.1164655685424805,0.23021426796913147,-5.900903224945068,3.01348614692688,1.9101154804229736,3.8193888664245605,0.3003157079219818,-0.1167546883225441,0.325697660446167,1.656050205230713
162,21357,21356,-0.01745978370308876,0.10634560883045197,1.0179595947265625,1.263246774673462,-5.771256446838379,3.485539436340332,1.9108909368515015,3.8197994232177734,0.3023880124092102,0.05611402168869972,0.34377098083496094,1.7000125646591187
163,21367,21366,0.00867206510156393,0.11411458998918533,0.988295316696167,1.4130618572235107,-4.75615119934082,3.236041307449341,1.9127905368804932,3.8191356658935547,0.30232101678848267,-0.03729895129799843,0.3727581799030304,1.724557876586914
164,21377,21376,0.0008553306688554585,0.010843825526535511,1.092836856842041,0.6876512169837952,-5.650510787963867,3.796875238418579,1.9118597507476807,3.8186426162719727,0.302661657333374,0.19443030655384064,0.39406105875968933,1.770775556564331
165,21387,21386,-0.00988406129181385,-0.04140662029385567,1.0494965314865112,0.36134758591651917,-7.708616733551025,3.5316011905670166,1.9134788513183594,3.818687915802002,0.3027307987213135,0.18450453877449036,0.4108910858631134,1.8022496700286865
166,21397,21396,-0.037914637476205826,-0.027430104091763496,1.0359001159667969,-1.452195644378662,-5.374040126800537,3.8856277465820312,1.9153833389282227,3.8184993267059326,0.30148443579673767,0.12100283801555634,0.4016614854335785,1.828359842300415
167,21407,21406,0.017576273530721664,-0.06847897171974182,1.0855395793914795,-3.638326644897461,-4.734398365020752,4.642849922180176,1.9161158800125122,3.818697690963745,0.30182376503944397,0.29469603300094604,0.358043372631073,1.878389596939087
168,21417,21416,0.04907292500138283,-0.17268197238445282,1.0329328775405884,-2.6290700435638428,-5.370697498321533,4.637027740478516,1.9178013801574707,3.819121837615967,0.3021087050437927,0.374834269285202,0.299140989780426,1.927581548690796
169,21427,21426,0.03312139958143234,-0.05289120972156525,1.0365262031555176,-1.6550043821334839,-0.50484299659729,3.6540448665618896,1.9194159507751465,3.8186306953430176,0.30208006501197815,0.5016646385192871,0.4187842607498169,1.9720405340194702
170,21437,21436,0.0745331197977066,-0.054559070616960526,0.9082547426223755,-2.340029001235962,-1.164667010307312,3.8042893409729004,1.9226523637771606,3.8194448947906494,0.30235010385513306,0.4065007269382477,0.37416163086891174,2.004788875579834
171,21447,21446,0.08247413486242294,-0.15075445175170898,0.9620323777198792,-2.6470835208892822,-1.7634333372116089,4.0944976806640625,1.9237099885940552,3.8207035064697266,0.3026752471923828,0.4815794825553894,0.31645506620407104,2.054715871810913
172,21457,21456,0.08610806614160538,-0.29411351680755615,0.9965423941612244,-2.8882060050964355,-3.995303153991699,4.114039897918701,1.926109790802002,3.820882797241211,0.3018178343772888,0.4327637553215027,0.25912025570869446,2.0941264629364014
173,21467,21466,-0.0004916703910566866,-0.17488166689872742,1.1122874021530151,-2.009120464324951,-3.788559913635254,3.334717273712158,1.9254904985427856,3.8199944496154785,0.30218324065208435,0.6515042781829834,0.2900431454181671,2.136918783187866
174,21477,21476,0.03844572231173515,-0.10641961544752121,0.967625617980957,-2.7814595699310303,-1.3389933109283447,3.3111798763275146,1.9268118143081665,3.8193624019622803,0.30239689350128174,0.6534152030944824,0.3155129849910736,2.1619040966033936
175,21487,21486,-0.02669047936797142,-0.004488904029130936,1.0405009984970093,-2.684767961502075,0.8223849534988403,2.302711009979248,1.9287554025650024,3.8177928924560547,0.30511733889579773,0.6225903034210205,0.3968786299228668,2.174954652786255
176,21497,21496,0.04683784767985344,-0.037800535559654236,0.9848067760467529,-4.125316619873047,1.178571105003357,2.8953065872192383,1.9291924238204956,3.8181097507476807,0.3055887222290039,0.6285914778709412,0.3135306239128113,2.207930326461792
177,21507,21506,0.013421284966170788,-0.13756124675273895,0.9874904751777649,-5.337772369384766,3.249861240386963,1.7169309854507446,1.9307281970977783,3.818185567855835,0.3059738576412201,0.5524007678031921,0.2077661007642746,2.2392375469207764
178,21517,21516,0.03802875801920891,-0.16008354723453522,0.9154181480407715,-5.610591888427734,3.706068754196167,1.6912956237792969,1.9316697120666504,3.817911386489868,0.30648505687713623,0.6138525009155273,0.1727423518896103,2.2610177993774414
179,21527,21526,0.05925404280424118,-0.19166575372219086,0.987831711769104,-6.798913478851318,1.8554829359054565,2.491530656814575,1.933129906654358,3.8190183639526367,0.30738651752471924,0.590495765209198,0.03974662348628044,2.292407989501953
180,21537,21536,0.01674908772110939,-0.10281489789485931,1.0030016899108887,-5.527366638183594,0.5805139541625977,1.5979911088943481,1.933605670928955,3.81811785697937,0.30773380398750305,0.595176100730896,0.06368967145681381,2.300607204437256
181,21547,21546,0.0020003165118396282,-0.08501157909631729,1.024254560470581,-4.255767345428467,-0.8345969319343567,1.5583957433700562,1.934869647026062,3.817591667175293,0.308084100484848,0.557270348072052,0.0259066391736269,2.3134772777557373
182,21557,21556,0.03353949636220932,-0.08189795911312103,0.961334764957428,-2.5038866996765137,1.4263445138931274,1.543744444847107,1.9356741905212402,3.8172857761383057,0.30879440903663635,0.5794991850852966,-0.060290202498435974,2.3327670097351074
183,21567,21566,0.1525098830461502,-0.06832162290811539,0.9196699261665344,-1.745426893234253,4.6550984382629395,1.6092551946640015,1.9370850324630737,3.818824052810669,0.3091399669647217,0.5137667655944824,-0.11896923184394836,2.3702094554901123
184,21577,21576,0.09076958149671555,-0.03262715041637421,0.9592517018318176,-0.9559693932533264,0.7173580527305603,1.522666573524475,1.937682032585144,3.8182029724121094,0.3095279932022095,0.571320116519928,-0.08652304112911224,2.38149094581604
185,21587,21586,0.026842117309570312,-0.16808021068572998,0.9832711219787598,-1.0242371559143066,0.1291327178478241,1.7587264776229858,1.9391623735427856,3.81746506690979,0.3116125762462616,0.5868780016899109,-0.04375012218952179,2.388869285583496
186,21597,21596,-0.026010815054178238,-0.18975286185741425,0.9582234025001526,-0.8642810583114624,-0.21795272827148438,0.9793877601623535,1.9416524171829224,3.817009210586548,0.31187304854393005,0.44985145330429077,-0.0056182267144322395,2.393313407897949
187,21607,21606,-0.014222443103790283,-0.11068638414144516,0.9339651465415955,-1.9382764101028442,0.6782118082046509,1.506435751914978,1.942914366722107,3.8163723945617676,0.3122067451477051,0.47195926308631897,0.016680702567100525,2.396790027618408
188,21617,21616,0.09480318427085876,-0.18345828354358673,1.0079543590545654,-4.611654758453369,1.4564234018325806,0.6780514717102051,1.943841814994812,3.816417694091797,0.3125816881656647,0.47828343510627747,-0.079726442694664,2.423860788345337
189,21627,21626,-0.018595747649669647,-0.05087856203317642,1.0838043689727783,-5.657401084899902,1.8221354484558105,0.5388339757919312,1.945561408996582,3.816354751586914,0.31188875436782837,0.40422317385673523,-0.1163235455751419,2.4283974170684814
190,21637,21636,0.00187271973118186,-0.048666369169950485,0.9849107265472412,-5.897716999053955,4.942699909210205,0.0973796397447586,1.9459129571914673,3.816742181777954,0.3122147023677826,0.4491632580757141,-0.2469896376132965,2.4454429149627686
191,21647,21646,-0.02438284456729889,0.07843658328056335,0.9430513978004456,-4.081392765045166,2.7265710830688477,-0.18431134521961212,1.9462600946426392,3.8164002895355225,0.312569260597229,0.4838026463985443,-0.2725696265697479,2.440911293029785
192,21657,21656,-0.03125319257378578,0.03335792198777199,0.95668625831604,-3.299044132232666,3.3168282508850098,0.15250186622142792,1.9464730024337769,3.815765619277954,0.3143945336341858,0.5125716924667358,-0.2918863296508789,2.436697483062744
193,21667,21666,-0.018685325980186462,0.1934548020362854,0.9675523042678833,-1.3627899885177612,4.582854747772217,0.451355904340744,1.9474016427993774,3.814321756362915,0.31467270851135254,0.4280417859554291,-0.2833056151866913,2.418194055557251
194,21677,21676,-0.035717256367206573,0.10400594025850296,1.05717134475708,-0.6220522522926331,5.156878471374512,0.3167339861392975,1.9481332302093506,3.8137781620025635,0.3150094747543335,0.43588581681251526,-0.2501938045024872,2.4165234565734863
195,21687,21686,-0.06422868371009827,-0.019998697564005852,0.9885581731796265,-0.9700620174407959,2.9278502464294434,0.12825827300548553,1.9497556686401367,3.814563751220703,0.3159868121147156,0.36570149660110474,-0.2948283553123474,2.436150312423706
196,21697,21696,-0.05773979052901268,0.0007354184053838253,1.0354095697402954,-2.812067747116089,5.541879177093506,-0.16388699412345886,1.95085871219635,3.8146865367889404,0.3163096606731415,0.29156747460365295,-0.2787397801876068,2.432119131088257
197,21707,21706,-0.002255911473184824,0.07945805042982101,0.9835569858551025,-4.592019557952881,4.328913688659668,0.16516883671283722,1.952035903930664,3.8154408931732178,0.31669551134109497,0.2819806933403015,-0.3703821003437042,2.4447948932647705
198,21717,21716,-0.0077063338831067085,-0.025029325857758522,0.9554287791252136,-4.372685432434082,4.770294666290283,0.1263047754764557,1.9529887437820435,3.8146228790283203,0.3170044720172882,0.20274637639522552,-0.3212544620037079,2.4327664375305176
199,21727,21726,-0.0259774848818779,0.01504263374954462,1.000514030456543,-4.188296318054199,3.710256814956665,0.14903587102890015,1.9536718130111694,3.8149967193603516,0.3166317641735077,0.20444007217884064,-0.4273909032344818,2.441399097442627
200,21737,21736,-0.04369080811738968,0.13546638190746307,1.0052947998046875,-3.7472362518310547,4.736678123474121,0.11534363776445389,1.9557682275772095,3.8151872158050537,0.316823810338974,0.04936506599187851,-0.5231525897979736,2.4538278579711914
201,21747,21746,0.011773807927966118,0.03799595311284065,0.9764373898506165,-3.6364822387695312,2.5995607376098633,0.08407793939113617,1.9561718702316284,3.8157753944396973,0.31712183356285095,0.06864208728075027,-0.6118010878562927,2.458219528198242
202,21757,21756,0.052618153393268585,0.03907954692840576,0.9466907978057861,-1.419582724571228,5.183741569519043,-0.2257033884525299,1.9567041397094727,3.81442928314209,0.31628185510635376,0.06488081812858582,-0.5231325626373291,2.4399094581604004
203,21767,21766,0.09414725005626678,-0.05594734102487564,0.9638577699661255,1.2039728164672852,3.06345796585083,-0.06811346113681793,1.9585555791854858,3.814629554748535,0.3163207769393921,-0.08303513377904892,-0.553314208984375,2.4460480213165283
204,21777,21776,0.0554397851228714,-0.13645045459270477,1.0051385164260864,2.097733497619629,2.0590932369232178,-0.3351328670978546,1.9587430953979492,3.815476179122925,0.31643739342689514,-0.03595370426774025,-0.5432640314102173,2.4571945667266846
205,21787,21786,-0.01456262543797493,-0.1613258719444275,1.0036205053329468,2.581007242202759,0.8640512228012085,-0.13155242800712585,1.9592097997665405,3.8140809535980225,0.31640589237213135,0.012150670401751995,-0.37421658635139465,2.4358859062194824
206,21797,21796,-0.006123412866145372,-0.12291018664836884,0.9379854798316956,1.8090077638626099,1.9027765989303589,-0.22270004451274872,1.9609192609786987,3.8143208026885986,0.31639766693115234,-0.17102280259132385,-0.3717981278896332,2.4558768272399902
207,21807,21806,-0.040064986795186996,-0.018465233966708183,0.9873124361038208,-0.6197208166122437,0.9952417016029358,-0.9756731390953064,1.9619934558868408,3.8166074752807617,0.3164186477661133,-0.16200889647006989,-0.3990432918071747,2.48079514503479
208,21817,21816,0.06705274432897568,-0.10680918395519257,1.0269031524658203,-3.082317590713501,1.5338687896728516,-0.812587320804596,1.9621453285217285,3.8176798820495605,0.31319499015808105,-0.09666474908590317,-0.529614269733429,2.4763801097869873
209,21827,21826,0.13881853222846985,-0.223224475979805,0.9872996807098389,-4.258157253265381,0.4049893915653229,-1.5547282695770264,1.9628527164459229,3.816697835922241,0.3130635619163513,-0.025125719606876373,-0.4513152837753296,2.4518117904663086
210,21837,21836,0.053087975829839706,-0.12035541236400604,0.9883496165275574,-3.5071663856506348,1.4444620609283447,-1.8773912191390991,1.963069200515747,3.8188445568084717,0.3129369020462036,0.034218356013298035,-0.5464261770248413,2.463494062423706
211,21847,21846,0.03235160931944847,-0.05719078332185745,0.9443053007125854,-1.8047360181808472,3.121896743774414,-2.2141799926757812,1.9664638042449951,3.8194222450256348,0.3126077353954315,-0.2473360002040863,-0.6210442185401917,2.4649548530578613
212,21857,21856,0.10339520871639252,-0.11322387307882309,0.8784887194633484,-0.9691617488861084,5.66685152053833,-1.9631118774414062,1.9666353464126587,3.819464921951294,0.31510481238365173,-0.1618501842021942,-0.6604987382888794,2.4338455200195312
213,21867,21866,0.0589892640709877,-0.1877056211233139,0.9983438849449158,0.3504246175289154,3.7163283824920654,-0.9818767309188843,1.9666169881820679,3.819361448287964,0.3149612843990326,-0.16442516446113586,-0.6786293387413025,2.414853096008301
214,21877,21876,0.03641652688384056,-0.28464820981025696,1.0132076740264893,2.4823994636535645,-0.876184344291687,-0.7284368872642517,1.9673893451690674,3.819085121154785,0.3147220015525818,-0.20399373769760132,-0.6686448454856873,2.433351993560791
215,21887,21886,-0.0026763661298900843,-0.11696211248636246,1.02699875831604,4.651516914367676,-1.2417714595794678,-1.354631781578064,1.9701061248779297,3.8250341415405273,0.31544607877731323,-0.1695709228515625,-0.541603147983551,2.4991445541381836
216,21897,21896,0.016225572675466537,-0.09524248540401459,0.9468252658843994,4.511101722717285,3.1085364818573,-1.6422011852264404,1.9701786041259766,3.8256120681762695,0.3153231143951416,-0.1830592155456543,-0.5491418242454529,2.491065740585327
217,21907,21906,0.04181484505534172,-0.10618473589420319,1.0112911462783813,2.5734810829162598,3.305048704147339,-2.077009439468384,1.9703941345214844,3.825371265411377,0.31518399715423584,-0.16107802093029022,-0.4960128962993622,2.4661171436309814
218,21917,21916,0.07668975740671158,-0.19557344913482666,0.9801759123802185,1.3659820556640625,3.1133546829223633,-2.4121057987213135,1.9707145690917969,3.825455665588379,0.3174767792224884,-0.22286714613437653,-0.4723242521286011,2.4523284435272217
219,21927,21926,0.025328466668725014,-0.08073227852582932,0.9821463227272034,0.9942318797111511,4.100653648376465,-2.587815761566162,1.9719617366790771,3.8251535892486572,0.31743746995925903,-0.28710073232650757,-0.46044692397117615,2.428877592086792
220,21937,21936,0.05786560848355293,-0.08433394134044647,0.9262694716453552,0.8147585988044739,4.500733852386475,-1.8068207502365112,1.9733619689941406,3.825181007385254,0.31736111640930176,-0.36470988392829895,-0.45455050468444824,2.4083080291748047
221,21947,21946,0.061237990856170654,-0.15385255217552185,1.0090465545654297,0.8115060329437256,1.5616098642349243,-1.6120930910110474,1.973718285560608,3.8266632556915283,0.3173157274723053,-0.34020620584487915,-0.5240126848220825,2.399132013320923
222,21957,21956,0.04028673097491264,-0.20223434269428253,0.9835780262947083,1.6540871858596802,-0.7014524936676025,-2.0707623958587646,1.9746267795562744,3.8268890380859375,0.31561630964279175,-0.36130985617637634,-0.5004817843437195,2.3829312324523926
223,21967,21966,-0.0489509180188179,-0.1028013750910759,1.0914937257766724,2.9528253078460693,-2.8538944721221924,-2.412588119506836,1.9747252464294434,3.8269617557525635,0.31546106934547424,-0.3304397463798523,-0.4641096889972687,2.3677406311035156
224,21977,21976,0.023065032437443733,-0.09508468210697174,0.9402663111686707,4.6226325035095215,-1.1476950645446777,-3.078270435333252,1.9754749536514282,3.82631778717041,0.3153117895126343,-0.2918103039264679,-0.3991658687591553,2.3324434757232666
225,21987,21986,0.0394015796482563,-0.03540907800197601,1.007482647895813,3.9541015625,0.654435396194458,-2.1254682540893555,1.9751925468444824,3.828173875808716,0.3143928050994873,-0.2164033055305481,-0.331377774477005,2.3418192863464355
226,21997,21996,0.07277920097112656,-0.09757789224386215,1.0013047456741333,3.8515214920043945,0.47657281160354614,-2.720595598220825,1.9767439365386963,3.828265428543091,0.3141222596168518,-0.3096902668476105,-0.2662821412086487,2.3231964111328125
227,22007,22006,-0.00016578406211920083,-0.10274413973093033,1.024178385734558,2.659513473510742,2.5702571868896484,-3.0729851722717285,1.9780250787734985,3.8285067081451416,0.31390151381492615,-0.33069881796836853,-0.21375355124473572,2.3043882846832275
228,22017,22016,-0.004305154550820589,-0.019751211628317833,1.0099722146987915,1.7977513074874878,0.9520883560180664,-2.882593870162964,1.9777287244796753,3.8293750286102295,0.3152804374694824,-0.3057563602924347,-0.2624189257621765,2.2774739265441895
229,22027,22026,0.009603110142052174,-0.055029723793268204,1.0350810289382935,-0.549092710018158,3.170292615890503,-1.9476916790008545,1.9803632497787476,3.8313541412353516,0.315053254365921,-0.4958464801311493,-0.24947595596313477,2.297997236251831
230,22037,22036,0.017693590372800827,-0.17196156084537506,1.0731563568115234,-0.29278436303138733,0.26129013299942017,-2.807776927947998,1.980552315711975,3.8314294815063477,0.3150448203086853,-0.43474870920181274,-0.2558482885360718,2.270602226257324
231,22047,22046,0.015634724870324135,-0.2109641283750534,1.0774576663970947,-0.07881025224924088,-1.782717227935791,-2.8896396160125732,1.9814088344573975,3.8322513103485107,0.31503826379776,-0.4210756719112396,-0.34107595682144165,2.2395153045654297
232,22057,22056,0.034753452986478806,-0.1134437620639801,0.9559260606765747,1.085693120956421,-1.0479867458343506,-3.0825695991516113,1.9823249578475952,3.832115650177002,0.3179638683795929,-0.392529159784317,-0.32587873935699463,2.2043142318725586
233,22067,22066,0.07133638113737106,-0.010163545608520508,0.9522106647491455,0.8821706175804138,0.5872033834457397,-2.5405712127685547,1.9823805093765259,3.832078456878662,0.3182288408279419,-0.3041684925556183,-0.3045993745326996,2.171095132827759
234,22077,22076,0.026090949773788452,-0.03519056737422943,0.9747214913368225,2.3204360008239746,-0.05018838122487068,-2.0161349773406982,1.9843114614486694,3.832087755203247,0.3183525800704956,-0.38281670212745667,-0.2650287449359894,2.1516876220703125
235,22087,22086,0.02873048186302185,-0.08844578266143799,1.0224798917770386,2.128617763519287,-2.001887083053589,-1.5207743644714355,1.9850990772247314,3.8320889472961426,0.31978166103363037,-0.36524727940559387,-0.21623161435127258,2.128100872039795
236,22097,22096,0.02130000852048397,-0.12937812507152557,1.0039951801300049,3.0325162410736084,-2.2315661907196045,-1.9647648334503174,1.9859163761138916,3.831646203994751,0.3200162351131439,-0.3358301520347595,-0.16397808492183685,2.1177823543548584
237,22107,22106,0.002656009281054139,-0.07485916465520859,0.948308527469635,2.9100184440612793,-2.793665885925293,-2.3246090412139893,1.9879628419876099,3.831847667694092,0.32011449337005615,-0.4484230875968933,-0.11255577206611633,2.105548620223999
238,22117,22116,0.02836272493004799,-0.07466354966163635,0.9185299873352051,0.5437159538269043,-3.1318953037261963,-2.239978790283203,1.9886724948883057,3.833509683609009,0.322756826877594,-0.387609601020813,-0.1614052653312683,2.0942907333374023
239,22127,22126,0.06474396586418152,-0.22264505922794342,1.0524338483810425,-1.0116530656814575,-4.9261393547058105,-2.3200061321258545,1.9901403188705444,3.8335750102996826,0.3229813873767853,-0.371709942817688,-0.15829788148403168,2.0740230083465576
