,timestamp_start,timestamp_end,acc.x,acc.y,acc.z,gyro.x,gyro.y,gyro.z,stateEstimate.x,stateEstimate.y,stateEstimate.z,stabilizer.pitch,stabilizer.roll,stabilizer.yaw
0,32102,32100,0.01101662963628769,-0.09063947200775146,0.9476268887519836,2.977161169052124,17.002178192138672,-0.09309869259595871,1.9481780529022217,3.9319908618927,0.1699303686618805,-0.4422743022441864,-1.2675708532333374,3.1044225692749023
1,32112,32110,0.028307968750596046,-0.020938292145729065,0.9672799110412598,5.906396865844727,12.060866355895996,-0.3131486773490906,1.9469221830368042,3.9309747219085693,0.17192217707633972,-0.6380382776260376,-1.176407814025879,3.10825252532959
2,32122,32120,0.0407433919608593,-0.06603077799081802,1.036463975906372,9.871746063232422,4.745721340179443,-0.22908185422420502,1.945855975151062,3.9308438301086426,0.17277340590953827,-0.5897197127342224,-0.96218341588974,3.094938039779663
3,32132,32130,0.06159445270895958,-0.13885551691055298,0.9698405861854553,12.475339889526367,-3.9780797958374023,-0.5005919337272644,1.945828914642334,3.9304003715515137,0.17462973296642303,-0.5717315077781677,-0.7146973013877869,3.0952584743499756
4,32142,32140,-0.015266159549355507,-0.0333578884601593,0.9759089350700378,12.830801963806152,-9.429332733154297,0.09860266745090485,1.9476697444915771,3.9316699504852295,0.1767035871744156,-0.6613590121269226,-0.6688743829727173,3.10201358795166
5,32152,32150,0.02282525599002838,-0.04862576350569725,0.8977882266044617,9.852059364318848,-11.277612686157227,0.5304557085037231,1.9465720653533936,3.935652732849121,0.1807437390089035,-0.46680882573127747,-1.1841270923614502,3.0283894538879395
6,32162,32160,-0.006312940269708633,-0.017163772135972977,1.010805606842041,6.397063732147217,-10.487377166748047,0.5128490328788757,1.9461191892623901,3.9354026317596436,0.18314185738563538,-0.328462690114975,-0.9567885398864746,3.045428514480591
7,32172,32170,0.0017117524985224009,0.0020842489320784807,1.0282150506973267,3.4759609699249268,-6.569988250732422,0.41280487179756165,1.9473973512649536,3.936688184738159,0.1850246638059616,-0.5017960667610168,-1.0089576244354248,3.071150541305542
8,32182,32180,-0.005775837227702141,0.029270941391587257,1.0084213018417358,6.935861110687256,-3.0474905967712402,0.06903444230556488,1.9477243423461914,3.9369137287139893,0.18707901239395142,-0.4868231415748596,-0.8960751891136169,3.0859432220458984
9,32192,32190,-0.03653579205274582,0.10273854434490204,0.9450570940971375,11.1856689453125,0.8131864666938782,-0.39295756816864014,1.9475460052490234,3.9372081756591797,0.18932978808879852,-0.48194581270217896,-0.6554713249206543,3.0973291397094727
10,32202,32200,-0.0032978795934468508,0.13060250878334045,0.9500424265861511,15.04300308227539,1.476319670677185,-0.5672487616539001,1.9485690593719482,3.93759822845459,0.19115206599235535,-0.6583001017570496,-0.5158302783966064,3.104886293411255
11,32212,32210,0.0016151960007846355,0.0404936745762825,1.0781108140945435,16.949527740478516,-0.5663663744926453,-0.9776397943496704,1.947853446006775,3.937904119491577,0.19336186349391937,-0.5662945508956909,-0.26401978731155396,3.1001813411712646
12,32222,32220,-0.01898125745356083,7.403818017337471e-05,1.1237900257110596,15.684983253479004,-4.412005424499512,-0.8147547245025635,1.9481326341629028,3.9402568340301514,0.19380760192871094,-0.48449334502220154,-0.017008773982524872,3.098151445388794
13,32232,32230,-0.05275373533368111,0.11590084433555603,1.045391321182251,13.174946784973145,-7.726053237915039,-0.6909824013710022,1.9526286125183105,3.9395506381988525,0.1956743597984314,-0.9826918244361877,0.12617281079292297,3.113481044769287
14,32242,32240,-0.022255556657910347,0.013127118349075317,1.017005443572998,8.56314468383789,-9.849242210388184,-0.3473115563392639,1.9527584314346313,3.9404549598693848,0.1982857882976532,-0.7426749467849731,0.2772769331932068,3.1069560050964355
15,32252,32250,0.02417152188718319,-0.038121894001960754,0.9827792048454285,3.454808235168457,-13.16677474975586,-1.0567272901535034,1.954102873802185,3.9419634342193604,0.2002035230398178,-0.6968014240264893,0.2636869549751282,3.0911788940429688
16,32262,32260,-0.019379502162337303,-0.06886240839958191,1.0486290454864502,-1.4545559883117676,-17.265682220458984,-1.0075416564941406,1.9546109437942505,3.9433510303497314,0.2022971361875534,-0.5665803551673889,0.32392558455467224,3.0848302841186523
17,32272,32270,-0.02587324008345604,-0.04993028938770294,0.9853445291519165,-1.4638978242874146,-20.46525764465332,-1.005386233329773,1.9552747011184692,3.9436614513397217,0.20437481999397278,-0.3661381006240845,0.27462178468704224,3.0685720443725586
18,32282,32280,-0.01574479043483734,-0.0057952553033828735,1.0038485527038574,-1.7055407762527466,-20.92047691345215,-0.9746097922325134,1.9557998180389404,3.9440033435821533,0.2065570205450058,-0.12684017419815063,0.2861047685146332,3.0598185062408447
19,32292,32290,0.04628723859786987,-0.10132668912410736,1.0305171012878418,0.8843796849250793,-19.77050018310547,-1.2893080711364746,1.9567400217056274,3.9443888664245605,0.20861195027828217,0.031083185225725174,0.3221070468425751,3.053424119949341
20,32302,32300,0.02023816853761673,-0.11199002712965012,1.035048484802246,3.120164632797241,-16.97360610961914,-1.4164047241210938,1.9566869735717773,3.944291591644287,0.21098369359970093,0.3956388533115387,0.3894639313220978,3.0535829067230225
21,32312,32310,0.007013182621449232,-0.0023368464317172766,1.0705772638320923,5.373823165893555,-13.58474063873291,-0.9075922966003418,1.9559988975524902,3.944171905517578,0.2124965339899063,0.5833758115768433,0.41280660033226013,3.0424485206604004
22,32322,32320,-0.0031515660230070353,0.00433646934106946,1.0238558053970337,6.2603278160095215,-9.406944274902344,-1.4210795164108276,1.9567023515701294,3.9431650638580322,0.2146701067686081,0.6211753487586975,0.5372077822685242,3.0238165855407715
23,32332,32330,0.00423132348805666,-0.04474932700395584,0.9909791946411133,5.0086469650268555,-5.497888565063477,-1.569077730178833,1.9571306705474854,3.9432883262634277,0.216874897480011,0.6102585196495056,0.5025358200073242,2.999570369720459
24,32342,32340,0.0561312660574913,-0.14918449521064758,0.9782482981681824,2.1305060386657715,-3.7564802169799805,-1.6847678422927856,1.9577524662017822,3.9435532093048096,0.21912188827991486,0.6542459726333618,0.5139294862747192,2.984997272491455
25,32352,32350,-0.00938673596829176,-0.03361779823899269,1.018882155418396,0.18399690091609955,-3.0593316555023193,-1.6960651874542236,1.9581634998321533,3.944089651107788,0.22196783125400543,0.6656597256660461,0.49030035734176636,2.965822696685791
26,32362,32360,-0.01906069926917553,-0.060684479773044586,0.9908524751663208,-0.8699584007263184,-4.719933986663818,-1.712435007095337,1.9583605527877808,3.943868637084961,0.2242078185081482,0.7835160493850708,0.5173735618591309,2.955165386199951
27,32372,32370,-0.052536558359861374,0.020012423396110535,0.9577835202217102,-0.9520814418792725,-8.099084854125977,-1.874720573425293,1.9584481716156006,3.9447073936462402,0.2265085130929947,0.9130199551582336,0.5371498465538025,2.943263292312622
28,32382,32380,0.052089884877204895,-0.11103824526071548,0.9780203700065613,-2.0931057929992676,-7.823060512542725,-1.5382006168365479,1.9587962627410889,3.944326877593994,0.22858066856861115,0.957947850227356,0.5301790237426758,2.9230573177337646
29,32392,32390,0.013431231491267681,-0.04697365686297417,0.9710953235626221,-0.3505941331386566,-9.291311264038086,-1.7431952953338623,1.9593381881713867,3.944502115249634,0.23077745735645294,1.0336410999298096,0.3853243291378021,2.9141194820404053
30,32402,32400,0.004123183898627758,-0.024040672928094864,0.9891693592071533,0.4876132607460022,-8.767285346984863,-2.059101104736328,1.9604007005691528,3.9447052478790283,0.2330058515071869,1.0427021980285645,0.490621954202652,2.8750479221343994
31,32412,32410,-0.002485178643837571,-0.01331280916929245,0.9928296804428101,2.3602330684661865,-6.656321048736572,-1.9484241008758545,1.9610460996627808,3.944779396057129,0.235105499625206,1.254949927330017,0.5366475582122803,2.8667852878570557
32,32422,32420,-0.0854862779378891,-0.035982467234134674,1.0442928075790405,3.118950605392456,-5.496530055999756,-1.834710717201233,1.9601597785949707,3.945006847381592,0.2373441606760025,1.5929330587387085,0.5231692790985107,2.8855044841766357
33,32432,32430,-0.02860422059893608,-0.057341430336236954,0.9668647050857544,2.0231173038482666,-3.264692544937134,-2.1169989109039307,1.9583523273468018,3.9451515674591064,0.23948723077774048,1.1122418642044067,0.5870907306671143,2.7918431758880615
34,32442,32440,-0.0969758853316307,0.06233464553952217,0.989966869354248,0.8938323855400085,-0.48563772439956665,-1.908557653427124,1.9625346660614014,3.9445950984954834,0.2422877550125122,1.1788393259048462,0.5538509488105774,2.778904914855957
35,32452,32450,-0.022871844470500946,-0.002185855759307742,0.9297447204589844,-1.146988034248352,0.18802136182785034,-1.3033331632614136,1.9624320268630981,3.944438934326172,0.24434314668178558,1.2498388290405273,0.5678369402885437,2.770447254180908
36,32462,32460,0.050012461841106415,-0.17059406638145447,0.8905797600746155,-2.812666177749634,0.48306629061698914,-2.2245380878448486,1.9627865552902222,3.945605993270874,0.24652771651744843,1.301060438156128,0.5497413277626038,2.7599070072174072
37,32472,32470,-0.031750574707984924,-0.15020155906677246,0.9715099334716797,-2.4614224433898926,-3.090968608856201,-2.2797904014587402,1.962138056755066,3.9453113079071045,0.24860702455043793,1.4646373987197876,0.5219926238059998,2.758673667907715
38,32482,32480,-0.036720529198646545,-0.06577078253030777,0.9855664968490601,-2.2754459381103516,-1.9196802377700806,-2.629391670227051,1.9611667394638062,3.9451534748077393,0.24835294485092163,1.4517652988433838,0.4970574378967285,2.731351375579834
39,32492,32490,-0.007914752699434757,-0.019254742190241814,0.9507598280906677,-2.724726915359497,-1.3391011953353882,-2.5990991592407227,1.9614590406417847,3.9457311630249023,0.25025609135627747,1.3588842153549194,0.4654858410358429,2.6913983821868896
40,32502,32500,0.005159331019967794,-0.015398092567920685,0.9375830292701721,-1.9584965705871582,0.8152798414230347,-2.5872113704681396,1.962935447692871,3.945913553237915,0.25211942195892334,1.4060622453689575,0.36891621351242065,2.6852264404296875
41,32512,32510,-0.02840518206357956,-0.0794847384095192,0.9457305073738098,-2.4500229358673096,7.036037445068359,-2.387697219848633,1.9629714488983154,3.9468088150024414,0.25415700674057007,1.3003785610198975,0.4252866804599762,2.6362783908843994
42,32522,32520,-0.037352751940488815,-0.029490133747458458,0.9703239798545837,-1.3775744438171387,14.47195816040039,-2.3911027908325195,1.9640696048736572,3.9467644691467285,0.25589826703071594,1.458573818206787,0.4092647135257721,2.6453537940979004
43,32532,32530,-0.02616674080491066,0.020105740055441856,0.9877336621284485,-0.7408009767532349,20.532445907592773,-2.27842378616333,1.9621648788452148,3.9469876289367676,0.25767362117767334,1.475501537322998,0.40135863423347473,2.6457998752593994
44,32542,32540,-0.011414744891226292,0.012510460801422596,0.9641740918159485,-0.30620840191841125,24.90290069580078,-2.6746695041656494,1.960479497909546,3.9477288722991943,0.2592200040817261,1.0887916088104248,0.47722476720809937,2.588009834289551
45,32552,32550,0.010014330968260765,-0.02905084937810898,0.9261233806610107,0.17905990779399872,27.651315689086914,-2.591289520263672,1.9621249437332153,3.947031259536743,0.26187843084335327,0.6554609537124634,0.5489327311515808,2.52797532081604
46,32562,32560,0.06414509564638138,-0.12403366714715958,0.9433677196502686,-1.0954418182373047,28.716257095336914,-1.9230067729949951,1.9631136655807495,3.946986436843872,0.26347053050994873,0.2694706320762634,0.4539174735546112,2.510714530944824
47,32572,32570,0.037239257246255875,-0.06659875065088272,0.9541897177696228,-2.7092912197113037,23.105972290039062,-2.3950982093811035,1.9646016359329224,3.94783878326416,0.2649533748626709,0.6907685995101929,0.715261697769165,2.526320457458496
48,32582,32580,0.0017957264790311456,-0.14984406530857086,0.9418730735778809,-4.347402572631836,16.46738624572754,-2.339918613433838,1.9582058191299438,3.944693088531494,0.26597797870635986,0.6176062226295471,0.6937025785446167,2.518690824508667
49,32592,32590,0.01225291844457388,-0.05778781324625015,0.9274526238441467,-6.337874412536621,14.026988983154297,-2.39420485496521,1.9566420316696167,3.9452550411224365,0.26724594831466675,0.29515597224235535,0.6433861255645752,2.4794819355010986
50,32602,32600,0.06026000156998634,-0.027500011026859283,0.9318969249725342,-8.543107986450195,14.583394050598145,-2.5753157138824463,1.957642912864685,3.9448795318603516,0.2687130272388458,0.1463581621646881,0.55274897813797,2.4623665809631348
51,32612,32610,0.013444159179925919,-0.03234533220529556,0.9473003149032593,-10.8132905960083,16.0162353515625,-2.8664066791534424,1.9572829008102417,3.9455342292785645,0.26836106181144714,-0.08616847544908524,0.34974563121795654,2.4411368370056152
52,32622,32620,0.07149778306484222,-0.1280086636543274,0.9877169132232666,-11.720184326171875,18.70259666442871,-2.960272789001465,1.9580004215240479,3.9467785358428955,0.26954028010368347,-0.2662665545940399,0.21010567247867584,2.4170970916748047
53,32632,32630,0.010315276682376862,-0.031332436949014664,0.9832760691642761,-10.47926139831543,20.226083755493164,-2.8027684688568115,1.95816969871521,3.9466967582702637,0.2705976665019989,-0.47125351428985596,0.07624313235282898,2.3883185386657715
54,32642,32640,-0.00026754013379104435,-0.01565462164580822,0.9434389472007751,-7.936989784240723,20.76361846923828,-2.9321298599243164,1.9581077098846436,3.947299003601074,0.27159979939460754,-0.6923928260803223,-0.022695070132613182,2.3571012020111084
55,32652,32650,0.02535897120833397,-0.03854808211326599,0.9086389541625977,-3.001443862915039,19.802505493164062,-2.8377389907836914,1.959201455116272,3.947336196899414,0.26902469992637634,-0.9989963173866272,-0.13329438865184784,2.3186793327331543
56,32662,32660,0.0052153728902339935,-0.011560628190636635,0.9625082612037659,0.8382453918457031,17.027048110961914,-2.5865347385406494,1.9582176208496094,3.94679856300354,0.26985442638397217,-1.0996474027633667,-0.015805859118700027,2.301144599914551
57,32672,32670,0.012737761251628399,-0.05263480171561241,0.912022590637207,3.853902578353882,12.851417541503906,-2.3387787342071533,1.958228349685669,3.94689679145813,0.2705080211162567,-1.2272318601608276,-0.0015197665197774768,2.276984453201294
58,32682,32680,0.014243414625525475,-0.02119865082204342,0.9579545855522156,4.038665294647217,8.859269142150879,-2.6101839542388916,1.9573208093643188,3.947075128555298,0.2705671489238739,-1.4310836791992188,-0.03958722576498985,2.2398624420166016
59,32692,32690,0.0038237981498241425,0.0011332553112879395,0.9981374144554138,2.428917407989502,6.7636637687683105,-2.425168037414551,1.9581749439239502,3.948925018310547,0.2710440456867218,-1.5722181797027588,0.06771447509527206,2.2202489376068115
60,32702,32700,0.03272315487265587,-0.13756927847862244,1.0194674730300903,-0.030446400865912437,4.743114471435547,-2.504606246948242,1.9587604999542236,3.9480834007263184,0.2714625298976898,-1.665003776550293,0.04969716817140579,2.193539619445801
61,32712,32710,0.003850871929898858,-0.07156946510076523,0.9632703065872192,-2.6215553283691406,5.284147262573242,-3.6465506553649902,1.9589377641677856,3.948493242263794,0.27171453833580017,-1.595742106437683,0.002132735913619399,2.1618783473968506
62,32722,32720,-0.010216236114501953,-0.15605877339839935,0.9928413033485413,-4.2067036628723145,2.674711227416992,-2.9304962158203125,1.9580026865005493,3.9491822719573975,0.27227553725242615,-1.5677812099456787,-0.08245377987623215,2.1239442825317383
63,32732,32730,-0.03432995453476906,-0.024353493005037308,1.060720682144165,-4.210385322570801,4.944298267364502,-2.408588171005249,1.957299828529358,3.9503121376037598,0.2728022634983063,-1.7961684465408325,-0.16908994317054749,2.081407070159912
64,32742,32740,0.023160384967923164,-0.007267233449965715,0.9947682619094849,-3.5405099391937256,5.292748928070068,-2.169863224029541,1.9591184854507446,3.951083183288574,0.2739500403404236,-1.7223819494247437,-0.16568544507026672,2.0701379776000977
65,32752,32750,0.061573512852191925,-0.014810691587626934,0.9624505639076233,-1.8371587991714478,4.399067401885986,-2.0652692317962646,1.9579739570617676,3.9505224227905273,0.2745862901210785,-1.8238048553466797,-0.2265014946460724,2.041109085083008
66,32762,32760,0.09508286416530609,-0.12942670285701752,0.960590124130249,0.24156780540943146,2.8075432777404785,-1.8625155687332153,1.9575599431991577,3.9515740871429443,0.2751222550868988,-1.894722580909729,-0.2549969553947449,2.0183358192443848
67,32772,32770,0.058924704790115356,-0.1873995065689087,1.0297422409057617,2.312821865081787,0.9762641191482544,-1.3562051057815552,1.9581490755081177,3.9516427516937256,0.2755931317806244,-2.0566391944885254,-0.24250735342502594,2.002342939376831
68,32782,32780,-0.009188633412122726,0.02882654033601284,0.9891948103904724,3.8960251808166504,-0.8961632251739502,-1.2031511068344116,1.9589353799819946,3.9514989852905273,0.2732256054878235,-2.0163400173187256,-0.1937934309244156,1.993725299835205
69,32792,32790,-0.018778637051582336,0.041316572576761246,1.0281764268875122,3.6241838932037354,-2.6308398246765137,-0.6820087432861328,1.9587069749832153,3.9516685009002686,0.27362024784088135,-1.9484754800796509,-0.14161020517349243,1.9867115020751953
70,32802,32800,0.011382503435015678,0.05979815497994423,0.9881992936134338,3.509354591369629,-4.855472087860107,-0.8472920060157776,1.9585399627685547,3.9514238834381104,0.27401867508888245,-1.9304567575454712,-0.08997634798288345,1.9832584857940674
71,32812,32810,0.03823783993721008,0.07310619950294495,1.0399487018585205,1.1158117055892944,-5.699491500854492,-0.9901711940765381,1.9585386514663696,3.9516162872314453,0.27466604113578796,-1.8140236139297485,-0.06521008163690567,1.9735321998596191
72,32822,32820,0.005034833215177059,-0.013950123451650143,1.0293532609939575,-1.1615235805511475,-5.75954532623291,-0.979764461517334,1.9584300518035889,3.9518020153045654,0.2751189172267914,-1.760558009147644,-0.005498107057064772,1.98038911819458
73,32832,32830,-0.05562111362814903,0.07081898301839828,1.0266973972320557,-2.547793388366699,-5.074711799621582,-1.1441943645477295,1.9590294361114502,3.9511361122131348,0.275539368391037,-1.855642557144165,-0.05060068890452385,1.9567880630493164
74,32842,32840,-0.03893370181322098,0.08835335820913315,0.9513511061668396,-3.8591206073760986,-3.411363124847412,-0.7645604014396667,1.9606316089630127,3.9518983364105225,0.2750062942504883,-1.7375637292861938,-0.11724095046520233,1.9302898645401
75,32852,32850,-0.04812060669064522,0.14057956635951996,1.0660834312438965,-5.064439296722412,-2.8045949935913086,-1.1518770456314087,1.960263729095459,3.952167272567749,0.2754663825035095,-1.846658706665039,-0.20457369089126587,1.9098306894302368
76,32862,32860,0.029752342030405998,-0.01758791320025921,1.0196702480316162,-2.8511157035827637,-2.5907418727874756,-1.3093682527542114,1.9620532989501953,3.9529778957366943,0.2757762372493744,-1.727476954460144,-0.20418448746204376,1.91203773021698
77,32872,32870,0.015047757886350155,0.010993916541337967,1.0453773736953735,-0.4725843667984009,-3.083421468734741,-0.8567012548446655,1.9618810415267944,3.9527292251586914,0.2763463854789734,-1.7621482610702515,-0.2373502403497696,1.8982375860214233
78,32882,32880,-0.01594533585011959,-0.020882057026028633,0.9962756633758545,2.0040206909179688,-5.869847774505615,-0.7920879125595093,1.9630753993988037,3.953165054321289,0.2766026258468628,-1.6787822246551514,-0.22768178582191467,1.8894871473312378
79,32892,32890,0.010233623906970024,-0.03728955611586571,0.9517666697502136,3.720435619354248,-6.229454517364502,-0.7815549969673157,1.9637013673782349,3.9544825553894043,0.2771124541759491,-1.515349268913269,-0.1854848563671112,1.8844958543777466
80,32902,32900,0.012537571601569653,-0.04329967871308327,1.0039161443710327,5.4440460205078125,-9.237614631652832,-0.9363837838172913,1.963210105895996,3.954777956008911,0.2776990532875061,-1.386493444442749,-0.11532732099294662,1.8841592073440552
81,32912,32910,-0.02716134302318096,0.037119489163160324,0.9947468042373657,5.037519931793213,-8.218185424804688,-1.000238060951233,1.9637457132339478,3.95477294921875,0.28036946058273315,-1.260576605796814,-0.04074278846383095,1.879638910293579
82,32922,32920,0.012581941671669483,-0.06893834471702576,1.0386539697647095,2.952228307723999,-7.397830963134766,-1.2919615507125854,1.963557481765747,3.954385757446289,0.280967652797699,-1.6356401443481445,-0.13268014788627625,1.8411962985992432
83,32932,32930,-0.011111513711512089,-0.04371447116136551,0.9563431143760681,-0.6455199718475342,-2.6360580921173096,-1.460727334022522,1.9688369035720825,3.9564590454101562,0.28143733739852905,-1.520108938217163,-0.11628998070955276,1.8256702423095703
84,32942,32940,-0.0051993695087730885,-0.0034303052816540003,1.0622071027755737,-1.6429212093353271,-4.0961384773254395,-1.2719433307647705,1.9695067405700684,3.956796646118164,0.2860623896121979,-1.4438722133636475,-0.13853643834590912,1.8105852603912354
85,32952,32950,0.05668773874640465,0.0010253327200189233,1.0209176540374756,-1.872537612915039,-4.731363296508789,-1.2292531728744507,1.9700342416763306,3.9569430351257324,0.286996066570282,-1.5818917751312256,-0.1658131182193756,1.7976820468902588
86,32962,32960,0.029765404760837555,-0.045177675783634186,1.0890229940414429,-1.291119933128357,-10.110928535461426,-0.9694119095802307,1.9726792573928833,3.957200288772583,0.28766363859176636,-1.328330159187317,-0.19089025259017944,1.7795997858047485
87,32972,32970,-0.006310621742159128,-0.07429395616054535,1.0071337223052979,0.24508780241012573,-13.081513404846191,-0.7007812857627869,1.9721665382385254,3.9571471214294434,0.28728076815605164,-1.1592888832092285,-0.19269965589046478,1.7725030183792114
88,32982,32980,-0.007138142827898264,0.008200402371585369,1.0260950326919556,2.795661687850952,-15.090457916259766,-0.8535332083702087,1.9716005325317383,3.957411766052246,0.2873329520225525,-1.0352743864059448,-0.15589961409568787,1.771131157875061
89,32992,32990,-0.024133117869496346,0.12118422985076904,0.9582031965255737,4.492702007293701,-14.817094802856445,-0.46526435017585754,1.9722050428390503,3.9569485187530518,0.2881808876991272,-0.9524064064025879,-0.07679067552089691,1.7761250734329224
90,33002,33000,-0.033446576446294785,0.07908270508050919,1.0379078388214111,5.532281875610352,-13.567288398742676,-0.26874855160713196,1.9741710424423218,3.9576027393341064,0.28910648822784424,-1.0311307907104492,-0.17669135332107544,1.7549024820327759
91,33012,33010,0.019777750596404076,-0.046255771070718765,0.9608432054519653,5.509230613708496,-12.348966598510742,-0.25589513778686523,1.9759330749511719,3.958491325378418,0.29134076833724976,-0.8203043937683105,-0.07976553589105606,1.7590826749801636
92,33022,33020,-0.042690493166446686,-0.024260323494672775,1.051293134689331,4.113320350646973,-10.819947242736816,-0.28483256697654724,1.9769219160079956,3.9581780433654785,0.29236316680908203,-0.7178822159767151,0.07827579975128174,1.7755067348480225
93,33032,33030,-0.02438405342400074,-0.013739150948822498,1.018334984779358,2.572728157043457,-8.692383766174316,0.05244884639978409,1.978370189666748,3.957151174545288,0.29329144954681396,-0.4366093575954437,0.13616213202476501,1.7723289728164673
94,33042,33040,-0.0010148240253329277,-0.03451281785964966,0.9830412864685059,-0.2605416476726532,-7.535060405731201,-0.7295883297920227,1.9779930114746094,3.957899570465088,0.29300618171691895,-0.40710464119911194,0.09174223244190216,1.761160969734192
95,33052,33050,-0.00043211434967815876,0.013304260559380054,1.0092350244522095,-2.7282216548919678,-4.390918254852295,-0.596142053604126,1.9796112775802612,3.9591410160064697,0.2939040958881378,-0.41356709599494934,0.13807173073291779,1.7603613138198853
96,33062,33060,0.00024606907390989363,-0.07333014160394669,0.935431182384491,-3.711361885070801,-2.0132663249969482,-0.8786761164665222,1.982251524925232,3.958889961242676,0.2946750819683075,-0.2752719223499298,0.1108691543340683,1.7560884952545166
97,33072,33070,0.003476079786196351,-0.0629412829875946,0.9558773636817932,-4.925267219543457,-3.3236100673675537,-0.5330778360366821,1.9826503992080688,3.958650827407837,0.2971128225326538,-0.25773802399635315,0.045977506786584854,1.7454895973205566
98,33082,33080,-0.04225173965096474,0.03255043923854828,1.0276989936828613,-4.426070690155029,-4.270089149475098,-0.2693599760532379,1.9833852052688599,3.958756923675537,0.2980426251888275,-0.30092692375183105,0.11547158658504486,1.7499669790267944
99,33092,33090,-0.06285573542118073,0.04231329634785652,0.996354341506958,-2.5212061405181885,-5.024068355560303,-0.10398954153060913,1.986128807067871,3.958073377609253,0.29891517758369446,-0.10498279333114624,0.04163764789700508,1.7440133094787598
100,33102,33100,-0.08579997718334198,0.08692877739667892,0.9651437401771545,-0.9831011295318604,-5.72758674621582,-0.0435858890414238,1.985957145690918,3.957902669906616,0.29998987913131714,0.08797287940979004,0.06913717091083527,1.746466040611267
101,33112,33110,0.0036930737551301718,-0.019205253571271896,0.9355927109718323,0.5443260669708252,-6.199106693267822,-0.2685745060443878,1.9854358434677124,3.9567441940307617,0.302715539932251,-0.08763325959444046,0.04484974965453148,1.740978717803955
102,33122,33120,-0.03329731896519661,0.07991871982812881,0.9925253987312317,0.7131205797195435,-3.6761879920959473,-0.01594478450715542,1.988897681236267,3.956439256668091,0.30360448360443115,-0.17706288397312164,0.034654900431632996,1.7383145093917847
103,33132,33130,-0.05553189292550087,0.08247501403093338,1.0157023668289185,0.3508959710597992,-1.5509450435638428,0.0006530163227580488,1.9917234182357788,3.9570059776306152,0.3043743669986725,0.006961839273571968,0.032805416733026505,1.735872507095337
104,33142,33140,-0.03513909503817558,0.01345548965036869,1.0231823921203613,-0.0700995922088623,-1.881639838218689,-0.07774322479963303,1.9918445348739624,3.956646203994751,0.3086777925491333,-0.13581475615501404,0.024776285514235497,1.731183648109436
105,33152,33150,-0.05523434281349182,0.0021007047034800053,1.0554391145706177,-0.04110787808895111,-2.9393250942230225,-0.2908746600151062,1.9949449300765991,3.9565701484680176,0.30966395139694214,-0.11532597988843918,0.014473123475909233,1.7315000295639038
106,33162,33160,-0.021740062162280083,-0.03755313158035278,0.980121374130249,-1.1516162157058716,-2.8272907733917236,-0.5047246217727661,1.9959981441497803,3.956681728363037,0.3108062446117401,0.059610214084386826,-0.003654023865237832,1.7313361167907715
107,33172,33170,0.019882574677467346,0.03245594725012779,0.9220661520957947,-1.0486723184585571,-4.625332832336426,-0.6179519891738892,1.996354103088379,3.956840991973877,0.31247541308403015,0.22805927693843842,0.045595988631248474,1.7266645431518555
108,33182,33180,-0.023338239639997482,0.14274148643016815,0.8960120677947998,-0.7536535859107971,-6.935662746429443,-0.16084237396717072,1.9961198568344116,3.9561221599578857,0.3137649595737457,0.3379390835762024,0.016195638105273247,1.7216662168502808
109,33192,33190,0.009565216489136219,-0.006893042009323835,0.9080317616462708,-1.060392141342163,-5.349068641662598,-0.3149136006832123,1.9965360164642334,3.955767869949341,0.3149465024471283,0.3150762915611267,-0.009595698677003384,1.717310905456543
110,33202,33200,0.028701089322566986,0.04695601761341095,0.9399400949478149,-1.3610368967056274,-0.23950256407260895,-0.6575483083724976,1.9986093044281006,3.9559547901153564,0.31598299741744995,0.33381199836730957,-0.10947667062282562,1.7217463254928589
111,33212,33210,0.08450669050216675,0.11364919692277908,0.8964923024177551,-1.8805757761001587,1.1344430446624756,-0.70394366979599,1.9999645948410034,3.9566171169281006,0.31696462631225586,0.4618455767631531,-0.13648772239685059,1.7186262607574463
112,33222,33220,0.11307176947593689,-0.012199941091239452,0.8914988040924072,-2.712371587753296,2.3958091735839844,-0.5021771192550659,2.0000545978546143,3.9566593170166016,0.3179694712162018,0.15819403529167175,-0.022685594856739044,1.7025142908096313
113,33232,33230,0.019814344123005867,-0.05093832686543465,0.9190149903297424,-1.4861125946044922,1.3761640787124634,-0.46635234355926514,2.003890037536621,3.95477294921875,0.31861063838005066,0.09773778915405273,-0.06829243898391724,1.6978721618652344
114,33242,33240,0.05274990200996399,-0.15364788472652435,0.9311376214027405,-2.170534133911133,1.1763756275177002,-0.8544556498527527,2.0054008960723877,3.954741954803467,0.3195163309574127,0.20572838187217712,-0.03442695364356041,1.6910433769226074
115,33252,33250,0.05094795674085617,-0.21516776084899902,0.9210852980613708,-2.1804237365722656,-1.9906558990478516,-0.7816941142082214,2.0060267448425293,3.9544155597686768,0.320311039686203,0.23983575403690338,-0.0821491926908493,1.687284231185913
116,33262,33260,0.008370306342840195,-0.207696333527565,0.9196252822875977,-2.1336820125579834,-4.909473419189453,-0.960760235786438,2.0064971446990967,3.9544999599456787,0.32096150517463684,0.3874681890010834,-0.13098600506782532,1.6823242902755737
117,33272,33270,-0.024347830563783646,-0.16125072538852692,0.9006415605545044,-1.5759778022766113,-6.120410919189453,-1.2617568969726562,2.006284713745117,3.954881191253662,0.32008635997772217,0.48953190445899963,-0.09661132097244263,1.668761968612671
118,33282,33280,-0.008329560048878193,-0.047857869416475296,0.9304888844490051,-1.7447431087493896,-5.331189155578613,-1.139115810394287,2.006049394607544,3.9547111988067627,0.32049840688705444,0.4492141604423523,-0.14109519124031067,1.6664936542510986
119,33292,33290,0.016283804550766945,-0.06226246803998947,0.9357966780662537,-0.9674882888793945,-2.2717983722686768,-1.9332703351974487,2.0081143379211426,3.954867362976074,0.3207261860370636,0.619534432888031,-0.17665895819664001,1.6566243171691895
120,33302,33300,-0.01574082113802433,0.030178407207131386,0.9834049940109253,-0.47699108719825745,0.8731561899185181,-1.8800524473190308,2.0074586868286133,3.9553587436676025,0.3200678527355194,0.6597219109535217,-0.2768046259880066,1.6517261266708374
121,33312,33310,-0.017513664439320564,0.010156931355595589,0.9693526029586792,-0.13762202858924866,4.709107875823975,-3.0918400287628174,2.0081074237823486,3.9562385082244873,0.32015013694763184,0.5687874555587769,-0.2837408185005188,1.631888508796692
122,33322,33320,-0.0286098700016737,0.04954706132411957,1.008543848991394,1.1566632986068726,6.724976539611816,-3.2616770267486572,2.010155200958252,3.956287145614624,0.32016074657440186,0.5769932270050049,-0.20331282913684845,1.5934537649154663
123,33332,33330,-0.008526268415153027,-0.0025160363875329494,0.9951029419898987,2.2864363193511963,7.884294509887695,-3.8582241535186768,2.0104284286499023,3.95536470413208,0.3202379047870636,0.5545520782470703,-0.18830472230911255,1.5596777200698853
124,33342,33340,-0.0424669124186039,0.022411512210965157,1.010823130607605,2.8791627883911133,7.166523456573486,-4.008401870727539,2.0108139514923096,3.9549126625061035,0.3195025324821472,0.5088735818862915,-0.15765365958213806,1.5199841260910034
125,33352,33350,-0.004547887481749058,-0.0007998844957910478,0.9866626858711243,1.8731502294540405,6.499938011169434,-4.524837493896484,2.0113019943237305,3.9545657634735107,0.31951260566711426,0.4727173149585724,-0.1251806616783142,1.4782265424728394
126,33362,33360,-0.04759988561272621,0.09655742347240448,0.9643083214759827,0.7737601399421692,5.361775875091553,-5.091221809387207,2.0112767219543457,3.9541141986846924,0.31958043575286865,0.444178968667984,-0.10563680529594421,1.437150001525879
127,33372,33370,0.0033906938042491674,-0.0061295730993151665,0.9494555592536926,-0.3687297999858856,4.218686103820801,-4.6947245597839355,2.0122175216674805,3.9549670219421387,0.3204101622104645,0.27709653973579407,-0.1003812849521637,1.3967325687408447
128,33382,33380,-0.005471891723573208,0.09176185727119446,0.963891327381134,-0.6978349685668945,4.11588716506958,-4.846354007720947,2.0140225887298584,3.955817937850952,0.32034313678741455,0.2842314839363098,-0.11440341919660568,1.3494749069213867
129,33392,33390,-0.009857617318630219,0.009327146224677563,0.9822087287902832,-0.2426254004240036,2.674834728240967,-5.227715492248535,2.01466965675354,3.9558639526367188,0.3203311264514923,0.2141294926404953,-0.1297093629837036,1.2979904413223267
130,33402,33400,0.00976698100566864,-0.02503775805234909,1.0079803466796875,-1.3348469734191895,3.1357076168060303,-5.223703384399414,2.015296697616577,3.9559714794158936,0.3198387622833252,0.23180806636810303,-0.1441914290189743,1.246126413345337
131,33412,33410,-0.03696305677294731,-0.05643817037343979,1.074428915977478,0.11648968607187271,1.9033595323562622,-5.327291488647461,2.0148251056671143,3.9557249546051025,0.3198001980781555,0.10615334659814835,-0.1557532399892807,1.1961292028427124
132,33422,33420,0.031196827068924904,-0.029812078922986984,0.9310958385467529,2.0712335109710693,3.3190035820007324,-5.067652225494385,2.0164196491241455,3.9556479454040527,0.3196563124656677,0.06965261697769165,-0.14628006517887115,1.1374343633651733
133,33432,33430,-0.03367580845952034,-0.05027216300368309,1.0285024642944336,3.1774559020996094,2.984450578689575,-4.663985252380371,2.0172078609466553,3.955408811569214,0.31954875588417053,0.08416436612606049,-0.11051929742097855,1.081281304359436
134,33442,33440,-0.032291483134031296,-0.030583076179027557,1.0107574462890625,3.956501007080078,4.316450595855713,-4.5793609619140625,2.017648935317993,3.95534610748291,0.317964106798172,0.03980404511094093,-0.061420999467372894,1.03325617313385
135,33452,33450,0.036210060119628906,-0.03452562168240547,0.9408286809921265,3.5597851276397705,5.113528728485107,-4.236319065093994,2.018711566925049,3.9550297260284424,0.31778770685195923,0.05330966040492058,-0.006855957675725222,0.984810471534729
136,33462,33460,0.09232734888792038,-0.023704495280981064,0.9759215712547302,1.6514519453048706,4.61259126663208,-4.064556121826172,2.0190420150756836,3.954737424850464,0.31764718890190125,0.05092976242303848,0.03286377340555191,0.9425386190414429
137,33472,33470,0.09476055949926376,-0.09074707329273224,1.0084095001220703,-0.405720055103302,3.135185718536377,-4.009387493133545,2.019329309463501,3.954683303833008,0.31663358211517334,0.05229123681783676,-0.03374410420656204,0.9110715985298157
138,33482,33480,0.08841913938522339,-0.1453298032283783,0.9919831156730652,-1.486651062965393,2.2064568996429443,-4.293095111846924,2.0187766551971436,3.955789804458618,0.31645894050598145,-0.009628999046981335,-0.04692037031054497,0.8797775506973267
139,33492,33490,-0.004058945458382368,-0.07059226185083389,1.0041584968566895,-1.9096688032150269,2.4372026920318604,-4.213705062866211,2.019834041595459,3.9561688899993896,0.3161938190460205,0.019460946321487427,-0.07032673805952072,0.8396000266075134
140,33502,33500,0.0059664188884198666,-0.031437791883945465,0.9285784363746643,-2.033533811569214,0.7141144275665283,-3.0985701084136963,2.019681453704834,3.9566261768341064,0.3143337070941925,0.03949045389890671,-0.10027413815259933,0.8035798072814941
141,33512,33510,0.026845891028642654,0.00046641388325951993,0.9777918457984924,-0.8955523371696472,3.582387685775757,-3.3423047065734863,2.019582748413086,3.956162452697754,0.31399106979370117,0.047352299094200134,-0.1235722005367279,0.7603192925453186
142,33522,33520,-0.01034473069012165,0.07529015094041824,1.033799171447754,0.7894629836082458,3.5377514362335205,-3.1580026149749756,2.019808530807495,3.956209421157837,0.3136148750782013,-0.04660457372665405,-0.1268058717250824,0.7263851761817932
143,33532,33530,0.023212367668747902,0.040965862572193146,1.0552055835723877,2.711169958114624,4.503264427185059,-2.8864736557006836,2.02030348777771,3.9563822746276855,0.31321921944618225,-0.13988880813121796,-0.10232526808977127,0.6993613243103027
144,33542,33540,-0.00604595011100173,0.01574859581887722,1.0717118978500366,3.123746156692505,6.950015544891357,-2.8003287315368652,2.02158522605896,3.9561891555786133,0.3158565163612366,-0.16700024902820587,-0.0579187385737896,0.6683991551399231
145,33552,33550,-0.022443706169724464,-0.04555114731192589,1.060052752494812,4.641496181488037,7.014815807342529,-2.503258466720581,2.0217318534851074,3.9564120769500732,0.3157539963722229,-0.2208278626203537,0.15795336663722992,0.6279878616333008
146,33562,33560,-0.030713699758052826,-0.031350426375865936,1.0408051013946533,2.177553653717041,7.832362651824951,-2.3737757205963135,2.0229270458221436,3.9544012546539307,0.3157438635826111,-0.2665015459060669,0.12602034211158752,0.6073031425476074
147,33572,33570,0.023944104090332985,-0.014496768824756145,1.0314077138900757,-0.47327205538749695,5.556765079498291,-2.267216682434082,2.0229315757751465,3.956670045852661,0.31899577379226685,-0.39851146936416626,0.14363537728786469,0.6038057208061218
148,33582,33580,0.002246602438390255,-0.00841712485998869,0.9996175169944763,-4.00780725479126,5.862030029296875,-2.2515475749969482,2.0233542919158936,3.956425189971924,0.31922903656959534,-0.4297892153263092,0.10783913731575012,0.5869146585464478
149,33592,33590,0.11172449588775635,-0.07514879107475281,0.9622185826301575,-4.857890605926514,0.6407873630523682,-2.2678864002227783,2.0238609313964844,3.9571568965911865,0.3195132315158844,-0.4932023286819458,0.03596782684326172,0.5652449131011963
150,33602,33600,0.03773471340537071,-0.12948039174079895,1.0341320037841797,-4.899758815765381,-1.6218702793121338,-2.01800537109375,2.0246810913085938,3.9579365253448486,0.3208615183830261,-0.4417271316051483,0.020968899130821228,0.5433852076530457
151,33612,33610,0.0040251207537949085,-0.050052396953105927,1.0295476913452148,-3.4014604091644287,-3.263200044631958,-1.8059433698654175,2.024761438369751,3.957218885421753,0.3212226331233978,-0.4282035231590271,0.012820307165384293,0.5228011012077332
152,33622,33620,0.004128311760723591,-0.020287465304136276,0.9964812994003296,-1.8419604301452637,-2.4774391651153564,-1.6213165521621704,2.025191068649292,3.956618070602417,0.3215484321117401,-0.40161001682281494,-0.048759039491415024,0.5039172172546387
153,33632,33630,-0.026278050616383553,0.050445251166820526,0.994438648223877,-0.8146215081214905,-1.1619465351104736,-1.8231509923934937,2.0258569717407227,3.9567031860351562,0.3215958774089813,-0.6120290160179138,-0.08325779438018799,0.48465919494628906
154,33642,33640,-0.03396627679467201,0.13889136910438538,1.0196144580841064,0.29631656408309937,0.12354670464992523,-1.6495122909545898,2.0290775299072266,3.9568326473236084,0.32178881764411926,-0.5171111822128296,-0.09345687180757523,0.4659532308578491
155,33652,33650,-0.0013553184689953923,-0.0007102208910509944,0.9748761653900146,0.38541245460510254,1.1373282670974731,-2.1075494289398193,2.028733015060425,3.9569039344787598,0.3221931755542755,-0.5231005549430847,-0.09257155656814575,0.4479729235172272
156,33662,33660,0.01950615830719471,-0.031382713466882706,0.9885362386703491,0.3961747884750366,0.4668600261211395,-2.140092134475708,2.029388904571533,3.956346035003662,0.3225049674510956,-0.538118839263916,-0.1643025428056717,0.4238569736480713
157,33672,33670,-0.025400716811418533,0.002167068189010024,1.0393321514129639,0.02991599589586258,-0.6447426080703735,-2.1143789291381836,2.0300426483154297,3.9576144218444824,0.32159921526908875,-0.5375651121139526,-0.15689878165721893,0.408983051776886
158,33682,33680,0.016040371730923653,-0.06812873482704163,0.9363622665405273,-0.18515336513519287,-0.08375313133001328,-2.9475502967834473,2.0304157733917236,3.957610845565796,0.32188159227371216,-0.5981464982032776,-0.08042484521865845,0.4016212224960327
159,33692,33690,0.05100683495402336,-0.07304256409406662,0.8879995942115784,0.4969736337661743,-0.9985166192054749,-2.8916585445404053,2.0319066047668457,3.958160638809204,0.3220548629760742,-0.5026993751525879,-0.08332909643650055,0.3895472586154938
160,33702,33700,0.02560928463935852,-0.01274553406983614,0.9286477565765381,1.3983023166656494,-2.873091459274292,-2.631737232208252,2.031684637069702,3.957763910293579,0.32364511489868164,-0.3891693651676178,-0.07398118823766708,0.3613542914390564
161,33712,33710,0.036465611308813095,0.002784749958664179,0.9165251851081848,1.1855052709579468,-2.541055679321289,-2.2022042274475098,2.0312790870666504,3.9575510025024414,0.32387635111808777,-0.5651810169219971,-0.058402083814144135,0.3355824947357178
162,33722,33720,0.015476816333830357,-0.005191904027014971,0.9800357222557068,1.5074551105499268,-2.419574499130249,-1.498489260673523,2.034205436706543,3.9578099250793457,0.32384705543518066,-0.5066032409667969,-0.040775131434202194,0.3080836534500122
163,33732,33730,-0.0018210805719718337,-1.3498632142727729e-05,0.9999983310699463,0.9683079123497009,-1.4309673309326172,-1.4125655889511108,2.0350170135498047,3.956961154937744,0.3263929486274719,-0.460249125957489,-0.023461537435650826,0.2863295376300812
164,33742,33740,0.00820072926580906,-0.025316284969449043,0.962335467338562,0.9960067272186279,-1.1242344379425049,-0.88429856300354,2.035728931427002,3.9558308124542236,0.32656973600387573,-0.4998795986175537,-0.011157326400279999,0.25625079870224
165,33752,33750,0.03566582128405571,-0.13464735448360443,0.9805610179901123,-0.07095556706190109,-0.18171122670173645,-0.9201614260673523,2.0371131896972656,3.95550799369812,0.32667475938796997,-0.40516144037246704,-0.010960066691040993,0.24617907404899597
166,33762,33760,0.04677826538681984,-0.18785563111305237,0.9938865900039673,-0.06549941003322601,-2.1782596111297607,-1.0457754135131836,2.0365679264068604,3.9542927742004395,0.3269002437591553,-0.39103639125823975,-0.019998053088784218,0.2233496904373169
167,33772,33770,0.018703680485486984,-0.05499479919672012,0.9949025511741638,-0.5736413598060608,-2.9090323448181152,-0.9697831273078918,2.036726236343384,3.953641653060913,0.3227604627609253,-0.42099982500076294,-0.03359106928110123,0.19357804954051971
168,33782,33780,-0.038835782557725906,-0.073275126516819,0.9744722247123718,-0.5203184485435486,-2.6047279834747314,-0.9821270108222961,2.0379347801208496,3.952883243560791,0.3225863575935364,-0.36328446865081787,-0.047982893884181976,0.19079604744911194
169,33792,33790,0.0031308974139392376,-0.03574938327074051,0.9701610803604126,0.21698322892189026,-3.1399178504943848,-0.6655264496803284,2.038323402404785,3.953160047531128,0.3224697709083557,-0.383430540561676,-0.05577416345477104,0.1790386289358139
170,33802,33800,-0.007645399775356054,0.015468432568013668,0.9662767052650452,0.28323081135749817,-3.1728875637054443,-1.235417366027832,2.0394697189331055,3.9533374309539795,0.3231477737426758,-0.32086071372032166,-0.055248573422431946,0.17552044987678528
171,33812,33810,-0.02257741056382656,0.07821685075759888,1.004427194595337,0.5693553686141968,-3.2203333377838135,-1.355629324913025,2.0399329662323,3.9530906677246094,0.323013037443161,-0.1835365742444992,-0.04984559491276741,0.16352130472660065
172,33822,33820,0.014913300983607769,0.004453750792890787,0.964682400226593,0.01549886167049408,-2.4137375354766846,-1.7271226644515991,2.0393548011779785,3.9538047313690186,0.32296222448349,-0.4355047047138214,-0.04472081735730171,0.15549342334270477
173,33832,33830,-0.014639309607446194,0.01929766871035099,1.044342279434204,-1.119042158126831,-1.6767749786376953,-2.2653589248657227,2.0428974628448486,3.9526355266571045,0.3223913311958313,-0.2938689887523651,-0.12831711769104004,0.12840308248996735
174,33842,33840,-0.03717062249779701,0.03729965537786484,1.096419095993042,-0.5411070585250854,-1.7333470582962036,-2.647873640060425,2.042095899581909,3.9525654315948486,0.32231032848358154,-0.16574159264564514,-0.13361062109470367,0.09455719590187073
175,33852,33850,-0.039287831634283066,0.02932771109044552,1.0623935461044312,-1.0332651138305664,-2.2783570289611816,-3.012671709060669,2.041792392730713,3.9529287815093994,0.3223126530647278,-0.34386202692985535,-0.14055433869361877,0.07437501847743988
176,33862,33860,-0.02133733592927456,-0.023850953206419945,0.9993830919265747,-0.47001299262046814,-0.2599354684352875,-3.6788947582244873,2.045456886291504,3.953631639480591,0.322162926197052,-0.21975919604301453,-0.14571037888526917,0.0522691048681736
177,33872,33870,-0.018805744126439095,0.008282763883471489,0.9985061287879944,1.4768013954162598,-1.0283037424087524,-4.471316337585449,2.045175075531006,3.953930616378784,0.3225500285625458,-0.18493317067623138,-0.13358764350414276,0.0511288084089756
178,33882,33880,0.006228006910532713,0.06471819430589676,0.9547120332717896,2.830918550491333,0.9080873727798462,-4.373556613922119,2.045708656311035,3.955399751663208,0.32257768511772156,-0.08881314098834991,-0.09574200958013535,0.008575517684221268
179,33892,33890,0.06909853219985962,-0.010955963283777237,0.9327484369277954,3.9657788276672363,0.12825147807598114,-4.527076244354248,2.0454201698303223,3.9550821781158447,0.32264575362205505,-0.09343282878398895,-0.04034747928380966,-0.03456712141633034
180,33902,33900,0.10426212847232819,-0.09960436820983887,0.9318974614143372,3.3483338356018066,0.6611446142196655,-4.512231826782227,2.046294689178467,3.954796552658081,0.32408803701400757,-0.17161060869693756,-0.05607888475060463,-0.08047644048929214
181,33912,33910,0.016741467639803886,-0.063797727227211,0.9966505169868469,3.1131751537323,-0.6396397352218628,-4.226804733276367,2.047734022140503,3.9545505046844482,0.32400745153427124,-0.15428613126277924,0.006343993358314037,-0.1367415189743042
182,33922,33920,-0.050871774554252625,-0.027450647205114365,1.0210002660751343,1.5724550485610962,-0.43014708161354065,-4.107966423034668,2.0482935905456543,3.9545397758483887,0.3239781856536865,-0.048281121999025345,0.05159074068069458,-0.18309342861175537
183,33932,33930,-0.07904013246297836,-0.10171296447515488,1.0208642482757568,-0.15708236396312714,0.23939819633960724,-4.235060691833496,2.047983169555664,3.9553258419036865,0.324337363243103,-0.18801921606063843,0.06794653832912445,-0.19714736938476562
184,33942,33940,-0.008829288184642792,-0.03765008971095085,0.9968838691711426,-2.8905627727508545,0.2539474070072174,-4.6876091957092285,2.0509183406829834,3.958876609802246,0.3243696093559265,-0.1688227355480194,0.0448417142033577,-0.17362871766090393
185,33952,33950,-0.002812213497236371,-0.04132012277841568,0.9896208643913269,-4.467223644256592,0.42803099751472473,-5.139279842376709,2.0515382289886475,3.9588584899902344,0.324380099773407,-0.15393877029418945,-0.011471156030893326,-0.21996057033538818
186,33962,33960,-0.008383472450077534,0.03635096177458763,1.005505084991455,-2.690096139907837,-1.212170124053955,-5.296792030334473,2.0533812046051025,3.961994171142578,0.327335387468338,-0.13056553900241852,-0.0676117017865181,-0.21688300371170044
187,33972,33970,-0.05513858050107956,0.058365706354379654,1.0116556882858276,-1.2564016580581665,-0.1427481770515442,-4.964160442352295,2.053220748901367,3.962132453918457,0.32757067680358887,-0.10560045391321182,-0.022301161661744118,-0.24205826222896576
188,33982,33980,-0.0048570213839411736,-0.019065506756305695,1.0158754587173462,1.2111988067626953,-1.6894769668579102,-4.800639629364014,2.0549066066741943,3.9636144638061523,0.32780468463897705,-0.0793646052479744,-0.02202957682311535,-0.27185189723968506
189,33992,33990,0.0248034056276083,-0.11339005827903748,1.0164952278137207,2.317310333251953,-1.4643166065216064,-4.5969157218933105,2.0547642707824707,3.962939977645874,0.32808831334114075,-0.19277358055114746,0.0061135804280638695,-0.32534998655319214
190,34002,34000,0.001943152048625052,-0.06877845525741577,1.0023373365402222,3.8136250972747803,-0.591213583946228,-4.8284735679626465,2.057044744491577,3.9626739025115967,0.32891061902046204,-0.07771351933479309,0.05597821995615959,-0.3616694211959839
191,34012,34010,0.015911851078271866,-0.1437276005744934,1.0160951614379883,3.3833816051483154,-1.275127649307251,-4.486810207366943,2.056889772415161,3.96284556388855,0.32931721210479736,-0.12415888905525208,0.11199508607387543,-0.41159144043922424
192,34022,34020,0.033515315502882004,-0.18828549981117249,1.016266942024231,1.36332368850708,-0.2863502502441406,-4.411111831665039,2.058588743209839,3.963744640350342,0.3296476900577545,-0.1669996678829193,0.07342153787612915,-0.43618571758270264
193,34032,34030,0.005760625936090946,-0.2958645522594452,1.0333384275436401,0.4936580955982208,-0.9932669401168823,-4.739178657531738,2.059788465499878,3.9634692668914795,0.32900747656822205,-0.05034606531262398,0.16799479722976685,-0.4937625229358673
194,34042,34040,-0.025614896789193153,-0.0964030772447586,1.0093414783477783,-1.6017966270446777,-0.8144137263298035,-4.489889144897461,2.0598838329315186,3.9632394313812256,0.3294093608856201,-0.024929963052272797,0.147903710603714,-0.5028184652328491
195,34052,34050,-0.04954106733202934,-0.01933976262807846,1.001944661140442,-1.699250340461731,-1.9630705118179321,-4.3215131759643555,2.060211181640625,3.964478015899658,0.3297558128833771,-0.14044252038002014,0.04031774774193764,-0.5442038178443909
196,34062,34060,-0.08726584911346436,0.01435134094208479,1.0002915859222412,-2.714796781539917,-1.1453393697738647,-3.711859703063965,2.062425374984741,3.9653124809265137,0.3299689292907715,-0.09014901518821716,0.08297964185476303,-0.5866811871528625
197,34072,34070,-0.04177753999829292,-0.02744046412408352,0.9877157807350159,-2.5144355297088623,-0.5828794836997986,-3.346264600753784,2.062821865081787,3.9642977714538574,0.330278217792511,0.020874204114079475,0.03398223593831062,-0.6277036070823669
198,34082,34080,0.026012638583779335,-0.016003109514713287,0.977078378200531,-1.3173768520355225,-0.8708104491233826,-2.8903841972351074,2.062788486480713,3.963947057723999,0.33063486218452454,0.04408399015665054,3.4202261304017156e-05,-0.6707754731178284
199,34092,34090,-0.07208406925201416,0.02015628293156624,0.9746590256690979,-0.5372253060340881,-2.5443780422210693,-2.467881441116333,2.0639166831970215,3.96511173248291,0.33095040917396545,0.08426055312156677,-0.016915898770093918,-0.6784491539001465
200,34102,34100,-0.08642252534627914,0.048950280994176865,0.9731230139732361,-0.13096439838409424,-0.962158203125,-2.366050958633423,2.0645034313201904,3.9652745723724365,0.3301304578781128,0.0453203022480011,-0.022444618865847588,-0.6956640481948853
201,34112,34110,-0.02162381075322628,0.008713274262845516,0.974592387676239,0.6034674644470215,0.8644247055053711,-2.3333067893981934,2.066859722137451,3.9670097827911377,0.3302953243255615,0.056380245834589005,-0.017957625910639763,-0.6900115013122559
202,34122,34120,-0.004496623761951923,-0.014456650242209435,0.9801584482192993,0.8387069702148438,1.6074678897857666,-2.8732399940490723,2.067349910736084,3.9671740531921387,0.33043918013572693,-0.029321864247322083,-0.00479540042579174,-0.710840106010437
203,34132,34130,0.0014425877016037703,-0.0637301579117775,0.9604743123054504,1.201404333114624,1.6171280145645142,-2.4309046268463135,2.0697152614593506,3.9681105613708496,0.3306998908519745,0.039633505046367645,0.012992816045880318,-0.7210690975189209
204,34142,34140,0.021612318232655525,-0.1256169080734253,0.9330311417579651,0.4310253858566284,1.7134393453598022,-2.489715814590454,2.0692200660705566,3.967883586883545,0.3308294117450714,-0.053803183138370514,0.0258049163967371,-0.7553437352180481
205,34152,34150,-0.0011786506511271,-0.06248513236641884,0.9593299031257629,0.04127749055624008,0.702920138835907,-2.4483368396759033,2.070411205291748,3.9668092727661133,0.3307989537715912,0.022552043199539185,0.030365675687789917,-0.7793709635734558
206,34162,34160,0.028190070763230324,-0.11269848793745041,0.9460142254829407,-0.09726070612668991,0.12874791026115417,-2.529012680053711,2.0698204040527344,3.9660682678222656,0.3322827219963074,0.024048205465078354,0.029315974563360214,-0.8162782192230225
207,34172,34170,0.04641733318567276,-0.16264979541301727,0.9412792921066284,-0.8450599908828735,1.1295146942138672,-2.2549006938934326,2.070324659347534,3.9663984775543213,0.3322749733924866,0.023391010239720345,0.021649839356541634,-0.8315820097923279
208,34182,34180,0.029026292264461517,-0.2632303535938263,0.9544407725334167,-0.8600824475288391,1.6423749923706055,-2.393864393234253,2.070580244064331,3.9655189514160156,0.3321908116340637,-0.0008192582754418254,0.08373337984085083,-0.8824365139007568
209,34192,34190,0.03815693408250809,-0.1470305174589157,0.9653012752532959,-0.48840251564979553,2.1464154720306396,-1.9724459648132324,2.0708281993865967,3.9641478061676025,0.33207693696022034,-0.025000568479299545,0.06414756923913956,-0.9049864411354065
210,34202,34200,0.033689431846141815,-0.08357488363981247,0.9583320617675781,-0.003159119514748454,1.8921082019805908,-2.092789649963379,2.0712621212005615,3.963809013366699,0.33083969354629517,-0.12731905281543732,0.053609564900398254,-0.9333875775337219
211,34212,34210,-0.021490247920155525,-0.06705819815397263,0.9707908034324646,-0.6255438327789307,-0.01802731677889824,-1.851857304573059,2.072636842727661,3.9629392623901367,0.330534428358078,-0.044694121927022934,0.043907180428504944,-0.9666790962219238
212,34222,34220,0.06171971932053566,-0.007711448241025209,0.9585393667221069,-1.6138200759887695,1.7419753074645996,-2.0493054389953613,2.0723583698272705,3.964104175567627,0.3303880989551544,-0.14830061793327332,0.018688548356294632,-0.9597154855728149
213,34232,34230,0.013229422271251678,0.005733079742640257,0.9943443536758423,-1.6389468908309937,0.8092485070228577,-2.287365436553955,2.0742337703704834,3.9639577865600586,0.3288613259792328,-0.07061907649040222,-0.014898364432156086,-0.98481684923172
214,34242,34240,-0.05336370691657066,0.04790502041578293,1.0084465742111206,-2.011674165725708,-1.1565781831741333,-2.129077434539795,2.0742151737213135,3.964463472366333,0.3285685181617737,0.022087156772613525,0.028851957991719246,-0.9952014088630676
215,34252,34250,-0.0689515545964241,0.013447172939777374,0.9771489500999451,-2.4308574199676514,-0.5482499003410339,-2.3792479038238525,2.0735480785369873,3.963076591491699,0.3282780349254608,-0.1181531548500061,-0.013970579952001572,-1.0329853296279907
216,34262,34260,-0.02852780371904373,-0.003775557968765497,0.9654049873352051,-1.7117280960083008,0.8131717443466187,-2.112109899520874,2.0764238834381104,3.9647204875946045,0.32721802592277527,-0.10445147007703781,0.023589249700307846,-1.0228391885757446
217,34272,34270,0.005725561641156673,-0.017792027443647385,0.9880058765411377,-2.0987355709075928,1.082714557647705,-2.13498854637146,2.077033281326294,3.964359998703003,0.3268032670021057,-0.029979106038808823,-0.019301461055874825,-1.039190411567688
218,34282,34280,-0.019899023696780205,-0.02785099297761917,1.0270507335662842,-2.8110203742980957,-0.9060042500495911,-2.024285316467285,2.077367067337036,3.964184522628784,0.32636940479278564,-0.10941248387098312,0.0045125121250748634,-1.0643846988677979
219,34292,34290,-0.03591654449701309,-0.03217668458819389,1.0303339958190918,-2.367772102355957,2.050590753555298,-2.3855478763580322,2.0787417888641357,3.96325945854187,0.3258826434612274,-0.03679873049259186,-0.05294528603553772,-1.0851459503173828
220,34302,34300,0.00031964704976417124,0.00955994613468647,1.0271843671798706,-2.2004055976867676,2.531240224838257,-2.453237295150757,2.078555107116699,3.962885618209839,0.3270115256309509,-0.06996993720531464,-0.10326854884624481,-1.1201906204223633
221,34312,34310,0.027975592762231827,0.01989906094968319,0.9617123603820801,-1.78570556640625,4.535173416137695,-2.5772054195404053,2.079526424407959,3.9621407985687256,0.32668939232826233,-0.12801413238048553,-0.1456531286239624,-1.1667144298553467
222,34322,34320,0.039861202239990234,0.05433148145675659,0.9841663837432861,-1.1861562728881836,2.6663060188293457,-2.4769704341888428,2.080608367919922,3.9622607231140137,0.32634589076042175,-0.09908531606197357,-0.17614592611789703,-1.1925103664398193
223,34332,34330,0.009655593894422054,-0.007219483144581318,1.0259801149368286,-0.8229923248291016,0.24933837354183197,-2.461134910583496,2.0807340145111084,3.9626576900482178,0.326995849609375,-0.11311695724725723,-0.19751429557800293,-1.2163240909576416
224,34342,34340,-0.020643427968025208,-0.012075286358594894,1.0493309497833252,0.4636506736278534,-0.17546632885932922,-2.501399278640747,2.0813982486724854,3.9626736640930176,0.3267635703086853,-0.18590594828128815,-0.20268131792545319,-1.2409271001815796
225,34352,34350,-0.0034093246795237064,-0.1593763381242752,1.0183712244033813,1.5157818794250488,0.21435363590717316,-2.058091402053833,2.0829713344573975,3.9626526832580566,0.32648128271102905,-0.1754119098186493,-0.1892152726650238,-1.2648096084594727
226,34362,34360,-0.020242804661393166,-0.2552415430545807,0.9890446662902832,2.2694756984710693,0.5564702749252319,-2.5890982151031494,2.0836174488067627,3.9628524780273438,0.32610639929771423,-0.17219997942447662,-0.08173205703496933,-1.279205322265625
227,34372,34370,-0.03331751748919487,-0.014293731190264225,1.003810167312622,2.7007393836975098,-1.19004225730896,-2.109368085861206,2.0838119983673096,3.961637020111084,0.32592347264289856,-0.23384517431259155,-0.05021384730935097,-1.2900068759918213
228,34382,34380,-0.05632581189274788,0.06017014756798744,0.9523946642875671,1.2456282377243042,0.3384701907634735,-2.606381416320801,2.085345506668091,3.9621198177337646,0.3256526589393616,-0.2152472287416458,-0.029020657762885094,-1.3074761629104614
229,34392,34390,-0.016669245436787605,0.06770605593919754,0.9407853484153748,-1.625684142112732,-0.07900819927453995,-2.8824493885040283,2.0860612392425537,3.961277723312378,0.3238840401172638,-0.12351107597351074,-0.04347449168562889,-1.3527663946151733
230,34402,34400,-0.040406811982393265,0.10060381144285202,0.9677159786224365,-3.173595666885376,-0.5166549682617188,-2.307788372039795,2.085775852203369,3.961376667022705,0.32356375455856323,-0.3411879539489746,-0.09389059245586395,-1.3783432245254517
231,34412,34410,-0.03123527020215988,0.0994461327791214,0.9863855838775635,-3.4469313621520996,-1.617478847503662,-2.7179157733917236,2.089660167694092,3.9632222652435303,0.3230687975883484,-0.2909538447856903,-0.07832533121109009,-1.3597297668457031
232,34422,34420,0.007983564399182796,0.001261611469089985,0.9905354976654053,-3.4844350814819336,-1.9341020584106445,-3.081166982650757,2.0898544788360596,3.9624722003936768,0.3227194845676422,-0.24061976373195648,-0.22690162062644958,-1.3788832426071167
233,34432,34430,0.032771725207567215,-0.13708508014678955,0.9458983540534973,-2.1001741886138916,-1.8087422847747803,-3.078040361404419,2.0905306339263916,3.9635753631591797,0.32625624537467957,-0.18976397812366486,-0.27542644739151,-1.4174085855484009
234,34442,34440,0.06345372647047043,-0.13060276210308075,0.9562927484512329,0.4823302626609802,-1.8422389030456543,-3.1993985176086426,2.091282844543457,3.9639594554901123,0.32601234316825867,-0.142158642411232,-0.28907856345176697,-1.442956805229187
235,34452,34451,0.04336238279938698,-0.071443572640419,0.9782975316047668,4.604619979858398,-2.3148624897003174,-3.3593697547912598,2.091747283935547,3.96335768699646,0.3257453441619873,-0.16527892649173737,-0.16451896727085114,-1.489631175994873
236,34462,34460,0.010354598052799702,-0.051831718534231186,1.0024502277374268,6.756824970245361,-3.798543930053711,-3.2363109588623047,2.0929741859436035,3.96296763420105,0.322076678276062,-0.07604101300239563,-0.07553090900182724,-1.500409722328186
237,34472,34470,-0.038468584418296814,-0.01306934468448162,1.0619251728057861,7.157627582550049,-3.6505956649780273,-3.35972261428833,2.0931694507598877,3.9625191688537598,0.32161733508110046,-0.14314785599708557,-0.04188356176018715,-1.5179847478866577
