,timestamp_start,timestamp_end,acc.x,acc.y,acc.z,gyro.x,gyro.y,gyro.z,stateEstimate.x,stateEstimate.y,stateEstimate.z,stabilizer.pitch,stabilizer.roll,stabilizer.yaw
0,24052,24051,0.013007115572690964,-0.04127829521894455,1.0112675428390503,-1.3990060091018677,-2.4797565937042236,-2.101268768310547,1.8260924816131592,3.794790744781494,0.16158784925937653,1.494937539100647,0.5336436629295349,2.801802396774292
1,24062,24061,-0.0034017865546047688,-0.0025639263913035393,1.0314085483551025,0.06505875289440155,-2.9053897857666016,-2.0496511459350586,1.8267782926559448,3.79394268989563,0.16454516351222992,1.4503408670425415,0.38770848512649536,2.7934815883636475
2,24072,24071,0.06142449751496315,0.013671685010194778,1.0310477018356323,-5.849786758422852,5.2771220207214355,-1.2620325088500977,1.8273892402648926,3.793149709701538,0.16613078117370605,1.3829032182693481,0.3893184959888458,2.7683892250061035
3,24082,24081,0.015175437554717064,-0.12777836620807648,1.0515822172164917,-11.999631881713867,12.584227561950684,-1.2441169023513794,1.8269822597503662,3.7922754287719727,0.16830606758594513,1.275987982749939,0.2807878255844116,2.7577714920043945
4,24092,24091,0.023248979821801186,0.03297263756394386,1.0078901052474976,-15.843393325805664,16.765810012817383,-1.7223823070526123,1.8274502754211426,3.792829990386963,0.1709071546792984,1.059654712677002,-0.018345514312386513,2.7644402980804443
5,24102,24101,0.019631944596767426,-0.003116775071248412,0.9867278933525085,-18.29505157470703,18.024629592895508,-1.9863171577453613,1.8263742923736572,3.792412757873535,0.17231470346450806,0.939473032951355,-0.22255009412765503,2.7567765712738037
6,24112,24111,0.022678209468722343,-0.02892952784895897,1.0530325174331665,-16.861661911010742,18.05562400817871,-1.3638877868652344,1.8276326656341553,3.7929558753967285,0.17448098957538605,0.6641461849212646,-0.2967705726623535,2.7159879207611084
7,24122,24121,0.03411049768328667,-0.03522918373346329,1.0534257888793945,-10.823287963867188,12.59964370727539,-2.0939226150512695,1.8276909589767456,3.792348623275757,0.17654560506343842,0.3556983172893524,-0.40431973338127136,2.6831202507019043
8,24132,24131,-0.0226009339094162,0.09603511542081833,1.0033942461013794,-6.448613166809082,7.987864017486572,-1.231701374053955,1.8281766176223755,3.793862819671631,0.17771954834461212,0.15178892016410828,-0.5571075677871704,2.662299394607544
9,24142,24141,-0.02511550299823284,0.018678629770874977,1.0405879020690918,-2.313795566558838,1.418922781944275,-1.3477267026901245,1.829086422920227,3.7948386669158936,0.17994989454746246,0.19044263660907745,-0.7114816904067993,2.665343761444092
10,24152,24151,0.04833519086241722,-0.11582552641630173,1.1068733930587769,0.2988831698894501,-2.5085501670837402,-1.1196396350860596,1.8297843933105469,3.7937560081481934,0.18219774961471558,0.18360663950443268,-0.6100350618362427,2.648941993713379
11,24162,24161,0.03787936270236969,-0.14616215229034424,1.0985347032546997,2.13157320022583,-4.143777370452881,-1.2151479721069336,1.8298217058181763,3.7958619594573975,0.1853359192609787,0.39670833945274353,-0.6127446889877319,2.6395375728607178
12,24172,24171,0.016560308635234833,-0.015573336742818356,1.0237728357315063,1.584133267402649,-2.8915185928344727,-1.3005057573318481,1.8318805694580078,3.7956249713897705,0.18791088461875916,0.27348461747169495,-0.6496689319610596,2.6342411041259766
13,24182,24181,-0.009726367890834808,-0.012744906358420849,1.0415934324264526,-0.4509885609149933,0.16808469593524933,-1.3281673192977905,1.8323057889938354,3.7990341186523438,0.19039462506771088,0.3435389995574951,-0.68672776222229,2.621375560760498
14,24192,24191,0.02892765775322914,-0.0015493163373321295,1.0218465328216553,-1.857108473777771,4.004136085510254,-0.9337024688720703,1.8336474895477295,3.7988104820251465,0.19296427071094513,0.2326270490884781,-0.753548800945282,2.6109471321105957
15,24202,24201,-0.009552700445055962,-0.015270020812749863,1.1023476123809814,-3.980497121810913,4.877422332763672,-1.0881056785583496,1.837158441543579,3.8000643253326416,0.19683252274990082,-0.27350321412086487,-0.9148787260055542,2.623655319213867
16,24212,24211,-0.025449469685554504,0.01693027652800083,1.0581700801849365,-2.137664556503296,2.8552894592285156,-1.1391814947128296,1.8379148244857788,3.8045685291290283,0.19896750152111053,-0.31703755259513855,-1.463714361190796,2.6038248538970947
17,24222,24221,0.0048857443034648895,-0.007098476868122816,1.0114980936050415,4.324395656585693,-3.3669183254241943,-0.88897705078125,1.8422421216964722,3.804877758026123,0.20068606734275818,-0.8378744125366211,-1.4070957899093628,2.6360862255096436
18,24232,24231,0.02488529309630394,0.01182821486145258,0.9915854334831238,10.988618850708008,-10.467400550842285,-1.001171350479126,1.8433234691619873,3.8059279918670654,0.2047431617975235,-0.6478160619735718,-1.2649335861206055,2.6202683448791504
19,24242,24241,0.018658332526683807,0.01954023353755474,0.9990884065628052,18.29094886779785,-20.964092254638672,-0.9725537896156311,1.8439654111862183,3.8062171936035156,0.2079046219587326,-0.3894199728965759,-1.1440260410308838,2.597689628601074
20,24252,24251,0.05198507755994797,-0.11455007642507553,0.9733381867408752,21.865930557250977,-27.86329460144043,-0.9287898540496826,1.845198631286621,3.8059420585632324,0.21091625094413757,-0.21833327412605286,-0.788698136806488,2.6140527725219727
21,24262,24261,0.011986554600298405,-0.11145644634962082,0.952680230140686,21.88022232055664,-29.974185943603516,-1.5650063753128052,1.8441497087478638,3.805650472640991,0.21382473409175873,0.3206635117530823,-0.5425965189933777,2.5725677013397217
22,24272,24271,0.016747280955314636,-0.04649500548839569,0.9196017384529114,17.07716941833496,-27.31580924987793,-1.4618405103683472,1.8454145193099976,3.8053767681121826,0.2165774405002594,0.6213166117668152,-0.3104119598865509,2.5569348335266113
23,24282,24281,-0.03892204537987709,0.0401071272790432,0.9478678107261658,11.43232250213623,-20.861003875732422,-1.994886875152588,1.8451600074768066,3.806140184402466,0.2191799432039261,1.0417157411575317,-0.09033861011266708,2.5284695625305176
24,24292,24291,-0.024011116474866867,0.02371651493012905,0.9726043343544006,4.375403881072998,-9.170279502868652,-2.0866756439208984,1.8469051122665405,3.8065717220306396,0.22173534333705902,1.2184809446334839,0.0788329690694809,2.514775276184082
25,24302,24301,0.06098059192299843,-0.16151779890060425,0.967455267906189,-2.288120746612549,1.685512661933899,-2.4275546073913574,1.849147915840149,3.8080527782440186,0.22356124222278595,1.0923869609832764,-0.005375606007874012,2.512277364730835
26,24312,24311,0.06806311756372452,-0.20902641117572784,0.9386746287345886,-7.37539005279541,10.983601570129395,-2.8638827800750732,1.8506847620010376,3.809638023376465,0.22602792084217072,1.12703537940979,-0.034671299159526825,2.489104747772217
27,24322,24321,0.03635187819600105,-0.12442619353532791,0.959196925163269,-8.99626350402832,15.491364479064941,-3.0122666358947754,1.8510030508041382,3.8094706535339355,0.22846700251102448,1.027184247970581,-0.1329919993877411,2.4648451805114746
28,24332,24331,-0.010997065342962742,-0.04193858802318573,0.9902556538581848,-7.104708194732666,13.785902976989746,-2.8287010192871094,1.8500663042068481,3.810175657272339,0.23243749141693115,1.0796823501586914,-0.1713300496339798,2.4285809993743896
29,24342,24341,0.0018177484162151814,-0.00423757079988718,0.9507606029510498,-2.599337339401245,12.757838249206543,-2.9771828651428223,1.8512375354766846,3.809020757675171,0.2349187433719635,0.9477903842926025,-0.09200946986675262,2.3937010765075684
30,24352,24351,0.021098854020237923,-0.008615068159997463,0.9376431703567505,1.505446195602417,8.399129867553711,-2.856599807739258,1.8512697219848633,3.8080878257751465,0.23732540011405945,0.7869291305541992,-0.031724415719509125,2.3617124557495117
31,24362,24361,0.02138909511268139,-0.004404221661388874,0.940778911113739,3.7777059078216553,2.644057035446167,-3.0628957748413086,1.8503642082214355,3.808204174041748,0.24158531427383423,0.7720390558242798,0.00849965214729309,2.331444025039673
32,24372,24371,0.047833360731601715,0.09334557503461838,0.8925831317901611,5.183295249938965,-1.9919309616088867,-3.394247055053711,1.8510946035385132,3.8079288005828857,0.24400778114795685,0.7706590890884399,0.08166444301605225,2.2970848083496094
33,24382,24381,0.07896597683429718,0.12101258337497711,0.870517373085022,4.82787561416626,-4.8746442794799805,-3.224376678466797,1.8512930870056152,3.808239221572876,0.2463100105524063,0.8309983015060425,0.16548752784729004,2.2616045475006104
34,24392,24391,0.03650015592575073,-0.0030685998499393463,0.9146249294281006,2.6996119022369385,-4.890544891357422,-2.881758451461792,1.8529571294784546,3.808196783065796,0.24853426218032837,0.9152471423149109,0.22501376271247864,2.2283284664154053
35,24402,24401,0.03611199930310249,0.08211038261651993,0.900639533996582,-1.0478763580322266,-2.5222229957580566,-2.9865074157714844,1.8536041975021362,3.8102331161499023,0.24875220656394958,0.9789971113204956,0.0986177995800972,2.207231283187866
36,24412,24411,0.015460128895938396,0.1492549329996109,0.9146645665168762,-4.155175685882568,1.0523185729980469,-3.1492385864257812,1.8541871309280396,3.812091588973999,0.25068148970603943,0.9824608564376831,-0.001132640172727406,2.181387186050415
37,24422,24421,0.0518907867372036,0.12177994102239609,0.9140087366104126,-4.955358982086182,6.578468322753906,-3.255459785461426,1.8547977209091187,3.811061382293701,0.252780944108963,0.9915456771850586,0.1544809490442276,2.1325321197509766
38,24432,24431,0.018527820706367493,0.048906367272138596,0.9395495057106018,-3.8568456172943115,7.4164934158325195,-3.106250286102295,1.8563648462295532,3.8129849433898926,0.25460085272789,0.8569142818450928,0.07052996009588242,2.1014366149902344
39,24442,24441,0.02276710793375969,0.03148682042956352,0.9599714279174805,-2.6741838455200195,9.643399238586426,-3.5258660316467285,1.8407089710235596,3.822266101837158,0.25590968132019043,2.545008420944214,-1.047747254371643,2.220080852508545
40,24452,24451,0.006293359212577343,0.005873865447938442,0.9454396963119507,0.10827808082103729,11.184117317199707,-4.4643683433532715,1.8408613204956055,3.82265043258667,0.25921469926834106,2.2239789962768555,-0.9491835236549377,2.160287857055664
41,24462,24461,0.005875591654330492,0.001628564321435988,0.9429216980934143,8.12759017944336,20.068424224853516,-3.5845704078674316,1.8430207967758179,3.822201728820801,0.2603694796562195,1.7841627597808838,-0.798608660697937,2.095792055130005
42,24472,24471,0.007116453722119331,-0.004018383100628853,0.9370813369750977,16.720327377319336,30.721519470214844,-2.859086513519287,1.842240810394287,3.822258234024048,0.26218581199645996,1.5050009489059448,-0.592371940612793,2.043815851211548
43,24482,24481,-0.056501634418964386,0.04618751257658005,0.974810779094696,23.5782470703125,37.64314651489258,-2.3256378173828125,1.8412892818450928,3.8216264247894287,0.26410049200057983,1.0946341753005981,-0.25925153493881226,1.992939829826355
44,24492,24491,-0.008087590336799622,-0.10866343975067139,0.9864711165428162,27.75305938720703,42.018798828125,-2.208446502685547,1.8433338403701782,3.820373058319092,0.26337894797325134,0.48084694147109985,0.15144041180610657,1.9494887590408325
45,24502,24501,-0.007485970389097929,-0.21366189420223236,0.9865654706954956,25.17896842956543,40.34612274169922,-2.5930850505828857,1.842360496520996,3.8222572803497314,0.2647278308868408,0.01626170426607132,0.34516987204551697,1.9407933950424194
46,24512,24511,-0.01653437502682209,-0.06610764563083649,0.9539361596107483,17.875566482543945,32.281349182128906,-2.3794033527374268,1.8445353507995605,3.8225209712982178,0.26607009768486023,-0.5216954946517944,0.7083590030670166,1.906264305114746
47,24522,24521,0.000380916811991483,-0.0398811437189579,0.9102820754051208,8.702231407165527,20.25518226623535,-1.8370652198791504,1.8423994779586792,3.824016809463501,0.2674162983894348,-0.6094878911972046,0.781929075717926,1.8923392295837402
48,24532,24531,0.04627281427383423,-0.04173269867897034,0.8579447865486145,-0.8166683912277222,10.632035255432129,-2.3407845497131348,1.8432930707931519,3.825655460357666,0.26592034101486206,-0.8852868676185608,0.9310352802276611,1.8687719106674194
49,24542,24541,0.08372610062360764,-0.07279995828866959,0.887658417224884,-7.800824165344238,-0.13620468974113464,-1.740870714187622,1.844876766204834,3.8265676498413086,0.2668227255344391,-1.1808501482009888,0.8349130749702454,1.8420096635818481
50,24552,24551,0.038671836256980896,-0.035162054002285004,0.9312943816184998,-10.732623100280762,-5.595029830932617,-1.1154227256774902,1.8431974649429321,3.8274402618408203,0.26763102412223816,-1.0224177837371826,0.8080224394798279,1.8349214792251587
51,24562,24561,0.03572807088494301,-0.13545793294906616,0.9797206521034241,-10.451163291931152,-5.447470664978027,-0.2622488737106323,1.8434087038040161,3.8263518810272217,0.26945874094963074,-1.0648560523986816,0.8140890002250671,1.8228038549423218
52,24572,24571,0.03638971969485283,-0.11565863341093063,0.9860955476760864,-6.8921027183532715,-3.8832576274871826,0.08156221359968185,1.8428021669387817,3.8269553184509277,0.27024877071380615,-1.0781185626983643,0.6888207197189331,1.8114999532699585
53,24582,24581,0.009073364548385143,-0.031053513288497925,0.9552913904190063,-3.5844385623931885,0.8847018480300903,-0.27058202028274536,1.8429934978485107,3.8260953426361084,0.2709558606147766,-1.1333012580871582,0.7795759439468384,1.8186581134796143
54,24592,24591,-0.0012547631049528718,-0.014957555569708347,0.9728665351867676,-0.08080147206783295,5.235416889190674,0.2960808575153351,1.844482183456421,3.8261919021606445,0.2728080153465271,-1.2664427757263184,0.7439471483230591,1.8057951927185059
55,24602,24601,-0.0005281387711875141,-0.014688109047710896,1.0030760765075684,0.4386932849884033,7.329959392547607,0.03836619108915329,1.8461498022079468,3.8273990154266357,0.2735029458999634,-1.4439879655838013,0.7623935341835022,1.7997188568115234
56,24612,24611,0.004150762222707272,0.011186270974576473,0.9619078040122986,1.3544440269470215,7.79095458984375,-0.14352750778198242,1.8473471403121948,3.826995611190796,0.274170458316803,-1.5852317810058594,0.8649648427963257,1.8106459379196167
57,24622,24621,0.01838909462094307,0.009537747129797935,0.9715288877487183,0.13211186230182648,4.285003185272217,-0.32836437225341797,1.847765326499939,3.8272063732147217,0.27481114864349365,-1.7508258819580078,0.8704490065574646,1.7991468906402588
58,24632,24631,-0.02016144059598446,0.00020977226085960865,0.9694523215293884,-2.3149259090423584,-1.3831145763397217,-0.4189468324184418,1.847787618637085,3.8268468379974365,0.27437976002693176,-1.8168421983718872,0.9312804341316223,1.8042415380477905
59,24642,24641,-0.005233859643340111,-0.03345547616481781,0.9900329113006592,-5.498302936553955,-7.689655780792236,-0.1513744294643402,1.8470829725265503,3.8270134925842285,0.27505743503570557,-1.7024997472763062,0.8555077314376831,1.8007173538208008
60,24652,24651,0.0027168861124664545,-0.004399830009788275,1.035155177116394,-8.564748764038086,-12.429422378540039,-0.35589921474456787,1.8465136289596558,3.826676368713379,0.2756655216217041,-1.5659183263778687,0.8011435866355896,1.8041208982467651
61,24662,24661,0.004119597375392914,-0.06371259689331055,1.0262172222137451,-8.883637428283691,-14.41805362701416,-0.5280972123146057,1.846911907196045,3.8275272846221924,0.2770441472530365,-1.3671561479568481,0.7099505066871643,1.8057875633239746
62,24672,24671,-0.011988355778157711,-0.05808543041348457,0.9835748076438904,-8.705039978027344,-13.346489906311035,-0.6309241056442261,1.8477036952972412,3.827359437942505,0.2777802050113678,-1.314205527305603,0.6885311007499695,1.8054600954055786
63,24682,24681,0.024639654904603958,-0.07464983314275742,0.9418066740036011,-9.039517402648926,-9.340791702270508,-0.20013505220413208,1.8496685028076172,3.8282034397125244,0.27840566635131836,-1.2903928756713867,0.589652955532074,1.7844876050949097
64,24692,24691,-0.01967289298772812,0.02248874492943287,1.0468107461929321,-7.5024638175964355,-6.394233226776123,-0.6367632746696472,1.8494632244110107,3.8265347480773926,0.27713102102279663,-1.1532024145126343,0.6557355523109436,1.8277801275253296
65,24702,24701,0.04186511039733887,0.027405744418501854,0.9920796751976013,-7.342066764831543,-4.048099517822266,-1.2313427925109863,1.8496160507202148,3.8266608715057373,0.27761149406433105,-1.0758931636810303,0.6426784992218018,1.8377245664596558
66,24712,24711,0.005838694050908089,0.002811941783875227,1.016805648803711,-8.408488273620605,-4.826849937438965,-1.2287099361419678,1.8512758016586304,3.8262014389038086,0.2780956029891968,-1.0749958753585815,0.61994469165802,1.8322194814682007
67,24722,24721,0.06985729187726974,-0.039644576609134674,1.006070852279663,-9.390460014343262,-4.109450340270996,-1.4411485195159912,1.8521370887756348,3.826406955718994,0.2787090241909027,-1.108115553855896,0.4826130270957947,1.797440767288208
68,24732,24731,0.026367122307419777,-0.045745670795440674,1.0045642852783203,-10.987930297851562,-6.6122894287109375,-1.333913803100586,1.8517595529556274,3.827061891555786,0.2775396704673767,-1.008495569229126,0.32839706540107727,1.776121973991394
69,24742,24741,-0.019853252917528152,0.06963004171848297,1.0203018188476562,-12.473851203918457,-7.921873569488525,-0.9938185214996338,1.851286768913269,3.8259265422821045,0.2779842019081116,-0.8827361464500427,0.31528693437576294,1.7981640100479126
70,24752,24751,-0.007778365630656481,0.11258068680763245,0.9970603585243225,-11.915507316589355,-9.657340049743652,-0.7210677862167358,1.8537129163742065,3.82775616645813,0.2785036563873291,-1.0034255981445312,0.12608826160430908,1.7444844245910645
71,24762,24761,-0.018956635147333145,0.12807941436767578,1.0756592750549316,-11.071305274963379,-10.279882431030273,-0.4323388934135437,1.8553513288497925,3.8285815715789795,0.2781212031841278,-0.9074589014053345,-0.047214288264513016,1.7224326133728027
72,24772,24771,0.024768058210611343,0.007943524047732353,0.9459959864616394,-9.882603645324707,-10.56181526184082,-0.46592241525650024,1.8546029329299927,3.8284664154052734,0.2786288261413574,-0.753970205783844,-0.12053777277469635,1.728467345237732
73,24782,24781,0.023972593247890472,0.013714691624045372,1.0196257829666138,-7.592452049255371,-11.769357681274414,-0.6570076942443848,1.857724666595459,3.82731556892395,0.27904027700424194,-0.8880079984664917,-0.09619363397359848,1.7298253774642944
74,24792,24791,0.015860458835959435,-0.010923376306891441,1.0149246454238892,-5.969827175140381,-12.459595680236816,-0.8596279621124268,1.858782172203064,3.827160120010376,0.2811810374259949,-0.7973360419273376,-0.20406492054462433,1.7121955156326294
75,24802,24801,0.031637921929359436,-0.07821967452764511,0.9990959763526917,-5.28469181060791,-12.076606750488281,-0.6511683464050293,1.859100341796875,3.8278772830963135,0.28180527687072754,-0.6234771609306335,-0.36658698320388794,1.6865812540054321
76,24812,24811,0.01846919395029545,-0.014964564703404903,1.0320720672607422,-4.035778999328613,-14.774934768676758,-0.5325958728790283,1.8592621088027954,3.8258628845214844,0.282423734664917,-0.4150563180446625,-0.26743996143341064,1.715041160583496
77,24822,24821,0.07122264802455902,-0.11789587140083313,1.0081392526626587,-3.7445898056030273,-14.226727485656738,-0.6905637383460999,1.861181378364563,3.8272478580474854,0.2806159555912018,-0.4556173086166382,-0.4049200713634491,1.6848551034927368
78,24832,24831,-0.010421229526400566,-0.04641968011856079,1.0302395820617676,-3.289802312850952,-14.50719928741455,-0.39810752868652344,1.8605856895446777,3.8266680240631104,0.28118422627449036,-0.1494799554347992,-0.44313284754753113,1.6843153238296509
79,24842,24841,0.03035636991262436,-0.049556102603673935,0.9807973504066467,-4.068660259246826,-12.506547927856445,-0.9984825253486633,1.863027811050415,3.8273258209228516,0.2816722095012665,-0.18031437695026398,-0.5570715665817261,1.6634016036987305
80,24852,24851,-0.01974867656826973,0.023541906848549843,1.0620583295822144,-3.733729362487793,-9.791714668273926,-0.957666277885437,1.8623684644699097,3.8275880813598633,0.2822665572166443,0.07443104684352875,-0.6701650619506836,1.6447778940200806
81,24862,24861,0.038344722241163254,0.030790699645876884,0.9929900169372559,-3.2306599617004395,-6.830564022064209,-1.1218568086624146,1.8622097969055176,3.8262224197387695,0.28412553668022156,0.25873398780822754,-0.6142745614051819,1.648401141166687
82,24872,24871,-0.005480320658534765,-0.02897917665541172,1.0164183378219604,-2.857391595840454,-5.785740375518799,-1.02466881275177,1.8632477521896362,3.825902223587036,0.2847532331943512,0.30235451459884644,-0.5610213875770569,1.649451494216919
83,24882,24881,-0.023120194673538208,-0.0828351080417633,1.0474791526794434,-3.2786972522735596,-4.898817539215088,-1.5230964422225952,1.8651527166366577,3.826540231704712,0.2854233980178833,0.2961875796318054,-0.6673686504364014,1.6353687047958374
84,24892,24891,-0.004108138382434845,-0.05592755600810051,1.0174341201782227,-3.3742105960845947,-1.1614125967025757,-1.8695696592330933,1.8660191297531128,3.827049493789673,0.2873118817806244,0.3174832761287689,-0.7623379826545715,1.614366054534912
85,24902,24901,0.009562613442540169,-0.02624693512916565,1.025343418121338,-2.4148216247558594,-2.5816917419433594,-1.6566321849822998,1.8668497800827026,3.8282151222229004,0.28807684779167175,0.38531529903411865,-0.8525740504264832,1.5916279554367065
86,24912,24911,0.0077781155705451965,-0.027994731441140175,1.004852294921875,-0.6735108494758606,-4.634098052978516,-1.0699325799942017,1.8677531480789185,3.826911449432373,0.28891050815582275,0.4049423933029175,-0.7564695477485657,1.5822780132293701
87,24922,24921,-0.03762897104024887,0.024157598614692688,0.9872827529907227,2.319307804107666,-6.559812068939209,-1.5474300384521484,1.8683581352233887,3.8282344341278076,0.2904915511608124,0.5142936110496521,-0.7888666987419128,1.5600759983062744
88,24932,24931,0.026147298514842987,-0.01669410802423954,0.9617220759391785,4.532489776611328,-7.571685314178467,-1.1941381692886353,1.8701523542404175,3.8286800384521484,0.2913178503513336,0.5116516947746277,-0.7615245580673218,1.552330493927002
89,24942,24941,-0.005081092938780785,0.012452295981347561,1.069805383682251,4.7691192626953125,-10.162917137145996,-0.24752981960773468,1.8701989650726318,3.827906847000122,0.29213136434555054,0.6001776456832886,-0.7119807004928589,1.5397510528564453
90,24952,24951,-0.00045033355127088726,0.052722785621881485,1.0943756103515625,3.9709441661834717,-5.689188003540039,-0.9546608924865723,1.869580864906311,3.827725887298584,0.29302358627319336,0.7624425292015076,-0.6677504777908325,1.5289031267166138
91,24962,24961,0.03688373044133186,-0.028885887935757637,0.9403133988380432,4.407196521759033,-3.3330931663513184,-1.4031606912612915,1.8698590993881226,3.8272299766540527,0.29711106419563293,0.7866185307502747,-0.6263335943222046,1.5196478366851807
92,24972,24971,0.005155757535248995,-0.027882620692253113,0.9575541019439697,3.297342300415039,-3.398193120956421,-1.0393520593643188,1.8702049255371094,3.8274757862091064,0.2982228994369507,0.8109885454177856,-0.6596115827560425,1.5121153593063354
93,24982,24981,0.0032143506687134504,-0.010699018836021423,0.9857618808746338,2.047672748565674,-1.0029181241989136,-1.0231554508209229,1.8704012632369995,3.8264966011047363,0.2992928624153137,0.8864392042160034,-0.558200478553772,1.4952819347381592
94,24992,24991,-0.0666859969496727,0.11379284411668777,0.9647362232208252,1.6911180019378662,0.672862708568573,-0.8876228928565979,1.8711472749710083,3.828092336654663,0.3030436635017395,0.8852936625480652,-0.6073237657546997,1.4911813735961914
95,25002,25001,-0.054789263755083084,0.16337579488754272,0.9086858630180359,0.8257339000701904,2.8203494548797607,-1.1128425598144531,1.871166706085205,3.8272690773010254,0.30422157049179077,0.8913397789001465,-0.5184228420257568,1.4721647500991821
96,25012,25011,-0.0042494614608585835,0.1686076819896698,0.8968581557273865,1.3281419277191162,3.9859585762023926,-1.2425124645233154,1.8712654113769531,3.82804799079895,0.305315762758255,0.8456392288208008,-0.5874260663986206,1.4664288759231567
97,25022,25021,-0.014599496498703957,0.06593088805675507,0.9866500496864319,0.9605122208595276,3.8091254234313965,-1.7817740440368652,1.8711148500442505,3.828432559967041,0.3014535903930664,0.864494264125824,-0.5775576829910278,1.4432790279388428
98,25032,25031,0.009366028010845184,0.09810730069875717,0.983151912689209,1.7638275623321533,3.7097666263580322,-1.8971080780029297,1.8722258806228638,3.8287546634674072,0.30211561918258667,0.7863355278968811,-0.5640074014663696,1.4262317419052124
99,25042,25041,0.01790119893848896,0.08654924482107162,0.9953781366348267,3.1350107192993164,2.588043451309204,-1.935003399848938,1.8725889921188354,3.8285787105560303,0.30274698138237,0.7244158983230591,-0.5317672491073608,1.4071152210235596
100,25052,25051,0.005158396437764168,-0.0055616856552660465,0.9629854559898376,3.6509768962860107,2.0426602363586426,-2.1110620498657227,1.8723944425582886,3.828774929046631,0.303327739238739,0.7700788378715515,-0.4763649106025696,1.3783453702926636
101,25062,25061,-0.03569197654724121,0.014254013076424599,0.9705539345741272,3.620103597640991,0.9606102108955383,-2.5874900817871094,1.872984766960144,3.828381299972534,0.30041801929473877,0.7486848831176758,-0.4240819811820984,1.3518080711364746
102,25072,25071,-0.07491344958543777,0.07622107118368149,0.9516991376876831,2.593991279602051,0.7055549621582031,-2.6833384037017822,1.8726539611816406,3.8290693759918213,0.3008079528808594,0.7345607876777649,-0.4537260830402374,1.3267650604248047
103,25082,25081,-0.031865064054727554,0.024464907124638557,0.9817416071891785,1.1825844049453735,1.8679572343826294,-2.55999493598938,1.8722375631332397,3.8298816680908203,0.3010721802711487,0.7156358957290649,-0.49475789070129395,1.3080394268035889
104,25092,25091,-0.026822775602340698,0.100335493683815,0.9509421586990356,1.4862126111984253,2.3365044593811035,-3.201430559158325,1.871932029724121,3.8301055431365967,0.30090460181236267,0.655742347240448,-0.4623871445655823,1.2752947807312012
105,25102,25101,-0.009559430181980133,0.13258223235607147,0.9541319012641907,3.2377145290374756,2.450042486190796,-3.2283225059509277,1.872861623764038,3.8303792476654053,0.3010736107826233,0.5838426351547241,-0.42475271224975586,1.239984154701233
106,25112,25111,0.004540102556347847,0.10954368114471436,0.9896402359008789,5.0116448402404785,3.1187326908111572,-4.022356033325195,1.8738471269607544,3.830441951751709,0.3012153208255768,0.5078408718109131,-0.4268244802951813,1.2087793350219727
107,25122,25121,0.024280263110995293,0.021374180912971497,1.0097168684005737,4.904360294342041,5.351313591003418,-3.6870579719543457,1.8743689060211182,3.8297436237335205,0.2991481423377991,0.4416862428188324,-0.32903406023979187,1.166473627090454
108,25132,25131,-0.03429577127099037,-0.07365716993808746,1.0605617761611938,5.214944362640381,6.336613655090332,-2.929708957672119,1.8760080337524414,3.829206705093384,0.2991912364959717,0.32963642477989197,-0.24509446322917938,1.1323603391647339
109,25142,25141,-0.04960457608103752,-0.03626997768878937,1.0656750202178955,4.875445365905762,16.91791343688965,-3.5278050899505615,1.8768962621688843,3.8306713104248047,0.29924702644348145,0.13741138577461243,-0.3021514117717743,1.1161260604858398
110,25152,25151,-0.07679490745067596,-0.04999426752328873,1.0381755828857422,2.34609317779541,19.152603149414062,-3.3078348636627197,1.8761684894561768,3.830281972885132,0.30146801471710205,0.1323474943637848,-0.22411330044269562,1.0687191486358643
111,25162,25161,-0.07870003581047058,-0.02924109809100628,0.9977353811264038,1.221051812171936,23.984691619873047,-3.292894124984741,1.8777869939804077,3.83087158203125,0.30173158645629883,-0.1839437484741211,-0.25604724884033203,1.0463874340057373
112,25172,25171,-0.04713134095072746,0.0038617877289652824,0.9938910603523254,1.2979017496109009,23.81072998046875,-3.649531841278076,1.877485990524292,3.8319787979125977,0.30210140347480774,-0.3101218640804291,-0.219408318400383,1.005577802658081
113,25182,25181,0.030916884541511536,-0.021255943924188614,1.0013576745986938,1.6670788526535034,18.207796096801758,-2.43074107170105,1.876354455947876,3.8308403491973877,0.30255210399627686,-0.3648641109466553,-0.10573745518922806,0.9595358967781067
114,25192,25191,0.024439379572868347,-0.04087398201227188,0.9673381447792053,2.570193290710449,12.738914489746094,-2.6247546672821045,1.8768032789230347,3.830662727355957,0.30303817987442017,-0.5670545697212219,-0.061481475830078125,0.9334063529968262
115,25202,25201,0.01785159669816494,-0.0908610075712204,1.0350528955459595,2.0912253856658936,8.18602466583252,-2.4237420558929443,1.8763445615768433,3.8320367336273193,0.30331847071647644,-0.66648930311203,-0.1073480024933815,0.9112692475318909
116,25212,25211,0.03861769661307335,-0.11096013337373734,1.0423436164855957,1.103286862373352,5.085395812988281,-2.4268155097961426,1.877398133277893,3.8320205211639404,0.30367645621299744,-0.7141865491867065,-0.08560872822999954,0.9124575257301331
117,25222,25221,-0.010616853833198547,0.020043283700942993,0.9853955507278442,2.3559727668762207,5.148651123046875,-3.1298062801361084,1.8767509460449219,3.831869125366211,0.3044075071811676,-0.7421435117721558,-0.0452706478536129,0.8858769536018372
118,25232,25231,0.004821219015866518,0.11813989281654358,0.8972123265266418,2.1030337810516357,6.264726161956787,-2.7451937198638916,1.8769268989562988,3.8317818641662598,0.30481430888175964,-0.7800166010856628,-0.06846379488706589,0.8506781458854675
119,25242,25241,0.028748510405421257,0.15558597445487976,0.9206112623214722,1.7180882692337036,7.080643177032471,-2.747727870941162,1.877204179763794,3.8318123817443848,0.3051609694957733,-0.843148946762085,-0.009383728727698326,0.8210394978523254
120,25252,25251,-0.009613229893147945,-0.05679403617978096,1.0409297943115234,1.984973669052124,7.190384387969971,-2.57332181930542,1.8771148920059204,3.832690477371216,0.3053317070007324,-0.821659505367279,-0.04532893747091293,0.7857218384742737
121,25262,25261,0.016657233238220215,-0.03505473583936691,1.0494203567504883,3.2936789989471436,10.857420921325684,-2.863179922103882,1.8779447078704834,3.8322970867156982,0.3055764138698578,-0.9768795371055603,0.0072518521919846535,0.7633966207504272
122,25272,25271,0.017931612208485603,-0.025804875418543816,0.9994177222251892,4.5459885597229,13.380338668823242,-2.237848997116089,1.877556562423706,3.8316900730133057,0.3058285415172577,-1.0195094347000122,0.07434003800153732,0.7387573719024658
123,25282,25281,-0.009105720557272434,-0.092800073325634,1.018900990486145,4.1584625244140625,12.52856731414795,-2.0850934982299805,1.878912329673767,3.8313217163085938,0.3060999810695648,-1.234540343284607,0.1455136239528656,0.7193323373794556
124,25292,25291,-0.04600638896226883,-0.15284501016139984,0.9744502902030945,3.344193458557129,10.877718925476074,-1.89695143699646,1.879729151725769,3.8323075771331787,0.3097820580005646,-1.4184800386428833,0.20875248312950134,0.7021252512931824
125,25302,25301,-0.03379213809967041,-0.1107320785522461,0.9304729700088501,1.406981110572815,6.881328582763672,-1.4784517288208008,1.8786633014678955,3.8337056636810303,0.3104989528656006,-1.3477253913879395,0.10708755999803543,0.6684648394584656
126,25312,25311,0.015218914486467838,-0.0628180280327797,1.0340429544448853,0.2586270272731781,2.609936475753784,-1.0042592287063599,1.879581332206726,3.8338048458099365,0.31103280186653137,-1.4739761352539062,0.14651048183441162,0.6537418365478516
127,25322,25321,0.0513959564268589,-0.1187145933508873,1.0088084936141968,-0.03361300751566887,1.3664485216140747,-0.9970070123672485,1.8797459602355957,3.8351686000823975,0.3116757869720459,-1.4663273096084595,0.15735594928264618,0.6459433436393738
128,25332,25331,0.017363030463457108,-0.05597218871116638,0.9854758977890015,1.196300745010376,-0.926769495010376,-1.1756477355957031,1.880314588546753,3.83520245552063,0.31219205260276794,-1.4913743734359741,0.16869840025901794,0.6401745676994324
129,25342,25341,-0.05776924267411232,-0.005369807593524456,1.022639513015747,2.942711353302002,-2.4231626987457275,-0.7759692072868347,1.8812042474746704,3.836155891418457,0.3126761317253113,-1.5479730367660522,0.19816823303699493,0.6304239630699158
130,25352,25351,-0.04082779586315155,0.00800812616944313,1.014119267463684,1.5935157537460327,1.454566240310669,-0.9092912673950195,1.8812822103500366,3.8364062309265137,0.3094223737716675,-1.5156307220458984,0.16359783709049225,0.6103137135505676
131,25362,25361,0.020553456619381905,0.002673737471923232,0.982583224773407,0.2466716468334198,2.6325137615203857,-0.2489345520734787,1.8823144435882568,3.8359556198120117,0.309712678194046,-1.599342703819275,0.20179298520088196,0.604101836681366
132,25372,25371,-0.04266488924622536,-0.02513238787651062,0.9623575806617737,0.1598232388496399,3.2007999420166016,-0.570223867893219,1.882772445678711,3.83605694770813,0.3099732995033264,-1.6192466020584106,0.22488220036029816,0.6034970283508301
133,25382,25381,-0.002894412027671933,0.06480125337839127,1.0160727500915527,-0.26830703020095825,2.2153780460357666,-0.7752189040184021,1.8832885026931763,3.835754632949829,0.31023168563842773,-1.6424455642700195,0.2378370463848114,0.5987216234207153
134,25392,25391,0.0028212310280650854,0.042313020676374435,0.9821993112564087,1.1146711111068726,1.453277349472046,-0.9047277569770813,1.8834513425827026,3.836538314819336,0.3061498999595642,-1.6451627016067505,0.16838619112968445,0.579853355884552
135,25402,25401,-0.006804353557527065,0.07444192469120026,1.01408851146698,0.48736467957496643,-1.5519620180130005,-0.5684656500816345,1.8849191665649414,3.83636736869812,0.30612000823020935,-1.7206284999847412,0.19841906428337097,0.5704686045646667
136,25412,25411,0.010639088228344917,-0.024769173935055733,0.9793053269386292,-0.01993223838508129,-2.8030450344085693,-0.9593944549560547,1.887058973312378,3.8361704349517822,0.3060504198074341,-1.820562720298767,0.21788282692432404,0.5623769760131836
137,25422,25421,-0.027010656893253326,-0.009563650004565716,1.0756300687789917,0.7557049989700317,-3.9385650157928467,-0.9773143529891968,1.8876621723175049,3.8361566066741943,0.30842939019203186,-1.786191463470459,0.22908349335193634,0.5570291876792908
138,25432,25431,-0.0552799217402935,-0.009046969003975391,1.089770793914795,1.111371397972107,-5.665489196777344,-0.3986944556236267,1.8879495859146118,3.8359391689300537,0.30867812037467957,-1.6301556825637817,0.24865218997001648,0.5593622326850891
139,25442,25441,-0.004269751720130444,0.01737220026552677,1.0151125192642212,1.148977518081665,-3.7850637435913086,-0.020702634006738663,1.8884522914886475,3.836350917816162,0.30889376997947693,-1.5679030418395996,0.2680889368057251,0.5562308430671692
140,25452,25451,0.0011100223055109382,-0.040649350732564926,0.9965952634811401,0.018816478550434113,-4.343003273010254,-0.509515106678009,1.8889498710632324,3.83644700050354,0.3125263750553131,-1.450242042541504,0.2868557572364807,0.5610132813453674
141,25462,25461,0.0031131093855947256,0.03235486149787903,0.9724276065826416,-0.6271490454673767,-4.424080848693848,0.03440144285559654,1.8903217315673828,3.8367629051208496,0.3129757344722748,-1.4751605987548828,0.29509997367858887,0.5538440942764282
142,25472,25471,0.01860150881111622,0.0072575644589960575,0.9910369515419006,-1.6348718404769897,-3.3449738025665283,-0.05712061747908592,1.8912018537521362,3.836806058883667,0.3134682774543762,-1.4146764278411865,0.29138967394828796,0.552444577217102
143,25482,25481,0.05498877167701721,-0.036011409014463425,1.017042636871338,-2.8505640029907227,-2.5081372261047363,-0.07464189827442169,1.892194151878357,3.83691143989563,0.3139645755290985,-1.3642668724060059,0.2703007459640503,0.5498762726783752
144,25492,25491,0.02102150022983551,-0.013179047033190727,1.01361083984375,-3.0662429332733154,-2.5578413009643555,0.160640150308609,1.8917515277862549,3.8368260860443115,0.31269118189811707,-1.2498583793640137,0.23475822806358337,0.5529449582099915
145,25502,25501,0.01486640702933073,-0.0112962881103158,0.9849343299865723,-3.8123443126678467,-2.2098495960235596,-0.2297198623418808,1.8934961557388306,3.8370156288146973,0.31303662061691284,-1.3103744983673096,0.1852133721113205,0.5435338020324707
146,25512,25511,0.026018457487225533,-0.04440031945705414,0.9416646957397461,-2.3569631576538086,0.24877826869487762,-0.31597450375556946,1.8953664302825928,3.8366546630859375,0.313383013010025,-1.3588478565216064,0.20946232974529266,0.5529807806015015
147,25522,25521,0.0039726863615214825,-0.009702167473733425,0.9882760047912598,-0.704910159111023,-2.605048656463623,-0.3843092620372772,1.8974589109420776,3.836153984069824,0.31158125400543213,-1.4874513149261475,0.2437574863433838,0.5566598773002625
148,25532,25531,0.0032373396679759026,-0.0069648502394557,0.9959321618080139,0.7899183630943298,-5.921367168426514,-0.07976079732179642,1.8974303007125854,3.8359947204589844,0.3118952512741089,-1.3419604301452637,0.22010982036590576,0.5599684119224548
149,25542,25541,0.016481537371873856,-0.03625684604048729,0.9655589461326599,0.07378306984901428,-7.373592376708984,-0.01960504986345768,1.8978437185287476,3.8360812664031982,0.3121146559715271,-1.244325876235962,0.21843747794628143,0.5611059069633484
150,25552,25551,-0.0016572054009884596,-0.02929086983203888,0.977802574634552,-0.46814900636672974,-9.18388843536377,0.6015586256980896,1.899750828742981,3.835665225982666,0.3134535551071167,-1.2637115716934204,0.21724577248096466,0.5556036829948425
151,25562,25561,-0.05352543294429779,-0.011290157213807106,1.0107781887054443,-1.8699915409088135,-9.553838729858398,0.5228957533836365,1.8988418579101562,3.8359622955322266,0.3138098418712616,-0.9903630614280701,0.20290245115756989,0.5647439956665039
152,25572,25571,0.0008101814310066402,-0.09945353865623474,1.0440983772277832,-2.035585403442383,-9.951631546020508,0.02279008738696575,1.9005262851715088,3.8358943462371826,0.31405290961265564,-0.9894739985466003,0.16061735153198242,0.5603513121604919
153,25582,25581,0.07252036780118942,-0.04102674126625061,0.9623655080795288,-2.949993371963501,-6.248213768005371,0.040606748312711716,1.9007254838943481,3.835865020751953,0.31067919731140137,-0.8238563537597656,0.12285323441028595,0.5630294680595398
154,25592,25591,0.04428701102733612,-0.13937443494796753,0.9784024953842163,-2.3949921131134033,-6.050299644470215,-0.26500049233436584,1.9019336700439453,3.835265874862671,0.3107048571109772,-0.7805712819099426,0.15961779654026031,0.5706066489219666
155,25602,25601,-0.009940899908542633,0.04235700145363808,0.9944405555725098,-1.0552424192428589,-2.792835235595703,0.0943671241402626,1.9047960042953491,3.8351149559020996,0.3106088936328888,-0.9220975637435913,0.11148242652416229,0.5559160709381104
156,25612,25611,-0.015210679732263088,0.07032103836536407,1.019728183746338,-1.9494792222976685,-0.9432727694511414,0.45181921124458313,1.9057172536849976,3.8338286876678467,0.31063032150268555,-0.8499002456665039,0.23328378796577454,0.5807414650917053
157,25622,25621,0.009685500524938107,-0.02120102383196354,0.9801555275917053,-0.2309735268354416,-3.9191672801971436,0.7066370844841003,1.9077919721603394,3.833320140838623,0.3120831847190857,-0.8772485256195068,0.26326221227645874,0.5905382037162781
158,25632,25631,0.023010417819023132,0.18761946260929108,0.9493170976638794,-0.9248002171516418,-3.2102856636047363,0.007639988325536251,1.908656358718872,3.83324933052063,0.31222769618034363,-0.7896412014961243,0.22590915858745575,0.5937179923057556
159,25642,25641,0.006868410389870405,0.06143081188201904,0.930819034576416,-4.116271495819092,-8.839788436889648,0.35096266865730286,1.9099647998809814,3.8335890769958496,0.31227442622184753,-0.7591390609741211,0.17987008392810822,0.5912885665893555
160,25652,25651,-0.012728795409202576,0.032554417848587036,1.033186912536621,-5.799069881439209,-12.87582778930664,-0.35733944177627563,1.9111722707748413,3.833493709564209,0.3151886463165283,-0.6638471484184265,0.09104610234498978,0.5860061049461365
161,25662,25661,-0.050268568098545074,0.05076899752020836,1.0588549375534058,-6.378337383270264,-11.754178047180176,0.2654387652873993,1.911190152168274,3.833996295928955,0.3154275417327881,-0.43109697103500366,-0.014492157846689224,0.5858213901519775
162,25672,25671,-0.016061561182141304,0.014804230071604252,1.0369417667388916,-6.469012260437012,-9.205101013183594,0.5580430626869202,1.9146568775177002,3.8328969478607178,0.31554388999938965,-0.5296401977539062,0.024195658043026924,0.5870150923728943
163,25682,25681,-0.044412799179553986,0.08116506785154343,0.9768621921539307,-4.5552802085876465,-6.880409240722656,0.6726541519165039,1.915045142173767,3.8321969509124756,0.3152748644351959,-0.33906638622283936,-0.023848706856369972,0.5982866287231445
164,25692,25691,0.0011544693261384964,-0.02739189937710762,0.9685593247413635,-2.902080535888672,-7.212932586669922,1.6524640321731567,1.915612816810608,3.8325443267822266,0.31552839279174805,-0.19162733852863312,-0.11889705806970596,0.6011756658554077
165,25702,25701,0.0001232839422300458,-0.0072791967540979385,1.0119688510894775,-0.14272411167621613,-4.623282432556152,1.681957483291626,1.918330430984497,3.8323817253112793,0.3156317174434662,-0.29750141501426697,-0.17745038866996765,0.6058109998703003
166,25712,25711,-0.0018242851365357637,0.064529187977314,1.002384066581726,1.0571359395980835,-3.341874599456787,1.5470263957977295,1.91879403591156,3.832603693008423,0.3158890902996063,-0.182786226272583,-0.18695415556430817,0.6211724877357483
167,25722,25721,0.03483635559678078,0.015330242924392223,0.9636262059211731,1.5273520946502686,-3.401853561401367,1.1147456169128418,1.9203355312347412,3.832284927368164,0.3133883476257324,-0.17139704525470734,-0.09810950607061386,0.6358241438865662
168,25732,25731,0.011216792277991772,-0.020440395921468735,0.9915059804916382,0.18731288611888885,-3.971858263015747,1.0566710233688354,1.9199994802474976,3.832361936569214,0.31352105736732483,-0.004983465652912855,-0.09156021475791931,0.6479089856147766
169,25742,25741,-0.04033303260803223,-0.024847280234098434,1.0675750970840454,-1.661875605583191,-8.38010311126709,1.4229459762573242,1.9210854768753052,3.8324005603790283,0.31353437900543213,0.0030861992854624987,-0.10427618771791458,0.6578969359397888
170,25752,25751,-0.05992794409394264,-0.04330125078558922,1.0703487396240234,-3.8532800674438477,-4.611266613006592,0.8010969758033752,1.9237797260284424,3.831705093383789,0.3132796585559845,-0.08214472979307175,-0.07359074056148529,0.6692344546318054
171,25762,25761,-0.005157373379915953,-0.028749512508511543,0.9639583826065063,-4.9475555419921875,0.08494611829519272,0.5314439535140991,1.924854040145874,3.832357406616211,0.31334057450294495,-0.03558541089296341,-0.16305547952651978,0.6789965033531189
172,25772,25771,0.026038359850645065,-0.05386277660727501,0.9277973771095276,-4.979369640350342,-6.242281436920166,1.046399474143982,1.9246684312820435,3.8321316242218018,0.31355416774749756,0.13060174882411957,-0.18629878759384155,0.6861432194709778
173,25782,25781,-0.047553081065416336,0.042993009090423584,1.040864109992981,-3.1563994884490967,-9.833083152770996,1.185329794883728,1.9268202781677246,3.833221435546875,0.3140663504600525,0.11825385689735413,-0.20922397077083588,0.7064334750175476
174,25792,25791,-0.018642714247107506,0.03794725239276886,1.0224100351333618,-2.359220266342163,-6.676677227020264,1.7597395181655884,1.9270681142807007,3.8334503173828125,0.3141852617263794,0.302388459444046,-0.28711986541748047,0.7204822897911072
175,25802,25801,0.014106467366218567,-0.02898889034986496,0.9958575367927551,-1.6330593824386597,-5.596388339996338,1.9179246425628662,1.926578164100647,3.833340883255005,0.31436997652053833,0.5122714638710022,-0.2675357460975647,0.7327816486358643
176,25812,25811,0.01547298301011324,-0.14669883251190186,1.0598453283309937,-0.4284210503101349,-3.43165922164917,2.4770941734313965,1.929446816444397,3.8340744972229004,0.31923502683639526,0.3868370056152344,-0.31322070956230164,0.7577443718910217
177,25822,25821,-0.0005558835109695792,-0.22198913991451263,1.0778316259384155,0.4723430573940277,1.648484468460083,2.001495122909546,1.9295692443847656,3.833993911743164,0.31973782181739807,0.5469633936882019,-0.3350692689418793,0.7821738123893738
178,25832,25831,0.015999076887965202,-0.10402824729681015,0.9907087087631226,0.36113959550857544,4.905543804168701,1.7221429347991943,1.931530475616455,3.83573055267334,0.32016658782958984,0.45173779129981995,-0.3383254110813141,0.8228187561035156
179,25842,25841,-0.003048447659239173,-0.018832087516784668,0.9966816902160645,-0.24036778509616852,5.6088714599609375,1.1283681392669678,1.9322057962417603,3.8360400199890137,0.3207119107246399,0.4616175591945648,-0.34590229392051697,0.838677704334259
180,25852,25851,-0.017275342717766762,1.2749556844937615e-05,0.9946736693382263,-0.3906501531600952,4.270777702331543,1.0599602460861206,1.9341864585876465,3.836103916168213,0.32399994134902954,0.3141959011554718,-0.3620850145816803,0.8556749224662781
181,25862,25861,0.0030918074771761894,-0.031467337161302567,0.9687279462814331,-0.1519646793603897,1.568453073501587,1.2404730319976807,1.9344227313995361,3.8379828929901123,0.32477980852127075,0.35166072845458984,-0.3792876899242401,0.8801053166389465
182,25872,25871,0.0476645864546299,-0.044191740453243256,0.9827042818069458,-0.23534899950027466,1.9166454076766968,1.6360479593276978,1.9356703758239746,3.837225914001465,0.3254697322845459,0.35255202651023865,-0.31344839930534363,0.8832971453666687
183,25882,25881,0.16686148941516876,-0.1607798933982849,0.9220717549324036,1.0785406827926636,-0.9860464930534363,2.4747633934020996,1.9372279644012451,3.8372108936309814,0.32464200258255005,0.29798370599746704,-0.3211096227169037,0.9032928943634033
184,25892,25891,0.15062260627746582,-0.1809971183538437,0.9063454866409302,1.430993676185608,-4.706550598144531,1.9485968351364136,1.9388329982757568,3.8370590209960938,0.325118750333786,0.2796463966369629,-0.30803921818733215,0.9273644089698792
185,25902,25901,0.0642486959695816,-0.10757770389318466,0.9266445636749268,1.7998913526535034,-4.157445907592773,2.0958683490753174,1.9393316507339478,3.8372161388397217,0.325607031583786,0.37392935156822205,-0.29482874274253845,0.9458392262458801
186,25912,25911,-0.001310928724706173,-0.15209688246250153,0.9872196912765503,0.3914848864078522,-3.602191686630249,2.0502877235412598,1.939174771308899,3.837531566619873,0.32436084747314453,0.5332940816879272,-0.27906569838523865,0.9619361758232117
187,25922,25921,-0.0569651760160923,-0.012458198703825474,1.0310701131820679,0.046530481427907944,0.1318221092224121,1.510553002357483,1.9402074813842773,3.8374545574188232,0.32461684942245483,0.5803243517875671,-0.279693067073822,0.982025146484375
188,25932,25931,-0.051377903670072556,0.03474566340446472,1.018181324005127,-0.7564018368721008,3.4239985942840576,1.321408987045288,1.9426664113998413,3.8375258445739746,0.3247835040092468,0.40653935074806213,-0.2912387251853943,1.0064496994018555
189,25942,25941,-0.09317078441381454,0.0012949439696967602,1.0095897912979126,-2.031773567199707,5.178431510925293,1.1274528503417969,1.9435944557189941,3.837291955947876,0.3250909745693207,0.35453224182128906,-0.3136827349662781,1.0226171016693115
190,25952,25951,-0.028687771409749985,0.08829662203788757,0.9565145969390869,-1.902285099029541,4.991200923919678,1.6737416982650757,1.944100260734558,3.8390614986419678,0.3249916136264801,0.3617236912250519,-0.350299209356308,1.0521721839904785
191,25962,25961,-0.053828850388526917,0.09754049777984619,0.9919134974479675,-0.6050669550895691,3.683185338973999,2.0345001220703125,1.9449213743209839,3.8397860527038574,0.32526537775993347,0.3612552285194397,-0.3814335763454437,1.0758334398269653
192,25972,25971,-0.06172977760434151,0.08438914269208908,0.9954941272735596,1.4983335733413696,2.70475435256958,2.0567626953125,1.9455103874206543,3.839401960372925,0.3255261182785034,0.3796387016773224,-0.3894045948982239,1.0876365900039673
193,25982,25981,-0.014282681047916412,0.00858609564602375,0.9713071584701538,3.198636770248413,2.652526378631592,2.0242888927459717,1.946812391281128,3.8395819664001465,0.32403209805488586,0.33286455273628235,-0.36252444982528687,1.108187198638916
194,25992,25991,0.04900220409035683,0.03437769412994385,0.9170796275138855,3.786783456802368,3.3655595779418945,1.6081031560897827,1.9480749368667603,3.8390886783599854,0.3240658640861511,0.2922770380973816,-0.31107795238494873,1.1177512407302856
195,26002,26001,0.036953821778297424,-0.01908125728368759,0.927859365940094,4.146620750427246,3.0825204849243164,1.4590951204299927,1.9485814571380615,3.8390605449676514,0.32415273785591125,0.31883102655410767,-0.2513056695461273,1.1284335851669312
196,26012,26011,0.12297282367944717,-0.0416451171040535,0.9466770887374878,2.644929885864258,4.242587089538574,1.1200922727584839,1.9490634202957153,3.83962082862854,0.32749539613723755,0.3423679769039154,-0.265996515750885,1.1483864784240723
197,26022,26021,0.15340681374073029,-0.10768456757068634,0.9565545320510864,0.7138643860816956,5.2165398597717285,1.161751389503479,1.9518414735794067,3.839280366897583,0.3275865614414215,0.11383163183927536,-0.2228931188583374,1.1638003587722778
198,26032,26031,0.07984773069620132,-0.06845312565565109,0.9626078605651855,-0.7026615738868713,4.922760486602783,1.088636040687561,1.9517543315887451,3.839895486831665,0.32773882150650024,0.11024761199951172,-0.28742489218711853,1.1837999820709229
199,26042,26041,0.06353162229061127,-0.17980597913265228,0.9803559184074402,-0.9805605411529541,3.4723098278045654,0.7479047775268555,1.9520882368087769,3.8396992683410645,0.32781553268432617,0.10802061855792999,-0.2908114492893219,1.1920050382614136
200,26052,26051,0.005951969884335995,-0.2279524803161621,0.9879713654518127,1.2829768657684326,2.461074113845825,0.2681216597557068,1.953235387802124,3.8394534587860107,0.32787537574768066,0.0472932867705822,-0.29135164618492126,1.1991829872131348
201,26062,26061,-0.0031213026959449053,-0.06637962907552719,0.9706013202667236,3.2960331439971924,2.1252779960632324,-0.07909315079450607,1.9535331726074219,3.839218854904175,0.32791271805763245,0.07790510356426239,-0.25963079929351807,1.1970593929290771
202,26072,26071,-0.0430072620511055,-0.03137030452489853,0.9681832194328308,3.8380119800567627,1.1676814556121826,-0.27382493019104004,1.9545139074325562,3.838585138320923,0.3278767466545105,0.04190915450453758,-0.20005138218402863,1.1929267644882202
203,26082,26081,-0.06468287110328674,0.021721480414271355,0.9639272689819336,4.053205966949463,1.0317723751068115,-0.44686925411224365,1.954648733139038,3.83884334564209,0.3225952982902527,0.10575965791940689,-0.1294943392276764,1.1830003261566162
204,26092,26091,-0.05917440727353096,0.09639238566160202,0.9879229664802551,2.7641639709472656,1.7872769832611084,-0.20455999672412872,1.9554758071899414,3.8388004302978516,0.3221762776374817,0.0778547152876854,-0.1422666311264038,1.1757532358169556
205,26102,26101,-0.036540161818265915,0.13519513607025146,1.0002740621566772,0.9983401298522949,2.3532495498657227,-0.42798957228660583,1.957344651222229,3.839292287826538,0.3217112123966217,-0.03538573533296585,-0.16749854385852814,1.1811785697937012
206,26112,26111,-0.023450983688235283,0.11041819304227829,1.0243126153945923,-0.36717164516448975,3.332808494567871,-1.043416142463684,1.9576863050460815,3.839229106903076,0.31983354687690735,0.003981658257544041,-0.13858982920646667,1.1735994815826416
207,26122,26121,-0.006650475785136223,0.005007334053516388,1.0107359886169434,-0.1908637136220932,3.9329993724823,-1.23695707321167,1.9582947492599487,3.8389744758605957,0.3193260133266449,0.017040438950061798,-0.12940147519111633,1.1624964475631714
208,26132,26131,0.0023556810338050127,-0.011523892171680927,1.0029972791671753,0.43093928694725037,3.652355194091797,-1.0343714952468872,1.959962010383606,3.8404932022094727,0.3187526762485504,-0.05835462361574173,-0.19679391384124756,1.1646963357925415
209,26142,26141,-0.0514136478304863,0.02451612800359726,1.0142738819122314,0.9429500102996826,2.7493999004364014,-1.5498874187469482,1.9611302614212036,3.8407859802246094,0.31518247723579407,-0.045200370252132416,-0.17305952310562134,1.1575127840042114
210,26152,26151,-0.012581003829836845,0.006258244160562754,1.0199775695800781,1.838300347328186,3.1826910972595215,-1.6996444463729858,1.9612973928451538,3.841104745864868,0.3144993185997009,-0.028829509392380714,-0.14664645493030548,1.1396188735961914
211,26162,26161,-0.038476452231407166,0.054513972252607346,0.9922576546669006,1.9795690774917603,3.533459424972534,-1.1457370519638062,1.9621849060058594,3.841135263442993,0.31385812163352966,-0.024335192516446114,-0.1096496507525444,1.1217299699783325
212,26172,26171,-0.05959521234035492,0.1002131998538971,1.043290376663208,1.7711657285690308,5.951037883758545,-0.7821627259254456,1.9626818895339966,3.842996120452881,0.31318262219429016,-0.030481044203042984,-0.0636875182390213,1.1291710138320923
213,26182,26181,0.01634226180613041,0.05201197788119316,1.0478805303573608,1.7811729907989502,7.273181915283203,-1.376447081565857,1.9641629457473755,3.8433475494384766,0.31065815687179565,-0.15742459893226624,-0.024750327691435814,1.1181069612503052
214,26192,26191,-0.0017272786935791373,-0.014877467416226864,1.0736732482910156,0.914633572101593,7.82684850692749,-2.242448091506958,1.9650046825408936,3.8432416915893555,0.3099338412284851,-0.2222192883491516,0.011387747712433338,1.105216383934021
215,26202,26201,-0.014651825651526451,-0.09723229706287384,1.0389935970306396,0.8178160786628723,8.382027626037598,-2.147430181503296,1.9648993015289307,3.8432211875915527,0.3093115985393524,-0.21467094123363495,0.03349165990948677,1.0837624073028564
216,26212,26211,-0.03370114043354988,-0.10281199216842651,1.0160977840423584,-0.8098145723342896,9.329215049743652,-2.6224515438079834,1.9657469987869263,3.843578577041626,0.30913791060447693,-0.28739088773727417,0.04644031077623367,1.063478708267212
217,26222,26221,-0.00855295080691576,-0.10938619822263718,0.9484631419181824,-1.659767985343933,6.911596298217773,-1.5649363994598389,1.966874122619629,3.843898296356201,0.3085927665233612,-0.371491014957428,0.03277643024921417,1.040070652961731
218,26232,26231,0.0005422362009994686,-0.03498389199376106,1.0597072839736938,-0.6467145085334778,3.7974913120269775,-1.1212133169174194,1.9676491022109985,3.8442935943603516,0.30800360441207886,-0.42747390270233154,0.012630263343453407,1.0228617191314697
219,26242,26241,0.015591086819767952,0.011358700692653656,1.0750294923782349,-0.8878739476203918,3.866713285446167,-1.2841730117797852,1.9691219329833984,3.8443973064422607,0.30384328961372375,-0.515569806098938,0.002257817890495062,1.0115420818328857
220,26252,26251,-0.12760576605796814,0.24927687644958496,0.9610913991928101,1.430679202079773,2.70975923538208,-1.87974214553833,1.9708162546157837,3.845614433288574,0.3030228614807129,-0.6598231792449951,-0.0594170056283474,1.0045571327209473
221,26262,26261,-0.10175757110118866,0.17328502237796783,0.9860159158706665,0.9780330061912537,3.281832218170166,-1.3066465854644775,1.9713587760925293,3.8457605838775635,0.3022860884666443,-0.6307457685470581,-0.024305075407028198,0.9835180640220642
222,26272,26271,-0.06244834512472153,0.20582899451255798,0.9079896807670593,2.1837117671966553,5.007406234741211,-2.012314558029175,1.9719698429107666,3.845567226409912,0.30162009596824646,-0.6136903166770935,0.006520505994558334,0.9713574051856995
223,26282,26281,-0.059465061873197556,0.09955952316522598,1.0091018676757812,0.42080748081207275,2.3443472385406494,-0.6547465920448303,1.9743869304656982,3.8459255695343018,0.300109326839447,-0.838449239730835,0.036698296666145325,0.9589243531227112
224,26292,26291,0.04660484194755554,-0.05186449736356735,1.1200587749481201,-0.863775372505188,0.827028214931488,-0.00551521684974432,1.9741885662078857,3.845884323120117,0.29946741461753845,-0.7012673616409302,0.04049839451909065,0.952237606048584
225,26302,26301,0.02665572054684162,-0.12871628999710083,1.1762446165084839,-0.06494110077619553,-0.3168564736843109,-0.39075180888175964,1.9757847785949707,3.844653367996216,0.2985917925834656,-0.7869423031806946,0.18949273228645325,0.9880683422088623
226,26312,26311,0.013721225783228874,-0.10442733764648438,1.059313178062439,0.9972503185272217,-2.614656686782837,-0.9122081398963928,1.9775445461273193,3.8476037979125977,0.29896995425224304,-0.8376156091690063,0.09701525419950485,0.9900206923484802
227,26322,26321,-0.037263017147779465,-0.07014824450016022,0.9479382038116455,-1.190924882888794,8.62457275390625,-0.5567450523376465,1.978915810585022,3.8514645099639893,0.29863426089286804,-0.7239159941673279,0.10785744339227676,1.0458037853240967
228,26332,26331,0.01986241154372692,-0.014239544980227947,1.027078628540039,-3.277897357940674,3.058706760406494,-0.517065167427063,1.9804389476776123,3.852276086807251,0.2980918884277344,-0.8944647908210754,-0.0031633232720196247,1.0320165157318115
229,26342,26341,0.001969179604202509,-0.034152284264564514,1.1022007465362549,-2.343824863433838,-7.254070281982422,-0.06867016106843948,1.980707049369812,3.852243661880493,0.29921141266822815,-0.8263919353485107,-0.054086677730083466,1.023338794708252
230,26352,26351,-0.019220001995563507,0.13583756983280182,1.1474727392196655,0.03641156852245331,-6.206657409667969,0.07764820009469986,1.9823709726333618,3.853154182434082,0.2988373637199402,-0.8704061508178711,-0.0769038200378418,1.0348035097122192
231,26362,26361,-0.02205384522676468,0.10100257396697998,1.0124083757400513,1.1454390287399292,-3.684105157852173,0.3685561418533325,1.983951449394226,3.853214979171753,0.29863569140434265,-0.8305594325065613,-0.06479625403881073,1.03688645362854
232,26372,26371,0.022233648225665092,-0.023335181176662445,1.0212875604629517,2.167365550994873,-2.5211188793182373,0.4468977749347687,1.9840824604034424,3.8538169860839844,0.29866448044776917,-0.6691775918006897,-0.11167224496603012,1.0373568534851074
233,26382,26381,-0.005198740400373936,-0.026914795860648155,1.0480082035064697,4.571993350982666,-4.734764575958252,0.795663058757782,1.9861384630203247,3.853847026824951,0.298963725566864,-0.7471932768821716,-0.04397718608379364,1.0439072847366333
234,26392,26391,0.0014671286335214972,-0.07521077245473862,1.1039530038833618,5.4926066398620605,-5.647946357727051,1.103331208229065,1.9862338304519653,3.8528385162353516,0.29912611842155457,-0.5516339540481567,0.12727688252925873,1.0610038042068481
235,26402,26401,0.024964699521660805,-0.08593780547380447,1.002058506011963,3.953282594680786,-3.695298194885254,0.520308256149292,1.9870545864105225,3.8531131744384766,0.2991909682750702,-0.5336670875549316,0.14277106523513794,1.0670855045318604
236,26412,26411,-0.02131566032767296,0.03311997279524803,1.0912691354751587,1.329024314880371,-2.5844430923461914,0.11604658514261246,1.9888180494308472,3.852914333343506,0.3044125735759735,-0.5407664179801941,0.19976706802845,1.0736818313598633
237,26422,26421,0.009351764805614948,-0.05960884317755699,1.0155895948410034,-1.9674612283706665,-6.050117015838623,0.31723594665527344,1.9906485080718994,3.8539063930511475,0.3048761785030365,-0.5356585383415222,0.13000303506851196,1.074626088142395
238,26432,26431,-0.03542877361178398,-0.03921709954738617,1.0540926456451416,-3.13631272315979,-4.242572784423828,0.01086297444999218,1.990642786026001,3.8545286655426025,0.305558443069458,-0.3523233234882355,0.09701303392648697,1.0821952819824219
