,timestamp_start,timestamp_end,acc.x,acc.y,acc.z,gyro.x,gyro.y,gyro.z,stateEstimate.x,stateEstimate.y,stateEstimate.z,stabilizer.pitch,stabilizer.roll,stabilizer.yaw
0,28146,28144,0.012706173583865166,0.06181501969695091,1.014432668685913,3.6068432331085205,-2.742479085922241,0.12099605798721313,1.8766884803771973,3.8050827980041504,0.17683184146881104,0.971712052822113,-0.1303855925798416,1.456531047821045
1,28156,28154,0.013452742248773575,-0.013170309364795685,1.0908300876617432,7.546054840087891,1.16115403175354,-0.4845259189605713,1.8764750957489014,3.804865837097168,0.1783399134874344,1.0364381074905396,-0.02001061476767063,1.4478583335876465
2,28166,28164,0.017102086916565895,-0.06437601894140244,1.0173219442367554,10.25882339477539,2.7603728771209717,-0.18138667941093445,1.8783570528030396,3.8074820041656494,0.1799958348274231,1.0463570356369019,0.06986913830041885,1.4454456567764282
3,28176,28174,-0.02110275998711586,-0.06556981801986694,1.0242093801498413,9.969106674194336,7.696617603302002,-0.6788299083709717,1.878379464149475,3.8085217475891113,0.1815626174211502,1.0104179382324219,-0.03556426241993904,1.4632644653320312
4,28186,28184,0.012813187204301357,-0.014554730616509914,0.9994201064109802,9.477849006652832,6.133633613586426,0.04944956675171852,1.877864956855774,3.8083112239837646,0.1835167407989502,0.9180521965026855,0.19491435587406158,1.4415878057479858
5,28196,28194,0.025029875338077545,0.07696951180696487,1.1416099071502686,5.761842727661133,1.7430692911148071,0.5878640413284302,1.8767403364181519,3.8051159381866455,0.18521392345428467,1.0554474592208862,0.8226821422576904,1.3926154375076294
6,28206,28204,0.013157105073332787,0.0042509944178164005,1.1126540899276733,0.9377829432487488,5.125199794769287,0.16234691441059113,1.8773690462112427,3.8075037002563477,0.1866951733827591,0.7612245678901672,0.5103950500488281,1.4204175472259521
7,28216,28214,0.011517402715981007,-0.01597134955227375,1.052415370941162,-4.62115478515625,6.250953674316406,-0.4079761803150177,1.8784679174423218,3.8098092079162598,0.1885850429534912,0.6976569294929504,0.24756456911563873,1.4508850574493408
8,28226,28224,0.024067584425210953,-0.010379057377576828,0.9798610210418701,-7.9019293785095215,7.362712860107422,-1.216636061668396,1.878661036491394,3.8100719451904297,0.19050632417201996,0.6257114410400391,0.2255062609910965,1.4442713260650635
9,28236,28234,0.014569863677024841,-0.053561680018901825,1.0470952987670898,-5.087359428405762,4.765322208404541,-1.879258155822754,1.8793981075286865,3.812246799468994,0.1919429451227188,0.5568310618400574,0.1636538803577423,1.4316438436508179
10,28246,28244,0.04336896166205406,-0.043310340493917465,1.0669723749160767,1.459687352180481,-1.1524569988250732,-1.298788070678711,1.8812510967254639,3.8134400844573975,0.1938875913619995,0.5382897853851318,0.1512364149093628,1.41473388671875
11,28256,28254,0.018705643713474274,-0.04852554574608803,1.034553050994873,8.42797565460205,-8.81395149230957,-1.1203874349594116,1.8816969394683838,3.8137922286987305,0.1959451138973236,0.5691558718681335,0.2288827747106552,1.3972573280334473
12,28266,28264,0.009858891367912292,0.009834044612944126,1.0272679328918457,11.164037704467773,-8.075252532958984,-0.4878419041633606,1.8820537328720093,3.814877510070801,0.19793245196342468,0.6918572783470154,0.18386469781398773,1.3958550691604614
13,28276,28274,0.019039448350667953,-0.012897864915430546,1.0399577617645264,11.175140380859375,-4.723231315612793,-1.0270649194717407,1.8829129934310913,3.8148951530456543,0.20005087554454803,0.7368329167366028,0.34842637181282043,1.382683277130127
14,28286,28284,0.06863533705472946,-0.09971696138381958,1.0357836484909058,9.539018630981445,0.351967453956604,-1.477709174156189,1.8828505277633667,3.815265417098999,0.20214729011058807,0.8819640278816223,0.5799773335456848,1.3697363138198853
15,28296,28294,0.011275679804384708,-0.03940662741661072,1.05063796043396,7.0365118980407715,3.3384759426116943,-1.6889506578445435,1.8845456838607788,3.8161404132843018,0.20434539020061493,0.7925176620483398,0.6884637475013733,1.3469619750976562
16,28306,28304,0.01531129702925682,-0.014681152068078518,1.0255979299545288,2.5216422080993652,8.687854766845703,-2.5785915851593018,1.8850966691970825,3.817479133605957,0.20710448920726776,0.7337615489959717,0.7438286542892456,1.3303842544555664
17,28316,28314,0.005301881115883589,0.06082024425268173,0.950859785079956,-1.4363123178482056,10.212780952453613,-2.75420880317688,1.8864394426345825,3.8187639713287354,0.20943492650985718,0.410828173160553,0.5776028037071228,1.299882411956787
18,28326,28324,0.014257775619626045,0.026348905637860298,0.9674651026725769,-5.879387855529785,1.5487083196640015,-1.221195101737976,1.887702226638794,3.8188178539276123,0.21145156025886536,0.17280147969722748,0.5876510739326477,1.2609041929244995
19,28336,28334,0.002197272377088666,-0.052048176527023315,1.072232723236084,-4.016408443450928,0.00916089117527008,-1.4295427799224854,1.8905751705169678,3.822178363800049,0.21154019236564636,-0.10402064770460129,0.25923702120780945,1.229913592338562
20,28346,28344,0.018701866269111633,-0.06097737327218056,1.0264897346496582,-1.0768836736679077,-8.130963325500488,-0.8831932544708252,1.8917887210845947,3.822821855545044,0.21375355124473572,-0.07716092467308044,0.27741360664367676,1.215919017791748
21,28356,28354,0.02817760594189167,-0.1532931625843048,0.9673582315444946,5.909005165100098,-12.777673721313477,-0.9658934473991394,1.8913424015045166,3.8230843544006348,0.2162972390651703,0.135468527674675,0.3456367254257202,1.218617558479309
22,28366,28364,0.005437344778329134,-0.04046304523944855,0.9955994486808777,9.690486907958984,-16.355417251586914,-1.0612537860870361,1.891525387763977,3.8233795166015625,0.2188117951154709,0.4092804491519928,0.49686411023139954,1.2220408916473389
23,28376,28374,-0.016602301970124245,-0.0963871106505394,0.9845811128616333,11.815261840820312,-16.363067626953125,-0.618375837802887,1.8919451236724854,3.8237955570220947,0.2209557443857193,0.504957377910614,0.561114490032196,1.2048184871673584
24,28386,28384,-0.004363482352346182,-0.022768855094909668,0.9822449684143066,9.85329818725586,-12.343493461608887,-0.07493823766708374,1.8916914463043213,3.8236546516418457,0.22313633561134338,0.8232399225234985,0.7999757528305054,1.2105073928833008
25,28396,28394,0.006905024405568838,-0.007911698892712593,0.9577195048332214,6.2513203620910645,-6.287511348724365,0.12269440293312073,1.891510248184204,3.8245160579681396,0.22522318363189697,1.0628066062927246,0.847123384475708,1.2176505327224731
26,28406,28404,0.021210534498095512,-0.013094542548060417,0.9231324195861816,1.961556315422058,-2.2468409538269043,0.5158774256706238,1.8912427425384521,3.8254916667938232,0.2289123684167862,1.1960729360580444,0.9040213823318481,1.2229809761047363
27,28416,28414,0.011489355005323887,-0.021944483742117882,0.9604765176773071,-1.8112989664077759,4.526732921600342,0.5458998680114746,1.8916950225830078,3.824082851409912,0.23108631372451782,1.1531894207000732,1.1084085702896118,1.2114237546920776
28,28426,28424,-0.0021905768662691116,0.011642892844974995,1.0095434188842773,-5.936254024505615,9.977660179138184,0.4394563138484955,1.8907921314239502,3.824533462524414,0.23328739404678345,1.0878217220306396,1.008372187614441,1.216694712638855
29,28436,28434,0.007271275389939547,-0.006358785554766655,0.9795796871185303,-7.334595680236816,11.689033508300781,0.43509095907211304,1.8921622037887573,3.8276233673095703,0.2359660118818283,0.9471914768218994,0.9295135736465454,1.224352478981018
30,28446,28444,0.017186034470796585,-0.018686451017856598,0.964286744594574,-6.668046474456787,8.116006851196289,0.24614745378494263,1.886372685432434,3.823256254196167,0.2379198670387268,1.5218147039413452,1.3433356285095215,1.2882429361343384
31,28456,28454,-0.0429910346865654,-0.005955373868346214,1.0347480773925781,-5.111603260040283,5.143710136413574,-0.2840251624584198,1.886984944343567,3.824227809906006,0.24055029451847076,1.314774990081787,1.1192532777786255,1.2886580228805542
32,28466,28464,-0.06735353171825409,-0.00031316772219724953,1.0253626108169556,-7.209750652313232,6.160666465759277,-0.16803334653377533,1.8868516683578491,3.824532985687256,0.2409139722585678,1.151368260383606,1.0012452602386475,1.2787357568740845
33,28476,28474,-0.05465727671980858,0.024190464988350868,0.9755358099937439,-9.456336975097656,9.555734634399414,0.34865397214889526,1.8903297185897827,3.826016902923584,0.24359995126724243,0.5986344218254089,0.7055801153182983,1.227182388305664
34,28486,28484,-0.055247750133275986,0.054655399173498154,0.9398253560066223,-8.486710548400879,9.306649208068848,0.9675933122634888,1.8930695056915283,3.8277313709259033,0.2454134225845337,0.13657352328300476,0.4038323760032654,1.194126844406128
35,28496,28494,-0.05272221192717552,0.08969230949878693,0.9254764318466187,-6.879777431488037,6.637667655944824,1.6728860139846802,1.8854823112487793,3.8245904445648193,0.24991707503795624,1.0670545101165771,0.6590477228164673,1.3245450258255005
36,28506,28504,0.09530165046453476,-0.012399064376950264,0.9450287818908691,-2.9487102031707764,3.0509958267211914,0.8467960357666016,1.8820685148239136,3.8204269409179688,0.24862150847911835,1.3500216007232666,1.0587990283966064,1.3528488874435425
37,28516,28514,0.04225752130150795,-0.04667086899280548,0.9276545643806458,-4.33095645904541,5.531558513641357,0.766496479511261,1.8836041688919067,3.8204896450042725,0.2510504722595215,1.1893186569213867,0.9334953427314758,1.3523846864700317
38,28526,28524,0.011560002341866493,-0.05355735868215561,0.9167038202285767,-8.491874694824219,11.540088653564453,0.8887887597084045,1.883764386177063,3.820049524307251,0.2529003322124481,1.1387430429458618,0.934737503528595,1.3568052053451538
39,28536,28534,0.014473728835582733,-0.03454529866576195,0.9283015727996826,-12.957979202270508,17.749788284301758,0.5087832808494568,1.8836199045181274,3.821017026901245,0.2550189793109894,0.9871056079864502,0.7131609320640564,1.3738089799880981
40,28546,28544,0.015035607852041721,-0.012109254486858845,0.9424806237220764,-16.545162200927734,22.851722717285156,0.30447402596473694,1.8843069076538086,3.82039737701416,0.2568748891353607,0.7355698347091675,0.6523931622505188,1.3637642860412598
41,28556,28554,0.009949854575097561,0.0019055603770539165,0.9545736312866211,-17.112394332885742,25.836837768554688,0.12603461742401123,1.8864115476608276,3.8246049880981445,0.25903841853141785,0.26117944717407227,0.3073602318763733,1.3577988147735596
42,28566,28564,0.0076479059644043446,0.005989599972963333,0.9578744769096375,-15.842245101928711,23.795595169067383,0.15901947021484375,1.8841626644134521,3.823423385620117,0.2591392695903778,0.22911012172698975,0.19958554208278656,1.3828803300857544
43,28576,28574,0.014540898613631725,-0.004999438300728798,0.9493005275726318,-12.83157730102539,19.503780364990234,0.018792135640978813,1.8847649097442627,3.8229286670684814,0.2607765793800354,-0.1655409187078476,0.033161710947752,1.3697500228881836
44,28586,28584,0.021187616512179375,-0.026171207427978516,0.9377158284187317,-9.34563159942627,13.656538963317871,-0.14835768938064575,1.885122299194336,3.821855068206787,0.2622239887714386,-0.40005195140838623,-0.00522608170285821,1.363037109375
45,28596,28594,0.10237578302621841,-0.01790313608944416,0.859488308429718,-4.233294486999512,7.133307933807373,-0.08236062526702881,1.883408546447754,3.821829080581665,0.2636963129043579,-0.3240097463130951,-0.12676368653774261,1.379136085510254
46,28606,28604,0.034505147486925125,0.00619107112288475,0.9336291551589966,-1.664109468460083,-0.1988467574119568,-0.15754593908786774,1.884443759918213,3.8220529556274414,0.26444944739341736,-0.5246529579162598,-0.09929513186216354,1.3709287643432617
47,28616,28614,-0.03446390479803085,-0.0197456032037735,0.9742578864097595,-1.2897109985351562,-3.860260486602783,0.24587810039520264,1.8849316835403442,3.821165084838867,0.2656630873680115,-0.5916191339492798,-0.11976739019155502,1.3666080236434937
48,28626,28624,-0.08258121460676193,-0.005603545345366001,0.9747917652130127,-3.0727763175964355,-1.54315185546875,0.8160919547080994,1.884194016456604,3.8217051029205322,0.2668994963169098,-0.6137911677360535,-0.21669653058052063,1.363673210144043
49,28636,28634,0.009068159386515617,-0.04086434096097946,0.962033212184906,-6.8617353439331055,1.348124623298645,1.026987910270691,1.8842978477478027,3.820307970046997,0.2673237919807434,-0.6534709930419922,-0.263224333524704,1.3686943054199219
50,28646,28644,0.06714695692062378,-0.08728465437889099,0.9543898701667786,-7.466076374053955,1.6503480672836304,-0.3186452090740204,1.8843340873718262,3.8196351528167725,0.26836565136909485,-0.72364342212677,-0.2829118072986603,1.3807352781295776
51,28656,28654,0.007030709180980921,0.017631497234106064,0.9221065640449524,-8.25178050994873,2.6347973346710205,-0.24162381887435913,1.8848007917404175,3.821362257003784,0.26939889788627625,-0.7970431447029114,-0.47064468264579773,1.3681610822677612
52,28666,28664,-0.009060695767402649,0.025432903319597244,0.9483732581138611,-6.001374244689941,1.302086591720581,-0.27872249484062195,1.8845558166503906,3.821777105331421,0.2699054181575775,-0.7951018214225769,-0.6407363414764404,1.3557239770889282
53,28676,28674,-0.01661083661019802,0.006377507466822863,1.002017617225647,-4.047552585601807,0.22547906637191772,0.46700116991996765,1.8851613998413086,3.822671413421631,0.2708110809326172,-0.8496195673942566,-0.6196949481964111,1.3660722970962524
54,28686,28684,-0.0020447615534067154,-0.0558495931327343,1.0198341608047485,-0.8667130470275879,-1.3201932907104492,0.3880142569541931,1.886517882347107,3.824475049972534,0.271668016910553,-0.8833408355712891,-0.7150022387504578,1.3617182970046997
55,28696,28694,0.011643449775874615,-0.13374954462051392,1.0207401514053345,1.7221492528915405,-2.6328375339508057,0.4847136437892914,1.885596752166748,3.824810028076172,0.2726036608219147,-0.8219262361526489,-0.7485493421554565,1.3570221662521362
56,28706,28704,-0.014354441314935684,-0.15570133924484253,1.0588560104370117,3.810887098312378,-3.5651373863220215,0.5930936932563782,1.8849915266036987,3.824075698852539,0.273717999458313,-0.8252696990966797,-0.6575674414634705,1.3733851909637451
57,28716,28714,-0.04740138351917267,-0.13969506323337555,1.0716891288757324,3.8537540435791016,-3.2447502613067627,0.33395975828170776,1.8858015537261963,3.823810338973999,0.27472472190856934,-0.8846514821052551,-0.6214398145675659,1.3832650184631348
58,28726,28724,-0.04226677119731903,-0.13439784944057465,1.0199549198150635,3.8172249794006348,-4.223114490509033,0.5084252953529358,1.8856207132339478,3.824984312057495,0.2758150100708008,-0.8605687618255615,-0.5846959352493286,1.3856412172317505
59,28736,28734,-0.03188960254192352,-0.09109199047088623,0.960523247718811,0.7831854820251465,-3.8230395317077637,1.0660374164581299,1.8856807947158813,3.8251266479492188,0.2749328315258026,-0.8190591931343079,-0.5575335025787354,1.386650562286377
60,28746,28744,0.0065064080990850925,-0.046523191034793854,0.9292116761207581,-2.321817636489868,-4.449031829833984,0.9563640356063843,1.8853691816329956,3.826002359390259,0.27591896057128906,-0.7693407535552979,-0.5796791315078735,1.388463020324707
61,28756,28754,0.04243908450007439,-0.05193595588207245,0.9706048965454102,-4.129833698272705,-5.406778335571289,0.170974001288414,1.8855756521224976,3.8261263370513916,0.2768193483352661,-0.7103083729743958,-0.43015411496162415,1.427956461906433
62,28766,28764,0.02942124754190445,-0.027946043759584427,1.023120641708374,-2.6233327388763428,-7.107974529266357,-0.29333579540252686,1.8860137462615967,3.8248565196990967,0.278782457113266,-0.626953661441803,-0.3873189687728882,1.4438117742538452
63,28776,28774,0.015335973352193832,-0.037219710648059845,0.96783047914505,-4.8392720222473145,-6.906414031982422,-0.00019090955902356654,1.8872778415679932,3.8263185024261475,0.27975770831108093,-0.6717000603675842,-0.4833226203918457,1.4384667873382568
64,28786,28784,-0.0018659414490684867,-0.11680825054645538,0.9909440279006958,-5.0541791915893555,-6.940629005432129,0.4882611036300659,1.8879485130310059,3.8275654315948486,0.28070172667503357,-0.5730535387992859,-0.6010428071022034,1.4197866916656494
65,28796,28794,-0.002197759225964546,-0.11820472776889801,0.9654113054275513,-4.566781044006348,-3.917994737625122,-0.5008160471916199,1.8872630596160889,3.8275601863861084,0.2794225513935089,-0.47798022627830505,-0.6402969360351562,1.4228252172470093
66,28806,28804,0.01426681224256754,-0.1321203112602234,0.9950704574584961,-3.8342840671539307,-3.4711363315582275,-0.8723516464233398,1.8871392011642456,3.828204870223999,0.2801920771598816,-0.40175068378448486,-0.682039201259613,1.419581413269043
67,28816,28814,-0.006314064376056194,-0.03313856199383736,1.0128072500228882,-3.4491653442382812,-0.6874507665634155,-1.0861984491348267,1.8871225118637085,3.8284964561462402,0.28095048666000366,-0.35596010088920593,-0.776452898979187,1.4024379253387451
68,28826,28824,-0.0079426234588027,0.09821812063455582,0.9798344969749451,-2.594619035720825,-1.539646029472351,-1.134990930557251,1.8879969120025635,3.829073667526245,0.28167933225631714,-0.3501851558685303,-0.781301736831665,1.3978955745697021
69,28836,28834,0.0021872082725167274,0.017818134278059006,0.9749434590339661,0.6700640320777893,-1.6745949983596802,-1.364877700805664,1.8900517225265503,3.829728603363037,0.282161682844162,-0.4846046566963196,-0.8394360542297363,1.3954310417175293
70,28846,28844,0.026377161964774132,-0.03875414654612541,0.9442775845527649,1.272775411605835,-1.7595261335372925,-1.4000566005706787,1.889703631401062,3.8301310539245605,0.28284332156181335,-0.4553731679916382,-0.8497252464294434,1.3791764974594116
71,28856,28854,-0.012158540077507496,-0.07004480808973312,0.9899056553840637,1.6589051485061646,-7.631320476531982,-1.4824824333190918,1.8904439210891724,3.83066987991333,0.283473938703537,-0.48712074756622314,-0.8399037718772888,1.3706409931182861
72,28866,28864,-0.06845169514417648,-0.20006772875785828,1.0114144086837769,3.7406795024871826,-5.644881725311279,-1.3725199699401855,1.8901249170303345,3.8304831981658936,0.28057411313056946,-0.36483344435691833,-0.8215898871421814,1.3501415252685547
73,28876,28874,-0.010404274798929691,-0.03632500395178795,1.0282384157180786,4.014530181884766,-6.258299350738525,-1.195730447769165,1.8914836645126343,3.832245111465454,0.28096669912338257,-0.3273213505744934,-0.8489562273025513,1.3314093351364136
74,28886,28884,0.008907646872103214,0.010298187844455242,1.0033429861068726,4.024049758911133,-5.807749271392822,-1.4612082242965698,1.8918654918670654,3.833387613296509,0.2813810110092163,-0.21269400417804718,-0.8625380396842957,1.3058398962020874
75,28896,28894,0.022569220513105392,-0.04449177533388138,0.9619869589805603,5.21167516708374,-6.5837507247924805,-1.2600170373916626,1.8915660381317139,3.8339290618896484,0.2835291028022766,-0.11475411057472229,-0.8670796155929565,1.2822853326797485
76,28906,28904,-0.016251519322395325,-0.041307248175144196,0.9492139220237732,5.846670627593994,-4.040226936340332,-1.0181598663330078,1.8932392597198486,3.834725856781006,0.28403839468955994,-0.1681639850139618,-0.8464213609695435,1.2830256223678589
77,28916,28914,-0.0034629045985639095,-0.06850748509168625,0.9451814293861389,7.13455057144165,-2.9131381511688232,-0.670706033706665,1.8928498029708862,3.834066867828369,0.284578412771225,-0.09065493196249008,-0.6593449115753174,1.2847669124603271
78,28926,28924,0.01764814741909504,-0.0001240541459992528,1.0043787956237793,7.596098899841309,-2.871009588241577,-0.5648600459098816,1.8931611776351929,3.8348443508148193,0.28498250246047974,-0.033931806683540344,-0.5420099496841431,1.2796621322631836
79,28936,28934,0.007333158049732447,-0.009637529030442238,1.0043901205062866,5.181790828704834,-1.7611714601516724,0.07860167324542999,1.8936989307403564,3.8357841968536377,0.28257182240486145,0.01955932378768921,-0.49833589792251587,1.2686076164245605
80,28946,28944,0.029681047424674034,-0.1299838125705719,1.01871657371521,3.8714089393615723,-3.0205564498901367,0.24299074709415436,1.8938416242599487,3.835042715072632,0.2828059494495392,-0.00979609601199627,-0.40659666061401367,1.2755696773529053
81,28956,28954,0.0007451034616678953,-0.0913153663277626,1.0631871223449707,2.350446939468384,-3.753786563873291,-0.27432745695114136,1.8958759307861328,3.8360307216644287,0.28314051032066345,-0.16875100135803223,-0.49423500895500183,1.2871577739715576
82,28966,28964,-0.022686878219246864,-0.036886557936668396,1.0411133766174316,1.5971428155899048,-4.558958530426025,-0.5704286098480225,1.8960566520690918,3.8367066383361816,0.2844424247741699,-0.1566847562789917,-0.4459930956363678,1.2883638143539429
83,28976,28974,-0.02197638340294361,0.0480705201625824,1.0206462144851685,-1.3212618827819824,-1.4962891340255737,0.05466732755303383,1.8948893547058105,3.8367857933044434,0.28495800495147705,-0.05522965267300606,-0.4146827459335327,1.2786450386047363
84,28986,28984,0.08333822339773178,-0.07882741093635559,1.0278321504592896,2.0699665546417236,-7.3705058097839355,-0.2855374813079834,1.8946589231491089,3.837531805038452,0.28542429208755493,0.02527552843093872,-0.4855358302593231,1.2686612606048584
85,28996,28994,0.05033186078071594,0.04721926525235176,0.9948261380195618,3.26796293258667,-9.003453254699707,0.23078499734401703,1.8965654373168945,3.8383424282073975,0.28870296478271484,-0.05170915275812149,-0.5089648365974426,1.2773315906524658
86,29006,29004,0.05920536071062088,0.023309245705604553,1.0339601039886475,5.481780529022217,-9.504474639892578,-0.031520601361989975,1.8960435390472412,3.8388023376464844,0.2894044816493988,0.13198937475681305,-0.49695807695388794,1.268229365348816
87,29016,29014,0.04419228434562683,-0.09472711384296417,1.0411592721939087,8.358990669250488,-9.740935325622559,-0.701248288154602,1.8960301876068115,3.83951735496521,0.29011988639831543,0.24185703694820404,-0.44184187054634094,1.2653533220291138
88,29026,29024,0.022086014971137047,-0.13548250496387482,1.0006425380706787,9.798212051391602,-7.0770792961120605,-1.061050534248352,1.896834373474121,3.8419008255004883,0.29086872935295105,0.3474615812301636,-0.345085084438324,1.2598389387130737
89,29036,29034,0.013958713039755821,-0.1166587620973587,0.9530000686645508,11.256928443908691,-4.2439799308776855,-0.8684945702552795,1.8970437049865723,3.841665267944336,0.29202333092689514,0.4867993891239166,-0.22580236196517944,1.2468738555908203
90,29046,29044,-0.022655630484223366,-0.044510047882795334,0.9519811272621155,10.252699851989746,-1.533987283706665,-1.119418978691101,1.8973817825317383,3.8426501750946045,0.29283052682876587,0.4334929585456848,-0.16765746474266052,1.2460955381393433
91,29056,29054,-0.0025509062688797712,0.0016081533394753933,0.9337514638900757,7.446132183074951,-3.063162326812744,-0.8110038042068481,1.898193120956421,3.842067003250122,0.2935198247432709,0.42361217737197876,0.028347881510853767,1.2406941652297974
92,29066,29064,-0.0046798959374427795,-0.007133229169994593,1.0248714685440063,5.055589199066162,-0.4167926609516144,-1.334682822227478,1.8986693620681763,3.8416402339935303,0.29187360405921936,0.43295302987098694,0.16784533858299255,1.2335355281829834
93,29076,29074,-8.393346070079133e-05,0.01956232823431492,1.041380763053894,2.559293270111084,-2.08774995803833,-1.3345770835876465,1.8994925022125244,3.8435676097869873,0.2923927903175354,0.4906767010688782,0.10879281908273697,1.221269130706787
94,29086,29084,0.0059893508441746235,-0.0040703448466956615,1.061186671257019,0.06904246658086777,-4.651277542114258,-1.3637008666992188,1.9007704257965088,3.844269037246704,0.29291635751724243,0.410170316696167,0.09541478008031845,1.211920142173767
95,29096,29094,-0.021730724722146988,-0.018568169325590134,1.083022952079773,1.0613864660263062,-7.654999256134033,-1.412522792816162,1.9011904001235962,3.8442811965942383,0.2908708453178406,0.44562286138534546,0.13390086591243744,1.1968199014663696
96,29106,29104,-0.05782599374651909,-0.013972313143312931,1.0595135688781738,1.7285761833190918,-5.424707412719727,-1.5005728006362915,1.9009160995483398,3.844907283782959,0.29146766662597656,0.6019986867904663,0.10615052282810211,1.1808031797409058
97,29116,29114,-0.005088204983621836,-0.03990190476179123,0.9847809076309204,3.2672197818756104,-9.193864822387695,-0.4896473288536072,1.9012248516082764,3.845482587814331,0.29205796122550964,0.6542656421661377,0.09333700686693192,1.1678109169006348
98,29126,29124,-0.032354842871427536,0.03937286138534546,0.9947176575660706,5.746551036834717,-5.148980140686035,-0.24856267869472504,1.901481032371521,3.845393419265747,0.29145297408103943,0.7395597696304321,0.18908117711544037,1.1583572626113892
99,29136,29134,0.007621049880981445,0.020376188680529594,1.0091218948364258,6.993947505950928,-2.399073362350464,0.18949031829833984,1.901258111000061,3.8454830646514893,0.29202911257743835,0.8488875031471252,0.24560441076755524,1.1556330919265747
100,29146,29144,0.06778594851493835,-0.1390005648136139,0.981753945350647,6.73488187789917,-0.2553867697715759,-0.037418778985738754,1.9002902507781982,3.8474180698394775,0.29257670044898987,0.8934119343757629,0.17423754930496216,1.1652370691299438
101,29156,29154,0.017287660390138626,-0.12154393643140793,0.985405683517456,5.990748405456543,-0.6838361024856567,-0.10866644978523254,1.9004169702529907,3.8476946353912354,0.2930839955806732,0.9284262657165527,0.2553158700466156,1.1665453910827637
102,29166,29164,0.009520072489976883,-0.01938219554722309,0.9903512001037598,4.626796245574951,1.360455870628357,0.5077915787696838,1.9001330137252808,3.8471829891204834,0.29392585158348083,0.9433949589729309,0.3904430866241455,1.1623765230178833
103,29176,29174,0.0357683040201664,-0.10182946175336838,1.0131802558898926,5.749184608459473,3.645988702774048,0.4836456775665283,1.9009003639221191,3.847210168838501,0.29444482922554016,0.9222880601882935,0.5086578130722046,1.1610854864120483
104,29186,29184,0.010232058353722095,-0.021441124379634857,0.9997170567512512,4.550650119781494,9.976242065429688,-0.14604414999485016,1.9009087085723877,3.84782075881958,0.294975608587265,0.8398998379707336,0.4773710072040558,1.172141432762146
105,29196,29194,0.00711858319118619,0.05434560030698776,1.0236643552780151,2.232499361038208,18.241064071655273,-0.6114757061004639,1.9016817808151245,3.849069118499756,0.2951608896255493,0.6653938889503479,0.50057452917099,1.1734102964401245
106,29206,29204,0.00042511377250775695,-0.09170384705066681,0.9756737351417542,0.05083140358328819,23.686952590942383,-1.232528567314148,1.903167963027954,3.8499250411987305,0.29566818475723267,0.42737871408462524,0.4931456744670868,1.1695313453674316
107,29216,29214,-0.0035708590876311064,-0.09020508080720901,0.9760063290596008,0.20425812900066376,25.70936393737793,-1.233544945716858,1.9027438163757324,3.8504204750061035,0.29626399278640747,0.2587383985519409,0.5984068512916565,1.155365228652954
108,29226,29224,0.02050541527569294,-0.05286654457449913,0.972586989402771,1.1937413215637207,22.148714065551758,-1.2838863134384155,1.9028334617614746,3.8504743576049805,0.2986137270927429,-0.00024404832220170647,0.6361101269721985,1.1435604095458984
109,29236,29234,0.014888367615640163,-0.03094596229493618,0.9777221083641052,2.444378614425659,17.437393188476562,-1.317362666130066,1.9040372371673584,3.8504157066345215,0.29908931255340576,-0.33937451243400574,0.6760132312774658,1.1226463317871094
110,29246,29244,0.004294861573725939,-0.03802097961306572,0.9778498411178589,2.4516377449035645,12.263903617858887,-1.2952477931976318,1.9032084941864014,3.8510005474090576,0.2997026741504669,-0.4410705864429474,0.6571111679077148,1.1200357675552368
111,29256,29254,0.012336823157966137,-0.01818031631410122,0.9988231658935547,2.2361371517181396,6.8440046310424805,-1.7654814720153809,1.9040899276733398,3.8512232303619385,0.3001607656478882,-0.6070689558982849,0.7151625752449036,1.1020317077636719
112,29266,29264,-0.014451324008405209,-0.017185240983963013,1.055212378501892,0.8131242394447327,2.739431858062744,-1.4873030185699463,1.9028955698013306,3.850829601287842,0.29895687103271484,-0.5133722424507141,0.7606133222579956,1.0962564945220947
113,29276,29274,0.01557648740708828,-0.043680399656295776,0.986669659614563,1.5361579656600952,-1.1472572088241577,-1.5815123319625854,1.9036645889282227,3.851301431655884,0.29940488934516907,-0.540141761302948,0.77930748462677,1.0814703702926636
114,29286,29284,-0.030328160151839256,0.04966851696372032,0.9965927600860596,-0.0227341428399086,1.7569383382797241,-1.4640752077102661,1.9036930799484253,3.8520090579986572,0.2998984158039093,-0.5360369682312012,0.7235680818557739,1.0676933526992798
115,29296,29294,-0.03785794600844383,0.1256723403930664,0.9878252744674683,-4.425572872161865,6.439816951751709,-1.267824411392212,1.9042589664459229,3.8532073497772217,0.30212536454200745,-0.5831840634346008,0.7121520638465881,1.0507606267929077
116,29306,29304,0.02338741347193718,-0.08512183278799057,0.9937728643417358,-2.569638729095459,8.268035888671875,-2.099855899810791,1.9053558111190796,3.85359525680542,0.30266115069389343,-0.6863124966621399,0.6712880730628967,1.0328198671340942
117,29316,29314,0.014033342711627483,-0.026208996772766113,0.9890053272247314,-4.254300594329834,11.006607055664062,-2.53718900680542,1.905701756477356,3.854172706604004,0.30317047238349915,-0.8263508081436157,0.6314332485198975,1.00592041015625
118,29326,29324,-0.011053717695176601,-0.04385841265320778,0.9406368732452393,-3.126821517944336,9.70005989074707,-2.135556697845459,1.9069498777389526,3.8550755977630615,0.29951009154319763,-0.9906684160232544,0.5821425914764404,0.9753072261810303
119,29336,29334,0.018741417676210403,-0.007212663535028696,0.9763964414596558,-1.9248510599136353,8.295149803161621,-2.440997838973999,1.9049763679504395,3.854809284210205,0.2999182641506195,-0.8888016939163208,0.5477346777915955,0.9739508628845215
120,29346,29344,0.011257563717663288,2.424831109237857e-05,1.0112457275390625,-1.3641250133514404,5.996643543243408,-2.7959909439086914,1.905532717704773,3.8553638458251953,0.3001496195793152,-0.9973110556602478,0.528812825679779,0.9462231993675232
121,29356,29354,0.014555941335856915,-0.04520602151751518,0.9575563073158264,-0.2975010871887207,4.373129367828369,-2.665865659713745,1.9060741662979126,3.855426073074341,0.29786235094070435,-1.085658311843872,0.5206696391105652,0.9156095385551453
122,29366,29364,0.04330296441912651,-0.06120976060628891,0.949351966381073,0.7537721395492554,3.1583714485168457,-2.788780927658081,1.905029058456421,3.853863000869751,0.2979810833930969,-1.074199914932251,0.6875039935112,0.9128493666648865
123,29376,29374,0.05055379122495651,-0.08327759057283401,0.9627973437309265,0.5797710418701172,2.325937271118164,-2.256666421890259,1.905544638633728,3.854820489883423,0.2979729175567627,-1.1335785388946533,0.6753768920898438,0.8835011124610901
124,29386,29384,0.037544526159763336,-0.0424315370619297,0.9217588305473328,-0.13600066304206848,2.4156441688537598,-1.8928699493408203,1.9047765731811523,3.85528302192688,0.2979688346385956,-1.082194209098816,0.674038827419281,0.8698230981826782
125,29396,29394,0.059447649866342545,-0.046938456594944,0.9396814703941345,-2.6115670204162598,4.4525065422058105,-2.095141649246216,1.9056364297866821,3.8557660579681396,0.2992126941680908,-1.1272985935211182,0.6434789896011353,0.8446417450904846
126,29406,29404,0.07948871701955795,-0.06386861205101013,1.0003291368484497,-4.350983142852783,4.05500602722168,-1.8738359212875366,1.9061123132705688,3.857145309448242,0.2990935146808624,-1.2035549879074097,0.49046236276626587,0.8050334453582764
127,29416,29414,0.035085905343294144,-0.034714505076408386,0.9951322674751282,-5.8624982833862305,5.132603168487549,-1.5431630611419678,1.9074859619140625,3.856942892074585,0.29889586567878723,-1.3369323015213013,0.48428818583488464,0.7841895222663879
128,29426,29424,-0.002136011142283678,-0.1378553956747055,1.0247807502746582,-5.2555341720581055,4.689253807067871,-1.2459807395935059,1.908571481704712,3.8561408519744873,0.30039745569229126,-1.4755265712738037,0.5353056788444519,0.7780947089195251
129,29436,29434,0.016975469887256622,-0.01939103566110134,1.0379139184951782,-4.974271774291992,3.980285882949829,-2.0917067527770996,1.9082632064819336,3.8564295768737793,0.30038589239120483,-1.5121592283248901,0.42746874690055847,0.7565640807151794
130,29446,29444,-0.04394366219639778,0.01441765483468771,0.9975547194480896,-3.839078426361084,0.04123551771044731,-0.8534678220748901,1.9093890190124512,3.8567843437194824,0.30030807852745056,-1.6666349172592163,0.34966588020324707,0.7175437211990356
131,29456,29454,0.026133792474865913,-0.025625720620155334,1.003172516822815,-3.1836719512939453,-3.112628698348999,-0.6420748829841614,1.908484935760498,3.8555362224578857,0.29925113916397095,-1.5205453634262085,0.4376206696033478,0.74651038646698
132,29466,29464,-0.03091684728860855,-0.00973556749522686,0.9836540222167969,-2.8535706996917725,-6.581177711486816,-0.8432815670967102,1.9099808931350708,3.8565332889556885,0.29914015531539917,-1.5974525213241577,0.3679632842540741,0.7197299003601074
133,29476,29474,0.03991064056754112,-0.021292690187692642,0.9823901653289795,-3.027571439743042,-10.273818016052246,0.0039763120003044605,1.909985899925232,3.85628342628479,0.299100399017334,-1.4878102540969849,0.30347439646720886,0.7070239782333374
134,29486,29484,0.0046538496389985085,-0.07828748971223831,1.0881247520446777,-4.145421028137207,-7.158790588378906,-0.5075306296348572,1.9103039503097534,3.8567793369293213,0.29899632930755615,-1.402374029159546,0.22552186250686646,0.6956949234008789
135,29496,29494,0.006172068417072296,-0.03891513869166374,1.0441992282867432,-5.25210428237915,-5.444011211395264,-1.0735872983932495,1.909706950187683,3.856447696685791,0.29727014899253845,-1.208532691001892,0.21500161290168762,0.7056636214256287
136,29506,29504,0.012573033571243286,-0.002903627697378397,1.0394513607025146,-5.381602764129639,-3.632952928543091,-1.3138206005096436,1.9126474857330322,3.856435537338257,0.2971026599407196,-1.3729325532913208,0.10532686114311218,0.6654164791107178
137,29516,29514,0.02788669802248478,0.008955072611570358,1.061224341392517,-2.2177391052246094,-3.5454142093658447,-0.871673583984375,1.9127191305160522,3.8546526432037354,0.29719310998916626,-1.2445347309112549,0.25462067127227783,0.705578625202179
138,29526,29524,0.004534395877271891,-0.01870775781571865,1.0512887239456177,-1.2216544151306152,-3.127197504043579,-1.2044621706008911,1.9123610258102417,3.855003833770752,0.29717835783958435,-1.1305376291275024,0.18569515645503998,0.6908079981803894
139,29536,29534,0.012178882025182247,-0.0009430998470634222,1.0385816097259521,-0.7048140168190002,-1.0432318449020386,-0.9786555767059326,1.91506826877594,3.8539421558380127,0.29717499017715454,-1.2633289098739624,0.22434645891189575,0.6812771558761597
140,29546,29544,0.02037954144179821,-0.046803995966911316,1.09470534324646,-1.1586254835128784,-1.7235374450683594,-0.9327113628387451,1.9153622388839722,3.8542723655700684,0.2974177598953247,-1.1519359350204468,0.17333678901195526,0.6678171157836914
141,29556,29554,-0.01802365481853485,-0.020509524270892143,1.0591095685958862,-2.3711342811584473,-1.8157631158828735,-0.689460039138794,1.916300892829895,3.853172540664673,0.29775553941726685,-1.1183695793151855,0.19872121512889862,0.6673483848571777
142,29566,29564,0.04713156819343567,-0.05166110768914223,1.051085352897644,-3.6601433753967285,-3.9673328399658203,-0.4413079619407654,1.9177911281585693,3.853435754776001,0.2980077564716339,-1.1888117790222168,0.11272523552179337,0.6442036032676697
143,29576,29574,-0.02378152310848236,-0.007255828008055687,1.0215916633605957,-5.6373395919799805,-2.9978020191192627,-0.6808203458786011,1.9181978702545166,3.8537211418151855,0.2983936369419098,-1.1074323654174805,0.014214370399713516,0.6301164627075195
144,29586,29584,0.015955325216054916,0.004362689331173897,1.0181434154510498,-5.163125991821289,-5.209996223449707,-0.47878897190093994,1.9187215566635132,3.8534929752349854,0.29878830909729004,-1.0360753536224365,-0.023571398109197617,0.628871500492096
145,29596,29594,0.00453586969524622,-0.03495610132813454,1.0365421772003174,-4.308090686798096,-6.1357741355896,-0.23790350556373596,1.919359803199768,3.853142499923706,0.3027748167514801,-0.9331870079040527,-0.052241548895835876,0.6309307217597961
146,29606,29604,-0.03667483106255531,0.077534981071949,0.9979720711708069,-1.8446182012557983,-6.581769943237305,0.11538423597812653,1.9212565422058105,3.852478504180908,0.30339065194129944,-0.9111899733543396,-0.046347688883543015,0.6327706575393677
147,29616,29614,0.016473103314638138,-0.04625065252184868,1.0484243631362915,-1.7362431287765503,-6.7042083740234375,0.12553995847702026,1.9208468198776245,3.8535940647125244,0.3041437268257141,-0.6886428594589233,-0.11212047189474106,0.6313835978507996
148,29626,29624,0.006565676536411047,0.005429938435554504,1.018721103668213,0.1314624845981598,-3.5832014083862305,-0.5120055675506592,1.9264545440673828,3.853600263595581,0.3066778779029846,-1.0615941286087036,-0.1503565013408661,0.619270920753479
149,29636,29634,-0.014667856507003307,0.03447636961936951,0.9631262421607971,0.5956945419311523,-3.832528591156006,0.14072708785533905,1.92716383934021,3.8525702953338623,0.3075771927833557,-0.9812957048416138,-0.0929185301065445,0.6243980526924133
150,29646,29644,0.01684248261153698,-0.013417698442935944,0.9882144927978516,0.4441644251346588,-5.8181047439575195,0.18909180164337158,1.9287775754928589,3.852308511734009,0.308259516954422,-1.0316663980484009,-0.10617799311876297,0.6221649050712585
151,29656,29654,0.043209221214056015,0.04600854963064194,0.963912308216095,0.9073922634124756,-5.737947940826416,0.04318888112902641,1.930076003074646,3.8522462844848633,0.3096306622028351,-0.9415070414543152,-0.11965096741914749,0.617176353931427
152,29666,29664,0.02129366807639599,0.044576361775398254,1.014653205871582,-0.7538727521896362,-11.558499336242676,-0.11322443932294846,1.9317675828933716,3.852290630340576,0.3103148937225342,-0.9180108904838562,-0.14045622944831848,0.6151642203330994
153,29676,29674,0.024458857253193855,-0.0407060869038105,0.9707735776901245,-0.6485815644264221,-14.496027946472168,0.27235880494117737,1.9329981803894043,3.8523521423339844,0.31115731596946716,-0.7497335076332092,-0.17953266203403473,0.609790027141571
154,29686,29684,-0.03991330787539482,-0.057320307940244675,1.0055118799209595,-0.1094648689031601,-15.708542823791504,0.3377428352832794,1.9329990148544312,3.8517799377441406,0.31243741512298584,-0.4462544620037079,-0.204583540558815,0.6070801019668579
155,29696,29694,-0.002496677916496992,-0.027049243450164795,0.9812702536582947,0.3409004211425781,-13.524996757507324,0.18886971473693848,1.9358360767364502,3.8517377376556396,0.31322768330574036,-0.45112234354019165,-0.21789927780628204,0.6132449507713318
156,29706,29704,-0.10104183107614517,0.021747447550296783,0.9923219680786133,-0.47116127610206604,-10.20694637298584,0.6212875247001648,1.9374830722808838,3.851905107498169,0.3139970600605011,-0.33872517943382263,-0.07896113395690918,0.6449679136276245
157,29716,29714,-0.021597733721137047,-0.005543797742575407,0.9869064092636108,-1.3463228940963745,-7.429360866546631,0.08033222705125809,1.9376424551010132,3.852311134338379,0.3149888515472412,-0.131822869181633,-0.11799801886081696,0.6415013074874878
158,29726,29724,0.0035847031977027655,0.04620591923594475,0.9812430143356323,-2.568927764892578,-5.652172565460205,0.775356650352478,1.9377052783966064,3.8525822162628174,0.3174164593219757,0.03461707383394241,-0.17211923003196716,0.6392576098442078
159,29736,29734,0.00901336781680584,0.014022906310856342,0.9592754244804382,-4.0679707527160645,-1.4205747842788696,0.37162405252456665,1.9423942565917969,3.8528432846069336,0.31922784447669983,-0.10394690185785294,-0.24643465876579285,0.6468847393989563
160,29746,29744,0.0065320804715156555,0.020480260252952576,0.9246802926063538,-3.398827075958252,1.0688765048980713,0.019792936742305756,1.9420204162597656,3.8529460430145264,0.3192722499370575,-0.07078688591718674,-0.32495036721229553,0.643924355506897
161,29756,29754,-0.004199166316539049,0.05395074933767319,0.9160225987434387,-1.3893011808395386,-1.147581696510315,0.6891403198242188,1.9423953294754028,3.8531136512756348,0.31854885816574097,0.045202042907476425,-0.30337557196617126,0.6426453590393066
162,29766,29764,0.0019707842729985714,-0.013797780498862267,0.9457305073738098,0.5895270705223083,-2.0609161853790283,1.0548112392425537,1.9446167945861816,3.852506160736084,0.319180428981781,-0.13370133936405182,-0.24868786334991455,0.6601150035858154
163,29776,29774,-0.00272573996335268,-0.025719275698065758,0.9530453085899353,3.1047046184539795,-4.664002418518066,1.0006698369979858,1.945040225982666,3.851963520050049,0.319987028837204,0.03245798870921135,-0.2409278154373169,0.6635168194770813
164,29786,29784,-0.008896160870790482,-0.02173624560236931,0.9513447284698486,2.979611396789551,-4.95264196395874,0.9147989749908447,1.9446184635162354,3.8507425785064697,0.3214455544948578,0.2245151847600937,-0.05742485076189041,0.6662384867668152
165,29796,29794,-0.08764495700597763,-0.03540671989321709,1.0028584003448486,1.9777189493179321,-5.15778923034668,1.232858657836914,1.9473583698272705,3.8512704372406006,0.3220360279083252,0.15857139229774475,-0.11915832757949829,0.685008704662323
166,29806,29804,-0.053902145475149155,-0.061799272894859314,0.9826157689094543,-1.1736440658569336,-3.232327461242676,1.9489376544952393,1.9478737115859985,3.851348638534546,0.3226516842842102,0.2098633348941803,-0.13082796335220337,0.7009692788124084
167,29816,29814,0.0581916905939579,-0.14749056100845337,0.9495483636856079,-3.8391945362091064,-5.725489616394043,2.1280815601348877,1.9477601051330566,3.8526370525360107,0.32337120175361633,0.3594517409801483,-0.19458052515983582,0.7240259051322937
168,29826,29824,-0.012957739643752575,0.08190760761499405,0.9427661299705505,-5.580519199371338,-1.666660189628601,2.85636043548584,1.949194312095642,3.8521835803985596,0.3239550292491913,0.3737637996673584,-0.21375387907028198,0.7495736479759216
169,29836,29834,-0.011380775831639767,0.02161460928618908,0.943871796131134,-6.067680358886719,0.17035867273807526,3.2219314575195312,1.950415015220642,3.8531997203826904,0.324503630399704,0.4165799617767334,-0.33105185627937317,0.7810506820678711
170,29846,29844,0.011282841674983501,-0.13675199449062347,0.9286730289459229,-4.721460819244385,2.1277987957000732,3.261683940887451,1.9523404836654663,3.852057695388794,0.3249601721763611,0.3390094041824341,-0.29290151596069336,0.8117304444313049
171,29856,29854,-0.0007925895042717457,-0.14562907814979553,0.9278855919837952,-2.409989595413208,3.560405969619751,3.277660369873047,1.952620267868042,3.852574110031128,0.3266594409942627,0.39147478342056274,-0.3723262548446655,0.8429763317108154
172,29866,29864,0.00874942447990179,-0.036776430904865265,0.9377895593643188,-0.16813473403453827,4.149285793304443,3.2324230670928955,1.9532493352890015,3.851503610610962,0.3271327316761017,0.34141501784324646,-0.2716844379901886,0.8671000003814697
173,29876,29874,0.013327972032129765,-0.007796655409038067,0.9491548538208008,-0.5239934325218201,4.119324207305908,3.5767788887023926,1.9544252157211304,3.8511478900909424,0.327514111995697,0.288864403963089,-0.29892656207084656,0.9040029048919678
174,29886,29884,0.003644798416644335,-0.005484085530042648,0.9620037078857422,-1.1080269813537598,3.6030988693237305,3.2292635440826416,1.9551752805709839,3.8509979248046875,0.32756176590919495,0.23998551070690155,-0.3400828242301941,0.9428094625473022
175,29896,29894,-0.04055122658610344,0.09586524963378906,0.9424958229064941,-0.2071370929479599,2.8876328468322754,3.266522169113159,1.9555985927581787,3.8511204719543457,0.3278755247592926,0.28254324197769165,-0.3714360296726227,0.9744191765785217
176,29906,29904,-0.0408761128783226,0.13694551587104797,0.9196089506149292,-0.6592297554016113,0.36199215054512024,3.7801871299743652,1.9574607610702515,3.8512301445007324,0.3280331492424011,0.18358828127384186,-0.399921715259552,1.0146591663360596
177,29916,29914,0.010975212790071964,-0.013675645925104618,0.9390150308609009,-0.7972937226295471,0.9870765805244446,3.131566286087036,1.957891821861267,3.8518147468566895,0.3282298743724823,0.2572520971298218,-0.4291897118091583,1.0466384887695312
178,29926,29924,0.026993315666913986,-0.08240831643342972,0.9489132165908813,-0.6262370944023132,3.2373709678649902,2.6404526233673096,1.9584954977035522,3.8517637252807617,0.3257366120815277,0.268791526556015,-0.4557708203792572,1.079782247543335
179,29936,29934,0.011550525203347206,0.10771498829126358,1.006899356842041,-0.009029220789670944,0.302756130695343,3.128913164138794,1.9603687524795532,3.850796699523926,0.3255242705345154,0.08177416026592255,-0.39985114336013794,1.1114418506622314
180,29946,29944,-0.0031489580869674683,0.017182262614369392,0.9784546494483948,0.03529316559433937,1.9995834827423096,3.3220279216766357,1.9616436958312988,3.8508636951446533,0.3252169191837311,0.1612299084663391,-0.41815122961997986,1.1398483514785767
181,29956,29954,-0.06771059334278107,-0.010768557898700237,0.988396406173706,0.49848124384880066,0.474836140871048,3.2961130142211914,1.9610437154769897,3.8512778282165527,0.32623815536499023,0.23185612261295319,-0.4242144227027893,1.1678338050842285
182,29966,29964,-0.04347401112318039,-0.014483178965747356,0.9707123637199402,0.4438892900943756,2.8617031574249268,3.856809139251709,1.9615689516067505,3.8518178462982178,0.3260890543460846,0.21175457537174225,-0.5063104033470154,1.2128018140792847
183,29976,29974,0.0073897032998502254,-0.1221756562590599,0.9342911243438721,0.31684306263923645,3.573798179626465,4.040943145751953,1.9616186618804932,3.8516268730163574,0.32594895362854004,0.22896388173103333,-0.5048812627792358,1.2407587766647339
184,29986,29984,-0.0012354895006865263,-0.025383235886693,0.9926187992095947,0.15516133606433868,4.841297149658203,3.7536540031433105,1.9626514911651611,3.8516273498535156,0.32481464743614197,0.16747860610485077,-0.4998836815357208,1.2826212644577026
185,29996,29994,0.008000224828720093,-0.027622153982520103,0.967954158782959,1.7366666793823242,4.534114360809326,3.1674959659576416,1.9632657766342163,3.8514578342437744,0.3245340585708618,0.15459132194519043,-0.4860982298851013,1.3133749961853027
186,30006,30004,0.015393979847431183,-0.018601929768919945,0.9762197136878967,1.7711832523345947,5.348268032073975,3.3928868770599365,1.9636200666427612,3.8513405323028564,0.3242119550704956,0.14688292145729065,-0.4592446982860565,1.3402336835861206
187,30016,30014,0.0026551545597612858,0.0008172914385795593,0.9966281056404114,2.3562207221984863,6.010916709899902,3.656205654144287,1.9644042253494263,3.8517861366271973,0.3238776922225952,0.11728665232658386,-0.428040087223053,1.3788987398147583
188,30026,30024,-0.012888613156974316,0.07843451201915741,0.9454131722450256,1.5749071836471558,6.014704704284668,3.2141151428222656,1.965917706489563,3.851958990097046,0.32399338483810425,-0.002343342173844576,-0.4019732177257538,1.41480553150177
189,30036,30034,0.00394120067358017,-0.04168281331658363,0.9994882345199585,1.494286060333252,6.3385443687438965,3.1874125003814697,1.9663580656051636,3.853196382522583,0.32365286350250244,-0.028660599142313004,-0.3772355318069458,1.4544693231582642
190,30046,30044,0.024267209693789482,-0.061474382877349854,0.9852647185325623,1.5298556089401245,6.062963485717773,2.9137139320373535,1.9675649404525757,3.85274076461792,0.3232116401195526,-0.14899186789989471,-0.3529004454612732,1.4813348054885864
191,30056,30054,0.01034752931445837,-0.03968324139714241,0.9800111055374146,0.4918993413448334,7.014507293701172,2.277604818344116,1.9678858518600464,3.8528342247009277,0.3194902241230011,-0.18436969816684723,-0.3362194001674652,1.5041978359222412
192,30066,30064,0.018587740138173103,-0.022673802450299263,0.9804081916809082,0.5653562545776367,6.25700569152832,2.1686699390411377,1.9684512615203857,3.8525893688201904,0.3188895881175995,-0.21024064719676971,-0.33361387252807617,1.5298057794570923
193,30076,30074,0.07191704213619232,-0.014849103055894375,0.9724306464195251,0.8079036474227905,3.926063060760498,2.244351625442505,1.9696608781814575,3.8544983863830566,0.31819960474967957,-0.322742223739624,-0.32251814007759094,1.5742135047912598
194,30086,30084,0.09467853605747223,-0.07263942807912827,1.0069799423217773,0.15062649548053741,1.1173022985458374,2.147123098373413,1.9696975946426392,3.854649782180786,0.31870219111442566,-0.30874407291412354,-0.3197765648365021,1.5930641889572144
195,30096,30094,0.019014662131667137,-0.051599081605672836,1.0042355060577393,-1.2295026779174805,1.675423502922058,2.051236391067505,1.969909429550171,3.8546760082244873,0.31811127066612244,-0.2570773661136627,-0.3325248062610626,1.614184021949768
196,30106,30104,-0.029321707785129547,-0.04227123409509659,0.9897249341011047,-0.9748679399490356,1.040137767791748,2.444185733795166,1.971353530883789,3.8547091484069824,0.317431777715683,-0.3610978424549103,-0.34073883295059204,1.6246892213821411
197,30116,30114,0.014264626428484917,0.017991352826356888,1.0500881671905518,-0.29142341017723083,1.8809605836868286,2.18363094329834,1.971402645111084,3.8534913063049316,0.3168928921222687,-0.3640284538269043,-0.3481588363647461,1.650675654411316
198,30126,30124,0.012134731747210026,0.038361892104148865,1.078296184539795,0.42489615082740784,2.2295825481414795,2.6911659240722656,1.9720659255981445,3.8533904552459717,0.316337913274765,-0.3281077742576599,-0.33902692794799805,1.6707993745803833
199,30136,30134,0.021988574415445328,0.009503201581537724,1.1060492992401123,0.5520145893096924,1.5854636430740356,2.7361268997192383,1.9742984771728516,3.8540830612182617,0.31567302346229553,-0.5210416316986084,-0.4120291769504547,1.7108451128005981
200,30146,30144,-0.005514012183994055,0.0279354490339756,1.0483617782592773,1.0850595235824585,2.361300230026245,2.682257652282715,1.9746439456939697,3.8536624908447266,0.315303772687912,-0.4572443664073944,-0.38365039229393005,1.7322168350219727
201,30156,30154,0.01262192614376545,-0.11520908772945404,1.1013535261154175,2.027635335922241,2.9957706928253174,2.2010300159454346,1.9753568172454834,3.853917121887207,0.3163565397262573,-0.4698827862739563,-0.3653471767902374,1.761579990386963
202,30166,30164,-0.0013015661388635635,0.0517369881272316,1.0101183652877808,3.7088735103607178,1.6253101825714111,2.2405686378479004,1.9774141311645508,3.8528084754943848,0.31605955958366394,-0.5882243514060974,-0.30379748344421387,1.775897741317749
203,30176,30174,0.015151570551097393,0.006706344895064831,1.0206215381622314,1.9035418033599854,-2.0741353034973145,2.5264785289764404,1.9782859086990356,3.8542826175689697,0.31589075922966003,-0.5760327577590942,-0.24866028130054474,1.8242686986923218
204,30186,30184,-0.033092793077230453,-0.030827434733510017,1.157071828842163,3.1054129600524902,-3.946561813354492,2.368849277496338,1.9785219430923462,3.8544576168060303,0.3162577748298645,-0.4151149392127991,-0.21518345177173615,1.844083547592163
205,30196,30194,0.04612898826599121,-0.04552295804023743,1.0491734743118286,1.0424902439117432,-3.7778799533843994,2.1924118995666504,1.9796230792999268,3.8559043407440186,0.31623539328575134,-0.4011690318584442,-0.3269807994365692,1.8636127710342407
206,30206,30204,-0.01393471285700798,-0.020897844806313515,1.029813528060913,0.7776598334312439,-3.88234806060791,3.1423752307891846,1.9791746139526367,3.855841636657715,0.3163849413394928,-0.2579607367515564,-0.2942900061607361,1.886328935623169
207,30216,30214,0.014050007797777653,-0.017397459596395493,0.9789377450942993,0.601589560508728,-2.6426618099212646,3.503016948699951,1.9804154634475708,3.8556361198425293,0.3159845173358917,-0.29043999314308167,-0.26515915989875793,1.923842430114746
208,30226,30224,0.04993857815861702,-0.06987497955560684,0.99394690990448,1.124936580657959,-1.5484832525253296,3.238874673843384,1.981330394744873,3.8571884632110596,0.31608840823173523,-0.27399763464927673,-0.2493051141500473,1.9788389205932617
209,30236,30234,0.02212207205593586,-0.16180337965488434,1.0075023174285889,0.8851675987243652,0.23811845481395721,2.826320171356201,1.981156826019287,3.8572328090667725,0.316246896982193,-0.18612423539161682,-0.21939651668071747,2.004366397857666
210,30246,30244,-0.006006056442856789,-0.15771892666816711,0.9980321526527405,1.575714111328125,1.112290382385254,2.689922571182251,1.9829282760620117,3.85713791847229,0.3163262903690338,-0.2749152183532715,-0.19220034778118134,2.035337448120117
211,30256,30254,-0.005818624049425125,-0.10433162748813629,0.9561015963554382,1.2528973817825317,2.1811676025390625,2.5021753311157227,1.9830923080444336,3.8570539951324463,0.31595826148986816,-0.2251073569059372,-0.15831290185451508,2.058990478515625
212,30266,30264,0.031326789408922195,-0.06270912289619446,0.9738228917121887,0.7038173675537109,3.7159993648529053,2.2014553546905518,1.9843038320541382,3.857661724090576,0.3160141408443451,-0.28715571761131287,-0.20113077759742737,2.086642026901245
213,30276,30274,0.027213793247938156,-0.04566195607185364,0.9751771688461304,1.248129963874817,3.8864223957061768,2.42191481590271,1.9852855205535889,3.8584084510803223,0.31600314378738403,-0.351278692483902,-0.2527332603931427,2.108940601348877
214,30286,30284,0.019146636128425598,-0.09440106898546219,1.0291873216629028,0.6035321950912476,3.426628828048706,2.1132233142852783,1.9871885776519775,3.858811378479004,0.3179839849472046,-0.5683736205101013,-0.21697723865509033,2.147897481918335
215,30296,30294,0.043692685663700104,-0.15043143928050995,0.9383392930030823,1.1925456523895264,1.97382390499115,1.5725520849227905,1.9876127243041992,3.860295534133911,0.3181515634059906,-0.5231160521507263,-0.1782412827014923,2.1908299922943115
216,30306,30304,-0.008706120774149895,-0.005608577746897936,1.0146840810775757,2.178602933883667,-1.3531769514083862,1.248192310333252,1.9883806705474854,3.8602452278137207,0.3182547092437744,-0.5069862604141235,-0.13553643226623535,2.205040454864502
217,30316,30314,0.016263999044895172,0.003067056182771921,0.9929572939872742,2.4993340969085693,-3.7430875301361084,1.449378490447998,1.9886091947555542,3.860030174255371,0.31600886583328247,-0.3655994236469269,-0.08421501517295837,2.2158632278442383
218,30326,30324,0.008953893557190895,0.005558479111641645,0.9987947344779968,3.713484287261963,-6.034696102142334,1.2267038822174072,1.989335298538208,3.8609695434570312,0.31597456336021423,-0.2744317352771759,-0.09511002153158188,2.2270853519439697
219,30336,30334,-0.021109381690621376,0.06976669281721115,0.9836459755897522,2.1195995807647705,-4.596272945404053,1.2214637994766235,1.9910109043121338,3.8618569374084473,0.31581270694732666,-0.3400362730026245,-0.09546956419944763,2.245833158493042
220,30346,30344,-0.017626695334911346,0.002049301750957966,0.9710039496421814,2.0759997367858887,-1.6833219528198242,0.5879271626472473,1.9914395809173584,3.86179780960083,0.315835177898407,-0.2009548395872116,-0.04322759434580803,2.2510621547698975
221,30356,30354,0.01744474284350872,0.04192652180790901,0.9154230952262878,1.4953101873397827,1.2208632230758667,0.13076576590538025,1.993209958076477,3.8626112937927246,0.31508705019950867,-0.32627326250076294,0.011572450399398804,2.2697739601135254
222,30366,30364,-0.001001583063043654,0.0068409931845963,0.9707940816879272,1.8050689697265625,2.859436511993408,0.2443952113389969,1.993542194366455,3.8622000217437744,0.31495219469070435,-0.26286470890045166,0.05614757537841797,2.257524251937866
223,30376,30374,0.005979884881526232,-0.02394959330558777,1.0078433752059937,0.4299136996269226,1.389719009399414,0.07888679206371307,1.9951304197311401,3.862565517425537,0.3146447241306305,-0.38900065422058105,0.012875489890575409,2.251929759979248
224,30386,30384,-0.021876811981201172,-0.13120995461940765,1.1030035018920898,-0.83961421251297,2.7969353199005127,0.09860669076442719,1.9953341484069824,3.862518548965454,0.31396302580833435,-0.32805755734443665,0.03255912661552429,2.252549886703491
225,30396,30394,-0.00892634317278862,-0.04131929576396942,1.0603969097137451,0.33687448501586914,1.4617384672164917,-0.35876259207725525,1.99620521068573,3.864849328994751,0.31368258595466614,-0.361419677734375,-0.03273269534111023,2.27980637550354
226,30406,30404,0.015136301517486572,-0.004545286763459444,0.9785174131393433,0.5820684432983398,0.37252098321914673,-0.9173896908760071,1.9969029426574707,3.8644063472747803,0.31350260972976685,-0.3757571578025818,0.0674956887960434,2.277722120285034
227,30416,30414,0.005755121819674969,-0.01396179012954235,0.992192268371582,2.5362839698791504,1.9055290222167969,-0.8483471870422363,1.9972915649414062,3.865119695663452,0.3145877420902252,-0.2962252199649811,0.007585599087178707,2.2669386863708496
228,30426,30424,0.02839343063533306,0.036894213408231735,0.9736869931221008,1.7318907976150513,-0.5979956984519958,-1.282278299331665,2.000211715698242,3.8653087615966797,0.3143675625324249,-0.5244682431221008,0.052095040678977966,2.2368626594543457
229,30436,30434,0.016709331423044205,-0.018549103289842606,0.9817904233932495,1.564092755317688,-0.41430309414863586,-1.417678713798523,2.000199556350708,3.8643500804901123,0.3143582046031952,-0.4059477150440216,0.10188695788383484,2.223442792892456
230,30446,30444,-0.023287354037165642,-0.014018508605659008,1.0106645822525024,2.1460182666778564,-2.408923387527466,-1.565287470817566,2.0017917156219482,3.865462303161621,0.31410712003707886,-0.4368215799331665,-0.007444454822689295,2.199409246444702
231,30456,30454,0.032534755766391754,-0.11451300233602524,0.9493868947029114,0.800081729888916,-1.463901400566101,-1.343603253364563,2.0025017261505127,3.8655292987823486,0.3139645755290985,-0.3959384262561798,0.035132985562086105,2.1817290782928467
232,30466,30464,-0.016559865325689316,-0.0004041479842271656,1.0290180444717407,1.4193087816238403,-2.2953054904937744,-1.8100758790969849,2.0045077800750732,3.8656222820281982,0.313782662153244,-0.4122230112552643,0.07644675672054291,2.1808273792266846
233,30476,30474,0.01769126020371914,-0.04582101106643677,0.9684550166130066,1.2373182773590088,-1.6897729635238647,-2.3550570011138916,2.0052359104156494,3.866164207458496,0.31364938616752625,-0.34608912467956543,0.11449462920427322,2.1473493576049805
234,30486,30484,0.008281721733510494,-0.025865430012345314,1.0066027641296387,2.651517629623413,1.3648725748062134,-2.307546854019165,2.0055718421936035,3.865922212600708,0.3123492896556854,-0.22973227500915527,0.14833073318004608,2.1621854305267334
235,30496,30494,0.035207170993089676,-0.048411671072244644,1.0604422092437744,3.3953189849853516,-1.6199113130569458,-2.4106955528259277,2.0067315101623535,3.8657419681549072,0.312103807926178,-0.19259066879749298,0.20629259943962097,2.1524548530578613
236,30506,30504,0.033838145434856415,-0.08600861579179764,1.0490975379943848,2.849574565887451,-2.717864990234375,-1.641373872756958,2.008408308029175,3.8663992881774902,0.31183579564094543,-0.23761148750782013,0.2726937532424927,2.1308271884918213
237,30516,30514,-0.04350265488028526,0.06495415419340134,1.0197851657867432,2.1157047748565674,3.622171401977539,-2.936962127685547,2.009005546569824,3.8686752319335938,0.31046921014785767,-0.1976490616798401,0.1775527000427246,2.129957914352417
238,30526,30524,-0.013184317387640476,0.08872924000024796,0.978639543056488,-1.7138464450836182,3.3521955013275146,-2.7688212394714355,2.010613441467285,3.8688066005706787,0.31016796827316284,-0.28927862644195557,0.2195235937833786,2.099132537841797
239,30536,30534,-0.011336762458086014,0.14757807552814484,1.021291732788086,-1.0578137636184692,4.1711626052856445,-3.4692883491516113,2.0113589763641357,3.869818687438965,0.30991131067276,-0.34661784768104553,0.21759989857673645,2.094965934753418
