,timestamp_start,timestamp_end,acc.x,acc.y,acc.z,gyro.x,gyro.y,gyro.z,stateEstimate.x,stateEstimate.y,stateEstimate.z,stabilizer.pitch,stabilizer.roll,stabilizer.yaw
0,51948,51945,-0.12199053913354874,0.06355974823236465,0.7227115631103516,-2.5477492809295654,8.600255966186523,-15.425017356872559,1.621235966682434,4.055972099304199,0.18618308007717133,-5.7640910148620605,2.5221338272094727,5.644345283508301
1,51958,51955,-0.03744448721408844,-0.020318452268838882,0.760481059551239,9.273782730102539,-2.697403907775879,-14.78554916381836,1.6195374727249146,4.0558576583862305,0.1896294504404068,-5.863376617431641,2.553697347640991,5.356639862060547
2,51968,51965,-0.002078454941511154,-0.11696354299783707,0.777308464050293,8.805643081665039,0.7985934019088745,-14.64250659942627,1.6194744110107422,4.057672500610352,0.19283181428909302,-5.995398044586182,2.510164737701416,5.270549774169922
3,51978,51975,-0.06384874880313873,-0.06748469173908234,0.7482114434242249,10.521178245544434,-5.630496025085449,-13.094614028930664,1.6199193000793457,4.056402206420898,0.18763817846775055,-5.924489498138428,2.541562080383301,5.113011837005615
4,51988,51985,-0.032114312052726746,-0.06466984748840332,0.7294870615005493,3.146864414215088,-9.050328254699707,-13.519845962524414,1.6187667846679688,4.05765438079834,0.1898490935564041,-6.131564140319824,2.6179358959198,4.88290548324585
5,51998,51995,-0.021376123651862144,-0.020997757092118263,0.7727969884872437,-3.1167666912078857,-8.576498985290527,-14.237442970275879,1.6160023212432861,4.057107448577881,0.19193688035011292,-5.987043380737305,2.6285629272460938,4.742606163024902
6,52008,52005,0.06174420937895775,-0.012224218808114529,0.819404661655426,-3.7941877841949463,-17.33281898498535,-15.296745300292969,1.615623116493225,4.057203769683838,0.19359594583511353,-6.016427516937256,2.613938093185425,4.541920185089111
7,52018,52015,0.10785819590091705,0.0074754818342626095,0.8606302738189697,-10.959663391113281,-19.2040958404541,-14.502001762390137,1.6151624917984009,4.0591278076171875,0.188316211104393,-5.807933807373047,2.507415771484375,4.366614818572998
8,52028,52025,0.06301715224981308,-0.10749899595975876,0.8363766074180603,-13.590653419494629,-12.083869934082031,-15.345815658569336,1.6148226261138916,4.05949592590332,0.18948765099048615,-5.639463901519775,2.4706873893737793,4.2669830322265625
9,52038,52035,0.1253451555967331,-0.292986124753952,0.7217995524406433,-12.130224227905273,-17.372535705566406,-15.415514945983887,1.6135978698730469,4.059883117675781,0.19040614366531372,-5.474725246429443,2.245774269104004,4.0429911613464355
10,52048,52045,0.07540421932935715,-0.12135221064090729,0.7119045853614807,-16.83854103088379,-9.390893936157227,-14.926474571228027,1.615490198135376,4.059130668640137,0.1830284744501114,-5.14748477935791,2.103926658630371,3.9283249378204346
11,52058,52055,-0.19940055906772614,0.3576822280883789,0.887317955493927,-11.073087692260742,-19.465579986572266,-14.922293663024902,1.6148386001586914,4.05898380279541,0.18294115364551544,-5.082280158996582,1.927564263343811,3.7366678714752197
12,52068,52065,-0.2148149460554123,0.3931959569454193,0.980442225933075,-12.633155822753906,-10.083118438720703,-14.265612602233887,1.6145600080490112,4.058429718017578,0.18264184892177582,-5.0046186447143555,1.7682965993881226,3.554287910461426
13,52078,52075,-0.08977334946393967,0.326945424079895,1.0844405889511108,-11.841073989868164,0.22046802937984467,-14.64991569519043,1.6145031452178955,4.058361053466797,0.17684979736804962,-4.984032154083252,1.7174246311187744,3.4349541664123535
14,52088,52085,-0.022451279684901237,0.20160289108753204,1.0601328611373901,-11.0045804977417,-3.104705572128296,-15.069972038269043,1.616645097732544,4.057361125946045,0.17619852721691132,-4.994624137878418,1.593204379081726,3.2738215923309326
15,52098,52095,-0.039493001997470856,0.06965426355600357,0.9889565706253052,-10.530557632446289,-4.593179702758789,-13.288919448852539,1.6188104152679443,4.057695388793945,0.17558619379997253,-5.053231239318848,1.4677619934082031,3.093123435974121
16,52108,52105,-0.0032489527948200703,0.11308709532022476,1.1324516534805298,-8.724798202514648,-6.37045955657959,-12.411330223083496,1.6196831464767456,4.058239936828613,0.17489123344421387,-5.071028709411621,1.268533706665039,2.869386672973633
17,52118,52115,-0.05940036475658417,0.15723846852779388,1.158111810684204,-7.769877910614014,-17.9202938079834,-10.73741626739502,1.6220273971557617,4.059452533721924,0.1687852293252945,-5.042439937591553,1.0928308963775635,2.6766393184661865
18,52128,52125,-0.05504259094595909,-0.038058821111917496,1.056201696395874,-6.411229610443115,-30.64727020263672,-9.520197868347168,1.6220123767852783,4.0594353675842285,0.16809958219528198,-4.694361209869385,0.9454584121704102,2.553419828414917
19,52138,52135,-0.08843228965997696,-0.008197440765798092,1.0852535963058472,-8.02511978149414,-23.825157165527344,-8.078653335571289,1.6205984354019165,4.059750556945801,0.1679464727640152,-4.350207328796387,0.8216883540153503,2.4303383827209473
20,52148,52145,0.02784113772213459,-0.09011926501989365,1.1289159059524536,-2.434865713119507,-30.782176971435547,-8.176695823669434,1.6244966983795166,4.0595173835754395,0.16362451016902924,-4.80102014541626,0.8806041479110718,2.347360372543335
21,52158,52155,-0.0012209403794258833,-0.054098811000585556,1.129526138305664,0.36789408326148987,-30.45638084411621,-7.238156318664551,1.6240442991256714,4.058384895324707,0.16356557607650757,-4.385514259338379,0.8938090801239014,2.311771869659424
22,52168,52165,-0.05098113417625427,-0.06468570977449417,1.1417593955993652,1.9652990102767944,-33.67531967163086,-6.281526565551758,1.6245445013046265,4.057939529418945,0.16309650242328644,-4.033550262451172,0.8641512393951416,2.2198102474212646
23,52178,52175,-0.019075311720371246,-0.0319068506360054,1.157787799835205,-4.625293254852295,-29.457090377807617,-4.858425617218018,1.6248902082443237,4.058006763458252,0.1584852635860443,-3.8868794441223145,0.9072325229644775,2.151191473007202
24,52188,52185,-0.01750405691564083,-0.17369253933429718,1.2086412906646729,-1.0370092391967773,-36.317840576171875,-4.435677528381348,1.6289942264556885,4.058945655822754,0.1580944061279297,-3.4424242973327637,0.8397729396820068,2.070286512374878
25,52198,52195,-0.06056991219520569,-0.09157886356115341,1.2951604127883911,-6.026628494262695,-34.68315505981445,-1.702618956565857,1.6319836378097534,4.059752941131592,0.15790022909641266,-3.1386265754699707,0.8428118824958801,2.01678204536438
26,52208,52205,0.06268276274204254,0.005561388563364744,1.2715779542922974,-3.555966854095459,-38.474884033203125,-3.1226401329040527,1.633209228515625,4.059468746185303,0.15779531002044678,-2.798001289367676,0.8143320679664612,1.9841787815093994
27,52218,52215,-0.04337185248732567,-0.11860322952270508,1.2156682014465332,-6.261691093444824,-27.015531539916992,-2.1879048347473145,1.6339880228042603,4.059318542480469,0.15531156957149506,-2.551757574081421,0.761725664138794,1.943443775177002
28,52228,52225,0.04002843052148819,-0.0021006143651902676,1.1506155729293823,-6.753299236297607,-31.96488380432129,-0.27851393818855286,1.634718418121338,4.0582380294799805,0.15599121153354645,-2.0315074920654297,0.8565419316291809,1.980082631111145
29,52238,52235,-0.044038936495780945,0.0057917870581150055,1.169127345085144,-4.839900970458984,-32.81781005859375,-2.4195609092712402,1.6347544193267822,4.0586934089660645,0.1565636694431305,-1.8451001644134521,0.6213716864585876,1.896357774734497
30,52248,52245,-0.005495462100952864,0.0005205378402024508,1.1185253858566284,-12.904074668884277,-20.57984161376953,-0.07848593592643738,1.6354867219924927,4.060087203979492,0.1537991464138031,-1.6675387620925903,0.5277100205421448,1.8643791675567627
31,52258,52255,-0.0529886893928051,-0.10112874954938889,1.2793129682540894,-3.2455034255981445,-27.480003356933594,-3.384751319885254,1.6359152793884277,4.0614495277404785,0.15418404340744019,-1.2867361307144165,0.6464501619338989,1.902711272239685
32,52268,52265,0.024765033274888992,0.01539211068302393,1.2010046243667603,-5.8750224113464355,-25.804597854614258,-1.3045554161071777,1.6390239000320435,4.063896656036377,0.1552143394947052,-1.2833619117736816,0.4627609848976135,1.8503589630126953
33,52278,52275,-0.00502739567309618,0.05458742752671242,1.0575931072235107,-9.232169151306152,-24.29405975341797,-0.913993239402771,1.640701413154602,4.0637054443359375,0.1547957807779312,-0.7016870379447937,0.4529319107532501,1.8376853466033936
34,52288,52285,-0.02112858183681965,-0.17230044305324554,1.2288758754730225,0.26744672656059265,-25.10186004638672,-1.2228622436523438,1.641626000404358,4.063357353210449,0.15697231888771057,-0.33286231756210327,0.29914695024490356,1.8227436542510986
35,52298,52295,0.042278729379177094,0.05495314300060272,1.0724387168884277,-8.742801666259766,-31.59249496459961,1.019370675086975,1.6422114372253418,4.063586711883545,0.15851159393787384,-0.32881155610084534,0.46307501196861267,1.8295528888702393
36,52308,52305,-0.04510078206658363,0.03052407316863537,1.2965455055236816,-3.6140599250793457,-26.618379592895508,-0.8692455291748047,1.646770715713501,4.0625901222229,0.15929831564426422,0.2485247105360031,0.356537789106369,1.8191146850585938
37,52318,52315,-0.011080780066549778,-0.03768272325396538,1.0837688446044922,-6.07407808303833,-21.64627456665039,0.31920766830444336,1.6457715034484863,4.064401149749756,0.16153688728809357,0.34626662731170654,0.398573100566864,1.8145960569381714
38,52328,52325,-0.00023884105030447245,-0.06079393997788429,1.0886160135269165,-3.741623878479004,-18.37004852294922,-0.5993731021881104,1.647841215133667,4.063405990600586,0.16329944133758545,0.6963301301002502,0.2846073508262634,1.8151862621307373
39,52338,52335,-0.0031485219951719046,-0.01076501701027155,1.246462345123291,-5.143886566162109,-15.6806640625,1.508590817451477,1.6486501693725586,4.064023494720459,0.16554009914398193,0.9038712382316589,0.11514183133840561,1.8347924947738647
40,52348,52345,0.0027722169179469347,0.06746065616607666,1.1199030876159668,-7.2484002113342285,-18.553504943847656,1.8689850568771362,1.6512036323547363,4.065473556518555,0.1682988405227661,1.1401749849319458,0.24071477353572845,1.7963463068008423
41,52358,52355,-0.029219547286629677,-0.029720406979322433,1.1671843528747559,-5.640566349029541,-9.665824890136719,1.4929020404815674,1.6506496667861938,4.0644707679748535,0.17061758041381836,1.0975805521011353,0.03683454170823097,1.8590471744537354
42,52368,52365,-0.006609567441046238,0.02486596256494522,1.1399067640304565,-6.671359539031982,-6.488983631134033,0.3773733079433441,1.652267575263977,4.065463542938232,0.1733078509569168,1.0892194509506226,0.003849259577691555,1.8718047142028809
43,52378,52375,0.02536778897047043,-0.04252608120441437,1.061052680015564,-4.383218765258789,-6.324443817138672,0.5765820741653442,1.6529709100723267,4.065861225128174,0.17446690797805786,1.4088823795318604,-0.02627692185342312,1.8498340845108032
44,52388,52385,-0.017789360135793686,-0.0880642905831337,1.020449161529541,-1.9816515445709229,-8.237797737121582,0.7382115125656128,1.6530547142028809,4.0655035972595215,0.1775142401456833,1.0303021669387817,-0.039144013077020645,1.8806171417236328
45,52398,52395,0.01876717247068882,0.18846729397773743,1.0933133363723755,-1.6175541877746582,-10.631406784057617,0.8513274788856506,1.6552752256393433,4.063666820526123,0.18006297945976257,1.2633484601974487,-0.02673732303082943,1.8556665182113647
46,52408,52405,-0.006366615183651447,0.4819185733795166,1.0599416494369507,-3.334040403366089,-13.052414894104004,1.2610045671463013,1.6556192636489868,4.062865734100342,0.18282200396060944,1.5062021017074585,-0.15618962049484253,1.8906259536743164
47,52418,52415,0.01948711648583412,0.32316160202026367,1.0940115451812744,-2.502850294113159,-17.79703712463379,1.9565331935882568,1.6539033651351929,4.062976837158203,0.1860470473766327,1.896849513053894,-0.13052845001220703,1.8535699844360352
48,52428,52425,-0.07856681197881699,0.12293139845132828,1.0270460844039917,-4.306115627288818,-19.309825897216797,0.2827714681625366,1.6568686962127686,4.06173849105835,0.18917888402938843,1.9857761859893799,-0.27061471343040466,1.9209963083267212
49,52438,52435,-0.05972239002585411,0.016750406473875046,1.0209598541259766,-5.483269214630127,-14.855698585510254,0.7233429551124573,1.6606022119522095,4.06043004989624,0.19268640875816345,1.9309569597244263,-0.3417942523956299,1.9674930572509766
50,52448,52445,-0.08237433433532715,-0.013473860919475555,1.0204076766967773,-3.128633975982666,-4.412364482879639,0.5656812787055969,1.6610223054885864,4.06003999710083,0.19551599025726318,2.1664535999298096,-0.40830323100090027,1.9630931615829468
51,52458,52455,0.07254170626401901,-0.1287764310836792,0.9586495161056519,-3.3893749713897705,-2.65445876121521,0.7781220078468323,1.6614959239959717,4.059054374694824,0.19887256622314453,2.2770278453826904,-0.44982272386550903,1.9587273597717285
52,52468,52465,-0.17834536731243134,0.24768629670143127,0.9179286360740662,-1.6428030729293823,0.8977181315422058,-0.979516327381134,1.6646429300308228,4.057188987731934,0.20193690061569214,2.1779048442840576,-0.4853532016277313,1.9820375442504883
53,52478,52475,-0.1488473117351532,0.6765682101249695,0.9445342421531677,-4.202305316925049,6.845514297485352,-0.8038684725761414,1.6662236452102661,4.058399677276611,0.20522159337997437,2.1563639640808105,-0.4287661910057068,1.9363534450531006
54,52488,52485,-0.10185205936431885,0.6412757039070129,0.9993818402290344,1.8171719312667847,4.405054092407227,1.1334905624389648,1.6704267263412476,4.059608459472656,0.20804618299007416,1.7785992622375488,-0.4468420445919037,1.9643335342407227
55,52498,52495,-0.12381110340356827,0.1320965439081192,0.9722064137458801,0.6767367720603943,5.600216865539551,0.18041524291038513,1.6720839738845825,4.05969762802124,0.2109459936618805,1.6817796230316162,-0.4879119098186493,1.9984915256500244
56,52508,52505,-0.10330338031053543,0.08459977060556412,0.9764961004257202,-1.8619054555892944,5.755801200866699,-1.140346646308899,1.6739699840545654,4.060295104980469,0.2147628515958786,1.538195013999939,-0.5287448763847351,2.0373198986053467
57,52518,52515,-0.06111003831028938,0.2638130187988281,1.0756884813308716,-2.3354604244232178,-3.8190128803253174,-1.3643158674240112,1.6758537292480469,4.0600504875183105,0.21764801442623138,1.461262822151184,-0.58281409740448,2.0547375679016113
58,52528,52525,-0.05776017904281616,0.2460535168647766,1.010853886604309,-1.1141021251678467,-10.400429725646973,-2.2859036922454834,1.6759332418441772,4.06199836730957,0.22106494009494781,1.7260836362838745,-0.650567352771759,2.030001401901245
59,52538,52535,-0.0019119218923151493,-0.0011708979727700353,0.9499041438102722,-0.5167804956436157,-10.517212867736816,-2.283928871154785,1.676358938217163,4.062415599822998,0.22608816623687744,1.9046090841293335,-0.6865717768669128,2.0093133449554443
60,52548,52545,0.032149460166692734,0.07085652649402618,0.9296945929527283,2.9999020099639893,-8.547426223754883,-1.1054723262786865,1.6756422519683838,4.0616326332092285,0.22930367290973663,2.2277207374572754,-0.5989892482757568,1.9218275547027588
61,52558,52555,0.09607908874750137,-0.007458858657628298,0.9738096594810486,8.486300468444824,-7.386814117431641,0.4620155990123749,1.676139235496521,4.061825275421143,0.23240281641483307,2.333433151245117,-0.6107125282287598,1.9374111890792847
62,52568,52565,0.1844145655632019,0.10263027995824814,0.9142177104949951,12.7334566116333,-7.475938320159912,1.2171070575714111,1.678505539894104,4.061380863189697,0.23561035096645355,2.166963815689087,-0.4804432690143585,1.9592554569244385
63,52578,52575,0.18360137939453125,0.03339776024222374,0.8186166882514954,8.714981079101562,3.283038854598999,-0.5739492177963257,1.6793304681777954,4.060332298278809,0.2379237860441208,2.0915908813476562,-0.26225683093070984,1.9374289512634277
64,52588,52585,-0.004943746607750654,0.3324570059776306,0.8879463076591492,6.3882341384887695,7.168895721435547,-0.1463979184627533,1.679639220237732,4.060035228729248,0.24076852202415466,2.122993230819702,-0.1723645031452179,1.9219050407409668
65,52598,52595,-0.12092596292495728,0.3502041697502136,0.9210442900657654,-0.7647796869277954,15.557324409484863,-0.45395058393478394,1.6801568269729614,4.059936046600342,0.24347034096717834,2.076610565185547,-0.13161589205265045,1.9266421794891357
66,52608,52605,-0.10697214305400848,0.2452497035264969,0.970294177532196,-5.356348514556885,14.453929901123047,0.035452648997306824,1.6806609630584717,4.060083866119385,0.24706408381462097,1.9731574058532715,-0.17530927062034607,1.9431291818618774
67,52618,52615,-0.10433392226696014,0.16617991030216217,0.8963413238525391,-5.920358657836914,5.8309149742126465,-1.478402853012085,1.682166337966919,4.061646461486816,0.24974443018436432,1.965654969215393,-0.2828444838523865,1.954247236251831
68,52628,52625,-0.07439857721328735,0.03246729075908661,0.8872116208076477,-6.4733967781066895,3.345644950866699,-1.3823522329330444,1.682687520980835,4.061572551727295,0.2522549629211426,1.843989610671997,-0.41997846961021423,1.978570580482483
69,52638,52635,0.014931191690266132,0.00048679838073439896,0.8464275598526001,-6.863073348999023,7.649999618530273,-1.687791347503662,1.6821305751800537,4.062086582183838,0.2554026246070862,1.8077528476715088,-0.3969454765319824,1.9207192659378052
70,52648,52645,-0.01541434321552515,0.06703698635101318,0.7455127239227295,-4.821267127990723,3.530719757080078,-1.4438825845718384,1.681106448173523,4.060985565185547,0.25768986344337463,1.856476068496704,-0.35787951946258545,1.85080885887146
71,52658,52655,-0.11690285056829453,0.6256797909736633,0.7898839712142944,-0.5453716516494751,0.11293867230415344,-0.40380021929740906,1.6803157329559326,4.061193466186523,0.2597373425960541,1.9938149452209473,-0.43896573781967163,1.8380584716796875
72,52668,52665,-0.14928239583969116,0.2529272437095642,0.8647640347480774,-1.066306233406067,9.014411926269531,-1.2107101678848267,1.6806737184524536,4.059773921966553,0.2616134285926819,1.9747802019119263,-0.30342718958854675,1.7799853086471558
73,52678,52675,-0.10978753119707108,0.14266923069953918,0.8570993542671204,4.972488880157471,7.264750957489014,0.48565784096717834,1.6792376041412354,4.061100006103516,0.2651953101158142,1.9557390213012695,-0.38752588629722595,1.8003809452056885
74,52688,52685,0.04767358675599098,0.20626983046531677,0.8880833387374878,5.362919330596924,6.89730167388916,0.9837064146995544,1.6816928386688232,4.063081741333008,0.2669772207736969,1.817215919494629,-0.35219112038612366,1.8096439838409424
75,52698,52695,0.09260284155607224,0.3525451719760895,0.9242160320281982,2.544459819793701,13.219477653503418,-0.10443690419197083,1.682425856590271,4.063559532165527,0.2685993015766144,1.644936203956604,-0.39371854066848755,1.859257459640503
76,52708,52705,-0.006802008021622896,0.1626579314470291,0.7909635305404663,0.7944521903991699,12.535086631774902,-0.9244359731674194,1.6839109659194946,4.063176155090332,0.271535724401474,1.40292227268219,-0.6855798363685608,1.980700969696045
77,52718,52715,-0.04430021345615387,-0.0005512130446732044,0.8973817229270935,-2.177455425262451,14.831144332885742,-1.1571635007858276,1.6859641075134277,4.0623321533203125,0.27315574884414673,1.2075350284576416,-0.43927955627441406,1.8958137035369873
78,52728,52725,-0.13198520243167877,0.0870453417301178,0.9185547828674316,3.2233798503875732,14.718036651611328,-0.5904139876365662,1.68634831905365,4.062717914581299,0.2744530439376831,1.0302971601486206,-0.43184971809387207,1.885571837425232
79,52738,52735,0.09697628021240234,0.17848895490169525,0.9029402136802673,3.6385838985443115,9.375185012817383,-0.5940918922424316,1.6870156526565552,4.062561988830566,0.2753957509994507,0.8638843297958374,-0.5360487103462219,1.9221476316452026
80,52748,52745,-0.22238029539585114,0.17052939534187317,0.811322808265686,5.447694778442383,2.325753688812256,-0.3072141110897064,1.6879063844680786,4.063967227935791,0.27643704414367676,0.8892244696617126,-0.36589866876602173,1.869275450706482
81,52758,52755,-0.05061747506260872,0.2257666140794754,0.9037647247314453,8.723468780517578,-5.666321277618408,0.6654745936393738,1.6865171194076538,4.063327312469482,0.2774975895881653,1.1058933734893799,0.025870317593216896,1.7468295097351074
82,52768,52765,0.089933380484581,-0.08113968372344971,0.9028742909431458,6.290920257568359,-3.9027161598205566,0.9346587657928467,1.6844594478607178,4.060850143432617,0.27850577235221863,0.9768719673156738,-0.2753983438014984,1.8692806959152222
83,52778,52775,-0.050918374210596085,-0.0636015459895134,0.8243364095687866,-0.13355539739131927,4.740869998931885,-0.04521114379167557,1.6858787536621094,4.064515590667725,0.27802571654319763,0.9923271536827087,-0.12180813401937485,1.8552528619766235
84,52788,52785,-0.07111457735300064,0.1498277187347412,0.9960181713104248,-5.102171897888184,10.804410934448242,-0.5698109865188599,1.686019778251648,4.063446044921875,0.2786170542240143,1.3144686222076416,0.025575842708349228,1.7911056280136108
85,52798,52795,-0.04571836441755295,0.200527623295784,0.9896849393844604,-1.6813700199127197,7.709328651428223,0.39624959230422974,1.6833884716033936,4.062531471252441,0.2791014015674591,1.1698590517044067,0.1164412871003151,1.7653145790100098
86,52808,52805,-0.007712994702160358,0.23599335551261902,0.9182353019714355,-2.174809455871582,10.167797088623047,0.5909966826438904,1.683716893196106,4.061665058135986,0.27956292033195496,0.7978269457817078,0.048960130661726,1.8026282787322998
87,52818,52815,0.10041496902704239,0.08461770415306091,1.018128514289856,-4.396876811981201,12.891284942626953,-0.25139567255973816,1.687820553779602,4.062996864318848,0.28031736612319946,0.9172894358634949,-0.04424857348203659,1.8041491508483887
88,52828,52825,0.03615478798747063,-0.19598865509033203,0.9328464269638062,-8.10753059387207,13.327632904052734,0.07678728550672531,1.6852036714553833,4.064071178436279,0.2808305323123932,0.7530207633972168,0.21271032094955444,1.7443835735321045
89,52838,52835,0.03074631839990616,-0.06910394877195358,0.8960192203521729,-3.296494960784912,8.208866119384766,0.8732436299324036,1.6855206489562988,4.060535907745361,0.27774888277053833,0.6783912777900696,-0.04072951525449753,1.7760745286941528
90,52848,52845,0.03973114863038063,-0.19090908765792847,0.8834762573242188,-6.26793098449707,9.206014633178711,1.3564428091049194,1.685071587562561,4.062834739685059,0.27801409363746643,0.6157048344612122,-0.10757540166378021,1.7827091217041016
91,52858,52855,0.031602710485458374,-0.1695978343486786,0.873489499092102,-8.075301170349121,8.555987358093262,0.41073402762413025,1.684322476387024,4.06264066696167,0.27799177169799805,0.5656144022941589,-0.2772783041000366,1.8059964179992676
92,52868,52865,0.06289638578891754,-0.09914530813694,0.9462071657180786,-5.578744411468506,4.202817916870117,1.641913890838623,1.684673547744751,4.0631327629089355,0.2779088616371155,0.3669080138206482,-0.43872448801994324,1.8284698724746704
93,52878,52875,0.019137268885970116,0.12067976593971252,0.9994148015975952,-4.87083101272583,3.2461962699890137,1.2078555822372437,1.6865777969360352,4.065397262573242,0.27851182222366333,0.5347458124160767,-0.5586634874343872,1.838555932044983
94,52888,52885,-0.07773096114397049,0.09150036424398422,1.0101262331008911,-0.31605520844459534,0.16495326161384583,1.3787486553192139,1.6850141286849976,4.065010070800781,0.27829936146736145,0.39637112617492676,-0.5415463447570801,1.8472729921340942
95,52898,52895,0.05024788901209831,-0.11247411370277405,0.9536751508712769,5.154240608215332,4.052687644958496,2.6055891513824463,1.6868036985397339,4.063291549682617,0.27820923924446106,0.27977800369262695,-0.5243317484855652,1.8688395023345947
96,52908,52905,-0.009268793277442455,-0.09103516489267349,0.9192788004875183,6.026743412017822,3.741539239883423,3.5418148040771484,1.6872775554656982,4.063213348388672,0.27936407923698425,0.5217249393463135,-0.5192903280258179,1.8764355182647705
97,52918,52915,0.014203415252268314,-0.12046880275011063,0.9329361915588379,7.511666297912598,8.985169410705566,2.9299991130828857,1.6834648847579956,4.063429832458496,0.2790569067001343,0.3371637165546417,-0.489619642496109,1.9197099208831787
98,52928,52925,-0.005064509809017181,-0.03135944530367851,0.9978966116905212,6.971019268035889,8.970318794250488,3.1809844970703125,1.684155821800232,4.063773155212402,0.2789074778556824,0.4260285496711731,-0.5180038213729858,1.9470665454864502
99,52938,52935,0.02313896082341671,-0.21523943543434143,0.9943841695785522,5.8297576904296875,9.033047676086426,3.918424367904663,1.6818946599960327,4.064651012420654,0.27713778614997864,0.33205246925354004,-0.4824461042881012,1.9810622930526733
100,52948,52945,-0.016459450125694275,-0.20229847729206085,0.9262467622756958,5.231953144073486,11.198519706726074,4.276022434234619,1.680846929550171,4.064967632293701,0.2767416834831238,0.23119887709617615,-0.45352688431739807,2.0234901905059814
101,52958,52955,0.06618043035268784,-0.16931366920471191,0.9441255927085876,5.381180286407471,11.773974418640137,4.91187047958374,1.6792247295379639,4.0661540031433105,0.27627643942832947,0.015246601775288582,-0.34713834524154663,2.0728654861450195
102,52968,52965,0.022273821756243706,-0.13748286664485931,0.9409803152084351,5.967264652252197,14.641942977905273,4.418313980102539,1.6793802976608276,4.065772533416748,0.2787352502346039,-0.2029971033334732,-0.23173528909683228,2.123438835144043
103,52978,52975,0.11801185458898544,-0.13031792640686035,1.098137617111206,5.763331890106201,11.802425384521484,5.271301746368408,1.678472638130188,4.066973686218262,0.27838990092277527,-0.18225465714931488,-0.5040374994277954,2.166466236114502
104,52988,52985,0.11773091554641724,-0.1681697517633438,0.9976147413253784,6.7990217208862305,10.052178382873535,4.3199543952941895,1.6762475967407227,4.0714921951293945,0.2780720591545105,-0.28054678440093994,-0.3535180687904358,2.215074300765991
105,52998,52995,0.019544312730431557,-0.02714216150343418,1.0523686408996582,8.516295433044434,4.784702301025391,5.146410942077637,1.6755796670913696,4.071871757507324,0.2778950035572052,-0.3446064889431,-0.336480051279068,2.2545087337493896
106,53008,53005,-0.0011373107554391026,0.03643940016627312,1.1009474992752075,10.757951736450195,3.929661512374878,5.317042827606201,1.6744670867919922,4.072789192199707,0.2783619165420532,-0.4318225681781769,-0.1274540275335312,2.3130197525024414
107,53018,53015,-0.0357651561498642,-0.07317271828651428,1.028600811958313,11.980101585388184,3.5030925273895264,5.923279285430908,1.6741541624069214,4.071927070617676,0.27831360697746277,-0.5071757435798645,0.016554029658436775,2.3694748878479004
108,53028,53025,0.04056777432560921,0.008695732802152634,1.0832853317260742,12.255724906921387,5.359189510345459,5.03191614151001,1.6737987995147705,4.071830749511719,0.27824458479881287,-0.6702499985694885,0.0946965143084526,2.43113374710083
109,53038,53035,-0.06709174811840057,0.13608840107917786,1.1553481817245483,10.033072471618652,4.303683280944824,5.452171325683594,1.6743673086166382,4.072264671325684,0.2809598743915558,-0.8345141410827637,0.24580790102481842,2.4865481853485107
110,53048,53045,-0.09278921037912369,0.10292397439479828,1.144215703010559,6.7238030433654785,5.462289333343506,5.069053649902344,1.6738313436508179,4.072423934936523,0.2812771797180176,-0.7333471179008484,0.3391602039337158,2.535735845565796
111,53058,53055,0.03833271563053131,0.012661735527217388,1.0734708309173584,3.2247910499572754,3.677373170852661,5.451643943786621,1.6733019351959229,4.074168682098389,0.28178077936172485,-0.8787122964859009,0.22017334401607513,2.572204113006592
112,53068,53065,-0.11935222148895264,0.09231244027614594,1.0149937868118286,1.467422366142273,2.3522074222564697,4.536588668823242,1.6724241971969604,4.074552536010742,0.28272300958633423,-0.7493425607681274,0.30110934376716614,2.63004207611084
113,53078,53075,-0.14819245040416718,0.19894865155220032,1.0926045179367065,2.49704909324646,2.5422279834747314,4.7926106452941895,1.6728451251983643,4.076045036315918,0.28343549370765686,-0.9263225793838501,0.22630104422569275,2.6685588359832764
114,53088,53085,-0.034188997000455856,-0.07113085687160492,1.0184946060180664,3.7480363845825195,1.7968764305114746,4.539068222045898,1.6728615760803223,4.076532363891602,0.28413552045822144,-1.0107309818267822,0.2474680095911026,2.7164242267608643
115,53098,53095,0.05852707102894783,-0.13671648502349854,0.964436411857605,6.603733062744141,2.451230049133301,4.2542405128479,1.6730217933654785,4.078689098358154,0.28481435775756836,-0.9906517863273621,0.22943681478500366,2.7555530071258545
116,53108,53105,-0.047746170312166214,-0.07985571771860123,1.0025532245635986,7.031838417053223,1.0074464082717896,4.454120635986328,1.673154592514038,4.079008102416992,0.2877764403820038,-1.069521427154541,0.3185420632362366,2.8022124767303467
117,53118,53115,-0.07465929538011551,0.06640022248029709,1.0091450214385986,10.733016967773438,-0.5604346990585327,4.749532222747803,1.6717721223831177,4.0788350105285645,0.28865745663642883,-0.9438765048980713,0.4496326744556427,2.855480194091797
118,53128,53125,-0.06196150556206703,0.02377087064087391,1.023011326789856,11.924025535583496,-3.2137112617492676,4.184128284454346,1.672419548034668,4.078779697418213,0.2895273268222809,-1.0369304418563843,0.6104779243469238,2.9089460372924805
119,53138,53135,-0.1545129120349884,-0.006597478408366442,1.0278571844100952,11.084959030151367,-2.5446040630340576,3.2748219966888428,1.6712521314620972,4.0800604820251465,0.2899424731731415,-1.004481315612793,0.8441744446754456,2.9680676460266113
120,53148,53145,-0.02721499837934971,-0.05494890362024307,0.977613627910614,6.893925189971924,-2.1493260860443115,4.013528823852539,1.6705071926116943,4.082058429718018,0.29084545373916626,-0.9782770276069641,0.9415839910507202,3.002648115158081
121,53158,53155,-0.052535634487867355,0.17411267757415771,1.1213287115097046,1.6481239795684814,-1.7709522247314453,2.70143985748291,1.671981692314148,4.08043098449707,0.29176926612854004,-0.9380836486816406,1.0535377264022827,3.0492892265319824
122,53168,53165,-0.028030354529619217,0.4450393319129944,1.153907299041748,-0.2991459369659424,-6.440052032470703,2.7940690517425537,1.6717649698257446,4.081312656402588,0.29564744234085083,-0.888965904712677,0.9305278658866882,3.052781105041504
123,53178,53175,-0.03658808767795563,0.10974026471376419,0.9871993660926819,-4.164170265197754,-3.7011563777923584,1.9765719175338745,1.6712853908538818,4.081711292266846,0.29691973328590393,-0.8066806793212891,0.9234606027603149,3.080202341079712
124,53188,53185,0.02990087680518627,-0.0602208711206913,1.0548973083496094,-3.337758779525757,-4.8284502029418945,2.906769037246704,1.6721889972686768,4.081037521362305,0.29822444915771484,-0.8582667708396912,0.936726987361908,3.1081128120422363
125,53198,53195,0.16358324885368347,-0.07928236573934555,0.9823898673057556,-3.5994060039520264,-1.6194194555282593,2.35117244720459,1.6751289367675781,4.081719398498535,0.2995440363883972,-1.0423977375030518,0.9674379825592041,3.128687620162964
126,53208,53205,-0.005503440275788307,0.08942577242851257,0.9526411890983582,-1.3265563249588013,-4.680490016937256,2.1885604858398438,1.6731719970703125,4.081820011138916,0.3014662265777588,-0.8444513082504272,0.9219018220901489,3.165303945541382
127,53218,53215,0.05102534219622612,0.17818939685821533,0.9616065621376038,-3.5047593116760254,-1.7941806316375732,1.2809101343154907,1.67379629611969,4.081750869750977,0.302755206823349,-0.8711583614349365,0.8941659331321716,3.1769862174987793
128,53228,53225,0.05978325009346008,0.17758212983608246,0.8351194858551025,-5.45419454574585,-0.6888443827629089,1.4752190113067627,1.6743663549423218,4.081943988800049,0.3039945662021637,-0.8499983549118042,0.8394986391067505,3.1908881664276123
129,53238,53235,0.015513398684561253,0.2193230390548706,0.9057037234306335,-4.774699687957764,-1.4882327318191528,1.3525110483169556,1.6739357709884644,4.082087516784668,0.3044320046901703,-0.7751173377037048,0.7792192101478577,3.2099039554595947
130,53248,53245,-0.08903784304857254,0.36645635962486267,0.967374324798584,-6.331441402435303,0.08168385922908783,0.8497422337532043,1.6738219261169434,4.081662654876709,0.3054502010345459,-0.7491745352745056,0.7770069241523743,3.2321231365203857
131,53258,53255,-0.06483971327543259,0.09975319355726242,0.9541164040565491,-4.275229454040527,-1.8107819557189941,0.6216843724250793,1.675553798675537,4.082962512969971,0.30644404888153076,-0.7852522730827332,0.6973848938941956,3.2276082038879395
132,53268,53265,-0.045541878789663315,0.03437812626361847,0.9019228219985962,-3.635242462158203,-3.2321927547454834,0.9386356472969055,1.6756724119186401,4.083108901977539,0.30717867612838745,-0.7442616820335388,0.6238204836845398,3.2304444313049316
133,53278,53275,-0.07968398183584213,0.03527242690324783,0.9608561992645264,-2.170850992202759,-4.824403762817383,0.45622414350509644,1.6767866611480713,4.083131313323975,0.3080499470233917,-0.7198415398597717,0.6514029502868652,3.2451837062835693
134,53288,53285,-0.17063704133033752,0.11254530400037766,0.9577479362487793,-2.3945183753967285,-3.1102144718170166,0.01383574865758419,1.6766246557235718,4.082752704620361,0.30898845195770264,-0.6226451992988586,0.632210373878479,3.2520368099212646
135,53298,53295,-0.05864330753684044,-0.018564658239483833,0.8951034545898438,-3.31264591217041,-1.141066074371338,-0.07066474109888077,1.6773158311843872,4.082916736602783,0.310454398393631,-0.6230899691581726,0.5919069051742554,3.244274377822876
136,53308,53305,-0.01113761868327856,0.0590379424393177,0.9837152361869812,-3.125126600265503,2.65625262260437,-0.09753292053937912,1.6783968210220337,4.084100723266602,0.31047895550727844,-0.6016417741775513,0.6896255016326904,3.2604589462280273
137,53318,53315,-0.04507168382406235,0.19494985044002533,0.9481603503227234,-0.7263157367706299,4.591866970062256,0.49270328879356384,1.6783181428909302,4.084151744842529,0.3112718164920807,-0.7301883697509766,0.5684422850608826,3.241520404815674
138,53328,53325,0.03878103941679001,0.27547794580459595,0.9682023525238037,-5.866203308105469,11.700593948364258,-0.3004971146583557,1.679611086845398,4.087337493896484,0.3120499849319458,-0.8494762778282166,0.38032597303390503,3.2177958488464355
139,53338,53335,-0.1750204712152481,0.49949920177459717,0.9749771952629089,-6.3871235847473145,16.705053329467773,-0.8738956451416016,1.6799492835998535,4.086273670196533,0.31416216492652893,-1.0229192972183228,0.31054946780204773,3.2082550525665283
140,53348,53345,-0.08997924625873566,0.30014121532440186,0.9417701363563538,-7.235100269317627,15.912797927856445,-1.0018279552459717,1.6808618307113647,4.087071418762207,0.31483060121536255,-1.2412101030349731,0.22170794010162354,3.1903679370880127
141,53358,53355,0.0533292293548584,0.10281387716531754,0.9296417236328125,-4.872397422790527,12.64025592803955,-0.40948617458343506,1.6820908784866333,4.087386131286621,0.31543296575546265,-1.4288570880889893,0.2890477478504181,3.1989355087280273
142,53368,53365,0.10664843767881393,0.030278855934739113,0.8700355887413025,-1.5989582538604736,8.122163772583008,0.2586376965045929,1.683272361755371,4.085606098175049,0.3136715590953827,-1.546852946281433,0.3134113550186157,3.2099852561950684
143,53378,53375,0.02974291890859604,-0.003476819023489952,0.8941032886505127,0.6278253793716431,1.1669578552246094,-0.640011191368103,1.684027910232544,4.085047721862793,0.31406840682029724,-1.5405408143997192,0.6720433831214905,3.2729203701019287
144,53388,53385,-0.07594766467809677,0.4563067555427551,0.9325466752052307,-0.2405797243118286,-1.1026333570480347,-1.2420459985733032,1.684586763381958,4.081261157989502,0.3144027590751648,-1.474180817604065,0.05736245959997177,3.1617422103881836
145,53398,53395,-0.12265300750732422,0.5341147780418396,0.9981867074966431,-1.207270622253418,-8.41386890411377,-1.107489824295044,1.6829612255096436,4.08806037902832,0.3164516091346741,-1.2952682971954346,0.28626883029937744,3.19853138923645
146,53408,53405,-0.007908309809863567,0.22936062514781952,0.9494863748550415,-1.8539503812789917,-11.26222038269043,-1.110162377357483,1.6824814081192017,4.0857367515563965,0.31694814562797546,-1.0689868927001953,0.2552347183227539,3.193183422088623
147,53418,53415,0.10461235046386719,0.3124125301837921,0.9361020922660828,-2.35250186920166,-8.594613075256348,-1.2456010580062866,1.681300401687622,4.0866312980651855,0.3172946870326996,-0.908114492893219,0.20403075218200684,3.1836299896240234
148,53428,53425,-0.03556966781616211,0.42299893498420715,0.9764502644538879,-0.8841347098350525,-4.993203163146973,-0.9711526036262512,1.6807034015655518,4.086699962615967,0.31757381558418274,-0.7882944345474243,0.6903204321861267,3.2613532543182373
149,53438,53435,-0.12937074899673462,0.1779964119195938,0.9384002089500427,-0.40160900354385376,-0.6102024912834167,-0.8736806511878967,1.6817479133605957,4.081136703491211,0.31471720337867737,-0.7056999206542969,0.6425995230674744,3.2469942569732666
150,53448,53445,-0.360702782869339,0.13067390024662018,1.0078039169311523,-3.9907193183898926,7.987674236297607,-0.6447712779045105,1.6830267906188965,4.082513809204102,0.31474077701568604,-0.811711847782135,0.559351921081543,3.223499298095703
151,53458,53455,-0.1678621619939804,0.2674560546875,1.032135248184204,-9.465033531188965,14.287878036499023,-0.4981532394886017,1.6845942735671997,4.085334777832031,0.3149418830871582,-0.9103518128395081,0.2223360240459442,3.1724486351013184
152,53468,53465,0.015922309830784798,0.030519086867570877,1.0597525835037231,-15.628101348876953,17.904190063476562,-0.4828590154647827,1.6849639415740967,4.085146903991699,0.31690287590026855,-1.209401249885559,0.17956934869289398,3.1775686740875244
153,53478,53475,0.019277377054095268,0.21236905455589294,0.9872846603393555,-15.455989837646484,15.385181427001953,-0.7166775465011597,1.6864744424819946,4.083520412445068,0.31694677472114563,-1.4584338665008545,0.03230683133006096,3.1702725887298584
154,53488,53485,-0.011142667382955551,0.10662375390529633,0.9635894298553467,-15.868353843688965,11.54633903503418,-1.2098444700241089,1.68776273727417,4.08398962020874,0.3169918954372406,-1.6513961553573608,-0.2828669846057892,3.1354753971099854
155,53498,53495,0.07306158542633057,0.27636027336120605,1.054824948310852,-13.661425590515137,6.377735137939453,-0.9403169751167297,1.688146948814392,4.085529327392578,0.3176359534263611,-1.6319905519485474,-0.46634528040885925,3.1058976650238037
156,53508,53505,-0.08649004995822906,0.3220501244068146,0.9623998403549194,-8.156377792358398,-0.2644979953765869,-0.4700012505054474,1.6881184577941895,4.0860595703125,0.3177710175514221,-1.632533311843872,-0.6709036231040955,3.090604066848755
157,53518,53515,-0.1567065566778183,0.007039815187454224,0.9900796413421631,1.647831678390503,-6.949582099914551,-0.12042306363582611,1.6885734796524048,4.086504936218262,0.317923903465271,-1.6132415533065796,-0.7456991076469421,3.091355562210083
158,53528,53525,-0.02871519699692726,-0.03906814754009247,0.9823338985443115,8.592781066894531,-10.739033699035645,0.49830979108810425,1.6870659589767456,4.083366394042969,0.3184887766838074,-1.3695417642593384,-0.47397640347480774,3.1376490592956543
159,53538,53535,-0.08348120748996735,0.13070237636566162,1.089110016822815,14.21887493133545,-12.949911117553711,0.6572521924972534,1.6895477771759033,4.085075855255127,0.3162631690502167,-1.5383778810501099,-0.5726150870323181,3.1163980960845947
160,53548,53545,-0.07432860136032104,0.06353210657835007,1.0184071063995361,15.460400581359863,-13.199258804321289,1.8012468814849854,1.6888813972473145,4.084799289703369,0.3164594769477844,-1.2664670944213867,-0.34450486302375793,3.133329391479492
161,53558,53555,0.06817247718572617,0.1621018946170807,0.8975303173065186,12.423609733581543,-9.715927124023438,1.484923243522644,1.6894203424453735,4.084707260131836,0.3165309429168701,-1.2246901988983154,0.009407238103449345,3.1901347637176514
162,53568,53565,-0.06542826443910599,0.7040854692459106,1.1111671924591064,6.769535541534424,-9.27314567565918,1.5391310453414917,1.691413402557373,4.083645343780518,0.3159531354904175,-1.170473575592041,0.03410743549466133,3.192025661468506
163,53578,53575,-0.05198628455400467,0.09881418198347092,0.9051333665847778,1.170204520225525,-5.204499244689941,2.1578519344329834,1.6919653415679932,4.0834641456604,0.31597697734832764,-1.044254183769226,0.10599919408559799,3.2016217708587646
164,53588,53585,0.01819709874689579,-0.0010149140143767,0.9819105267524719,-8.77633285522461,-0.2030494511127472,1.3727344274520874,1.6932151317596436,4.0838704109191895,0.3159622848033905,-1.0153915882110596,0.09417827427387238,3.218417167663574
165,53598,53595,-0.16998694837093353,0.11256519705057144,1.01923406124115,-13.294711112976074,2.0359764099121094,1.4833788871765137,1.6950011253356934,4.085174083709717,0.3133103549480438,-0.9629300236701965,-0.04050637036561966,3.2200686931610107
166,53608,53605,-0.08001022040843964,0.2506721615791321,1.10145902633667,-15.14956283569336,2.178588390350342,1.1627814769744873,1.6975858211517334,4.086113929748535,0.3130514621734619,-1.0470221042633057,-0.19221894443035126,3.2301442623138428
167,53618,53615,-0.081635020673275,0.13217809796333313,1.0043249130249023,-12.812521934509277,2.0172677040100098,0.9578272104263306,1.699350118637085,4.0872063636779785,0.312759667634964,-1.1796773672103882,-0.4468097984790802,3.2280325889587402
168,53628,53625,0.1682692915201187,0.09216929227113724,0.944839596748352,-7.353115081787109,-2.6690239906311035,0.7276335954666138,1.699488639831543,4.087559223175049,0.31160247325897217,-1.0584672689437866,-0.5827152729034424,3.232119560241699
169,53638,53635,0.2737502157688141,0.07361145317554474,1.137467861175537,-0.8314809799194336,-8.394133567810059,1.2918102741241455,1.7008028030395508,4.086315155029297,0.3114506006240845,-1.1177093982696533,-0.5421415567398071,3.2618913650512695
170,53648,53645,0.2692986726760864,-0.04161253944039345,0.943147599697113,8.537839889526367,-12.723666191101074,1.450402855873108,1.7022356986999512,4.087558269500732,0.31120747327804565,-1.153924822807312,-0.6872209906578064,3.263610363006592
171,53658,53655,0.03857206553220749,-0.27898895740509033,0.9114478826522827,9.848057746887207,-11.885587692260742,1.477030873298645,1.7053600549697876,4.086310386657715,0.31087541580200195,-1.2330957651138306,-0.45611807703971863,3.3205549716949463
172,53668,53665,0.00042852701153606176,-0.07778184860944748,0.8956157565116882,10.853008270263672,-10.962088584899902,2.0070197582244873,1.7075690031051636,4.085317134857178,0.3100890517234802,-1.0458351373672485,-0.2750273048877716,3.345181941986084
173,53678,53675,0.00976748950779438,0.08955828100442886,0.9659885764122009,8.849869728088379,-9.624724388122559,1.6712877750396729,1.7089201211929321,4.0875091552734375,0.3097953200340271,-0.9463742971420288,-0.3258568346500397,3.348491668701172
174,53688,53685,-0.22166992723941803,0.26471999287605286,0.9822141528129578,5.6953887939453125,-13.060153007507324,2.2525339126586914,1.7086403369903564,4.0876336097717285,0.3097239136695862,-0.6104406118392944,-0.2517431676387787,3.347280740737915
175,53698,53695,0.0172678604722023,0.17602717876434326,0.982564389705658,0.9494790434837341,-12.031375885009766,1.7281279563903809,1.7110810279846191,4.087946891784668,0.30644121766090393,-0.5082269906997681,-0.16521525382995605,3.376038074493408
176,53708,53705,-0.05580921098589897,0.27737927436828613,1.0525569915771484,-1.8649985790252686,-12.727227210998535,1.3600090742111206,1.714604139328003,4.08908224105835,0.3057319223880768,-0.5875285863876343,-0.1731947362422943,3.405383825302124
177,53718,53715,0.16518591344356537,-0.0032643061131238937,1.097097396850586,-3.1567163467407227,-11.864322662353516,1.7272582054138184,1.713502287864685,4.089829444885254,0.30531400442123413,-0.29115840792655945,-0.22434267401695251,3.404869556427002
178,53728,53725,0.2586928904056549,-0.1986052393913269,1.0504193305969238,-4.791501998901367,-9.491996765136719,1.2923411130905151,1.7164386510849,4.091366767883301,0.30477288365364075,-0.49419376254081726,-0.2849859595298767,3.4408442974090576
179,53738,53735,0.06486564874649048,0.02349603921175003,1.038084626197815,-4.254125595092773,-7.396861553192139,0.820814311504364,1.7145568132400513,4.0922136306762695,0.30461663007736206,-0.22825773060321808,-0.28449302911758423,3.445369005203247
180,53748,53745,0.02743823267519474,-0.05500703677535057,0.9983975291252136,-0.219769686460495,-6.488966464996338,1.3196358680725098,1.715558648109436,4.09431266784668,0.30426448583602905,-0.12602700293064117,-0.39212536811828613,3.451991558074951
181,53758,53755,-0.0750049501657486,0.24558024108409882,1.0411778688430786,1.8561842441558838,-4.787931442260742,1.4589751958847046,1.7164524793624878,4.094034671783447,0.30394306778907776,-0.020077237859368324,-0.3550895154476166,3.4670517444610596
182,53768,53765,-0.17115849256515503,0.138693705201149,0.9317495226860046,4.646908760070801,-5.52101993560791,0.3224000930786133,1.7175345420837402,4.093626022338867,0.30184683203697205,0.00344314007088542,-0.27916955947875977,3.4868083000183105
183,53778,53775,-0.1322619915008545,0.051452767103910446,1.0310027599334717,6.738837718963623,-2.397768020629883,0.48028895258903503,1.7201600074768066,4.094679355621338,0.30125707387924194,-0.06540975719690323,-0.3229227662086487,3.504469871520996
184,53788,53785,-0.002755869412794709,0.22850580513477325,1.043258547782898,7.7380475997924805,-5.060519218444824,1.4979230165481567,1.7219091653823853,4.095553398132324,0.30081066489219666,-0.009285255335271358,-0.1944076418876648,3.5079967975616455
185,53798,53795,0.009813452139496803,0.18392743170261383,1.2438278198242188,7.440998077392578,-6.955757141113281,1.036421537399292,1.7230275869369507,4.094657897949219,0.29808446764945984,0.05366895720362663,-0.14416442811489105,3.5200295448303223
186,53808,53805,-0.012299302965402603,0.12524473667144775,1.042792558670044,6.036088943481445,-9.732989311218262,0.8096184730529785,1.7240573167800903,4.095022678375244,0.2976824939250946,0.14014719426631927,-0.1129462718963623,3.527865171432495
187,53818,53815,-0.05284898355603218,0.03891156241297722,1.0220504999160767,3.629366159439087,-12.444866180419922,1.029236078262329,1.725697636604309,4.096989154815674,0.2973799407482147,0.18021005392074585,-0.174201101064682,3.541409730911255
188,53828,53825,-0.013099700212478638,0.004237587098032236,1.0797901153564453,2.7669169902801514,-12.09140396118164,1.0078544616699219,1.7277569770812988,4.098006248474121,0.29638659954071045,0.2581453025341034,-0.10146365314722061,3.549056053161621
189,53838,53835,0.05265651270747185,0.06004318594932556,1.0414336919784546,2.817610502243042,-10.701345443725586,0.9837589859962463,1.7292381525039673,4.097751617431641,0.29609695076942444,0.4185294210910797,-0.0389910526573658,3.554927349090576
190,53848,53845,0.05494936928153038,-0.14089335501194,0.9662143588066101,2.126278877258301,-8.57816219329834,0.08182007074356079,1.7307114601135254,4.097294330596924,0.2959514260292053,0.6947143077850342,0.03296726942062378,3.5575215816497803
191,53858,53855,0.1067122295498848,-0.29068657755851746,0.8377902507781982,2.431187391281128,-6.013473033905029,1.3779016733169556,1.729925513267517,4.098021507263184,0.29588860273361206,0.6278085708618164,-0.04023909568786621,3.5766701698303223
192,53868,53865,-0.018551161512732506,-0.020561927929520607,1.015878677368164,0.42990928888320923,-0.09431475400924683,0.5203012228012085,1.7314151525497437,4.099929332733154,0.2962668240070343,0.6886083483695984,0.031051622703671455,3.5889384746551514
193,53878,53875,-0.0527883917093277,0.2269519865512848,1.0009806156158447,1.44367253780365,2.597644090652466,-0.5614152550697327,1.7336056232452393,4.100908279418945,0.2959751784801483,0.6868780851364136,0.09233545511960983,3.5940358638763428
194,53888,53885,-0.25049152970314026,0.14338091015815735,1.140472650527954,2.1566362380981445,3.854205846786499,0.7063137292861938,1.7341606616973877,4.101555824279785,0.2956303358078003,0.8154296278953552,0.07879388332366943,3.599491596221924
195,53898,53895,-0.025027716532349586,-0.08302108198404312,1.033729910850525,3.2010343074798584,4.374631404876709,0.20951874554157257,1.7350150346755981,4.101883411407471,0.29557526111602783,0.7396312952041626,0.1482311338186264,3.6070151329040527
196,53908,53905,0.02597039006650448,-0.00419724453240633,1.0433058738708496,3.640441656112671,3.901963233947754,0.7946515679359436,1.7367137670516968,4.103211402893066,0.2953677773475647,0.7171604037284851,0.0754651427268982,3.630293607711792
197,53918,53915,-0.020452238619327545,0.22853592038154602,1.141228199005127,3.1873373985290527,2.936821222305298,-0.38702133297920227,1.7392936944961548,4.102575302124023,0.29526451230049133,0.6723476648330688,0.15780839323997498,3.6265997886657715
198,53928,53925,-0.05414539575576782,0.5766960978507996,1.0993293523788452,4.087066173553467,-1.8411287069320679,-0.4495215117931366,1.7414205074310303,4.103384494781494,0.29685449600219727,0.589637041091919,0.2243109792470932,3.6177406311035156
199,53938,53935,-0.09730321168899536,0.2295534461736679,1.134848713874817,4.733282566070557,-2.582108497619629,0.786897599697113,1.7435986995697021,4.1038289070129395,0.29693785309791565,0.553009569644928,0.28940102458000183,3.612973928451538
200,53948,53945,0.1302202194929123,-0.10108325630426407,1.0299242734909058,3.893852949142456,-3.7723684310913086,0.2549196183681488,1.7470664978027344,4.104847431182861,0.2970948815345764,0.4527875781059265,0.29219818115234375,3.61704421043396
201,53958,53955,0.14868003129959106,-0.25016090273857117,1.1376442909240723,3.401357412338257,-5.927579402923584,-0.05191834270954132,1.7469984292984009,4.105336666107178,0.2984105050563812,0.6127263903617859,0.2962747812271118,3.625189781188965
202,53968,53965,0.20695455372333527,-0.09974922239780426,0.9508659839630127,2.4428791999816895,-5.476259708404541,-0.9313172698020935,1.7487369775772095,4.10616397857666,0.2988876402378082,0.7056898474693298,0.37493711709976196,3.6177375316619873
203,53978,53975,0.06959955394268036,-0.1779187172651291,0.9026035666465759,0.8235220313072205,-3.6216793060302734,-1.1184375286102295,1.7493045330047607,4.105696678161621,0.2994229197502136,0.7415329217910767,0.4416476786136627,3.597597360610962
204,53988,53985,0.022990785539150238,-0.12192834913730621,0.9284859895706177,1.194606065750122,-0.05674124136567116,-0.7055200338363647,1.7509081363677979,4.1048150062561035,0.2999127209186554,0.8454775810241699,0.49218249320983887,3.5850205421447754
205,53998,53995,-0.024750355631113052,0.047055844217538834,1.0274872779846191,-1.1032254695892334,3.139920949935913,-0.9816233515739441,1.7529258728027344,4.104720592498779,0.2999339699745178,0.8040568232536316,0.5165038108825684,3.578312397003174
206,54008,54005,-0.18160153925418854,0.02637542597949505,0.99051433801651,-0.3061474859714508,2.4457435607910156,-0.6349160075187683,1.7538962364196777,4.103923797607422,0.30020734667778015,0.7193774580955505,0.4386691153049469,3.5710670948028564
207,54018,54015,-0.07679712772369385,0.09490913897752762,1.060331106185913,-1.3409786224365234,6.513091087341309,-1.2063277959823608,1.7547247409820557,4.105124473571777,0.3006258010864258,0.8158302903175354,0.43353471159935,3.565556764602661
208,54028,54025,-0.0545339360833168,-0.02268896996974945,0.9818272590637207,-1.2280871868133545,7.185786247253418,-1.0780216455459595,1.7574318647384644,4.105401515960693,0.29893550276756287,0.5303956270217896,0.4170115888118744,3.547123670578003
209,54038,54035,0.1802794337272644,0.3005211055278778,1.0347141027450562,-2.2338411808013916,6.73354959487915,-1.3627063035964966,1.75800359249115,4.106720924377441,0.2992590367794037,0.47840654850006104,0.3905406892299652,3.5496082305908203
210,54048,54045,0.21015681326389313,-0.013863476924598217,0.9698094129562378,-2.5192344188690186,5.890661239624023,-2.4479129314422607,1.759661316871643,4.10702657699585,0.299515038728714,0.38347455859184265,0.37054193019866943,3.537468671798706
211,54058,54055,0.03846108913421631,-0.21848928928375244,0.9084650874137878,-2.1032915115356445,3.4704999923706055,-1.4458674192428589,1.7613229751586914,4.106962203979492,0.30054402351379395,0.35167115926742554,0.3689396381378174,3.5148653984069824
212,54068,54065,-0.008857115171849728,-0.031025605276226997,0.9973403215408325,-0.7748993039131165,1.5150675773620605,-1.6774976253509521,1.7628750801086426,4.107130527496338,0.30072805285453796,0.27434587478637695,0.3641560673713684,3.5012145042419434
213,54078,54075,0.2070457637310028,-0.044262852519750595,0.9728896617889404,0.5322182774543762,-0.4885723292827606,-1.9797176122665405,1.762701392173767,4.107673645019531,0.30103951692581177,0.34958890080451965,0.2894424498081207,3.5013864040374756
214,54088,54085,-0.18645845353603363,0.2046898603439331,1.0883419513702393,-2.1175689697265625,3.448397636413574,-2.677462100982666,1.7637275457382202,4.108579158782959,0.3012210726737976,0.4290991723537445,0.37241578102111816,3.4798953533172607
215,54098,54095,-0.13095210492610931,0.281230092048645,1.1983855962753296,0.9766601324081421,-3.113936424255371,-1.7728103399276733,1.7642755508422852,4.107886791229248,0.30176877975463867,0.36100339889526367,0.3498375415802002,3.4586076736450195
216,54108,54105,-0.04288451746106148,0.042973700910806656,1.0682456493377686,1.2291131019592285,-0.7586732506752014,-1.7906235456466675,1.7643635272979736,4.1096391677856445,0.30227935314178467,0.451177716255188,0.35030826926231384,3.4461734294891357
217,54118,54115,-0.011434697546064854,0.03152905032038689,1.017695665359497,1.7112590074539185,0.8636000156402588,-1.7082839012145996,1.76701819896698,4.110108852386475,0.30264344811439514,0.22559446096420288,0.30596593022346497,3.4231693744659424
218,54128,54125,0.10710784792900085,0.09160640835762024,0.8427249789237976,-0.15277358889579773,4.280399799346924,-2.2948081493377686,1.7676753997802734,4.10963249206543,0.3020218312740326,0.3006293773651123,0.3445083498954773,3.407392978668213
219,54138,54135,0.054939668625593185,0.2570807933807373,0.9749326705932617,0.1774848997592926,3.6737165451049805,-1.3440860509872437,1.768446683883667,4.110147476196289,0.30253782868385315,0.3718867897987366,0.37443509697914124,3.3931496143341064
220,54148,54145,0.0029929757583886385,0.21246293187141418,0.9799866080284119,-0.550205647945404,5.034443378448486,-1.3133660554885864,1.768845796585083,4.109565734863281,0.3029152452945709,0.39749133586883545,0.4490628242492676,3.3747379779815674
221,54158,54155,-0.13274231553077698,0.20036351680755615,1.0139986276626587,-0.6887760758399963,4.145330429077148,-1.7477738857269287,1.7706151008605957,4.109737873077393,0.30243736505508423,0.30786648392677307,0.41688141226768494,3.3613765239715576
222,54168,54165,-0.07535435259342194,0.127956360578537,1.0742075443267822,-2.090466022491455,5.45809268951416,-2.429655075073242,1.7713830471038818,4.110189914703369,0.30275872349739075,0.29737892746925354,0.38524699211120605,3.3502700328826904
223,54178,54175,0.015444796532392502,-0.10772309452295303,0.993266224861145,-5.236016750335693,6.820254802703857,-2.064157247543335,1.772321343421936,4.110090255737305,0.30304983258247375,0.17676591873168945,0.30971384048461914,3.3265862464904785
224,54188,54185,-0.007377335801720619,-0.01049100887030363,1.0137300491333008,-3.9346847534179688,7.436117172241211,-2.2885191440582275,1.7728087902069092,4.111520290374756,0.3012625277042389,0.14181286096572876,0.23614716529846191,3.33003306388855
225,54198,54195,-0.08402271568775177,0.2954748272895813,1.0131784677505493,-6.925287246704102,12.646210670471191,-3.0825884342193604,1.773650884628296,4.110240936279297,0.30150464177131653,0.08852877467870712,0.31259387731552124,3.296945571899414
226,54208,54205,-0.031669627875089645,1.0566171407699585,1.0291831493377686,-1.5053898096084595,4.042917728424072,-1.9354966878890991,1.7749202251434326,4.109317302703857,0.3018185794353485,0.0619242861866951,0.2472229301929474,3.262997627258301
227,54218,54215,0.03814798966050148,0.6815839409828186,0.9338860511779785,-0.6500536799430847,3.306642770767212,-1.4048432111740112,1.775626540184021,4.109197616577148,0.30208900570869446,-0.0741533413529396,0.22151239216327667,3.248809337615967
228,54228,54225,-0.005063870456069708,0.16292186081409454,0.9043004512786865,0.36262160539627075,2.198780059814453,-1.8490805625915527,1.7770936489105225,4.109540939331055,0.30431604385375977,-0.04902001842856407,0.2810980975627899,3.2348971366882324
229,54238,54235,-0.022944975644350052,0.09187456965446472,1.095719337463379,0.19326187670230865,1.995945692062378,-2.4386870861053467,1.7773783206939697,4.108818054199219,0.30463793873786926,-0.07353650778532028,0.24624349176883698,3.2188456058502197
230,54248,54245,-0.004236834589391947,0.028091667219996452,1.009677529335022,-2.5466201305389404,0.6541056632995605,-2.845400333404541,1.777888536453247,4.108983993530273,0.3049539029598236,-0.16613967716693878,0.2056577354669571,3.1954665184020996
231,54258,54255,0.19294317066669464,-0.08144599944353104,0.9826029539108276,-3.2387008666992188,1.2346445322036743,-2.599759578704834,1.7781580686569214,4.109932899475098,0.30309540033340454,-0.13047027587890625,0.15468120574951172,3.180020332336426
232,54268,54265,0.047025226056575775,-0.07333291321992874,0.8966506123542786,-4.403841972351074,1.67033851146698,-2.4929630756378174,1.7801765203475952,4.110604286193848,0.30319446325302124,-0.2891605496406555,0.1791113018989563,3.166354179382324
233,54278,54275,0.014022448100149632,-0.030870171263813972,0.9176474213600159,-3.188565492630005,3.9263250827789307,-2.3691351413726807,1.7807610034942627,4.110365390777588,0.3033168911933899,-0.20744121074676514,0.11912141740322113,3.1488616466522217
234,54288,54285,0.047889307141304016,0.21297813951969147,0.966301679611206,-3.297410488128662,3.4925715923309326,-2.6457316875457764,1.7806427478790283,4.1110124588012695,0.3039833605289459,-0.24382056295871735,0.20596376061439514,3.130765914916992
235,54298,54295,-0.24338631331920624,0.2836529314517975,1.0547215938568115,-2.248504638671875,2.578444719314575,-3.5011022090911865,1.7816746234893799,4.110324382781982,0.30402347445487976,-0.22464480996131897,0.05547560751438141,3.112501621246338
236,54308,54305,-0.05761253088712692,0.125141441822052,1.037750244140625,-2.300616979598999,2.2209482192993164,-2.2165560722351074,1.781895399093628,4.111315727233887,0.3041686415672302,-0.28048697113990784,-0.0015402173157781363,3.0930075645446777
237,54318,54315,-0.020217198878526688,0.006040498148649931,1.0011674165725708,-2.47452449798584,3.9284090995788574,-2.603731870651245,1.7818588018417358,4.112039089202881,0.30433690547943115,-0.2538835406303406,-0.04875015467405319,3.070012092590332
238,54328,54325,-0.23050116002559662,0.2371068000793457,0.944844126701355,-1.5619908571243286,0.8173354268074036,-2.7240874767303467,1.7813143730163574,4.111732482910156,0.3065554201602936,-0.19526275992393494,0.007639792747795582,3.052269458770752
239,54338,54335,0.019303690642118454,0.048474039882421494,0.9668269753456116,0.5478476881980896,1.1938027143478394,-2.571030378341675,1.7829957008361816,4.111696243286133,0.30682721734046936,-0.28788474202156067,0.07485313713550568,3.026857376098633
240,54348,54345,0.006682064384222031,-0.15598803758621216,0.9596368074417114,2.8400278091430664,1.925414800643921,-2.799795150756836,1.7840009927749634,4.110959053039551,0.3070380389690399,-0.2250823676586151,0.08150503784418106,3.0024867057800293
241,54358,54355,0.058231171220541,-0.1298205405473709,0.8970106840133667,2.061108112335205,2.3352293968200684,-1.8579245805740356,1.7845722436904907,4.111252307891846,0.30548280477523804,-0.23411107063293457,0.06169429421424866,2.979754686355591
