,timestamp_start,timestamp_end,acc.x,acc.y,acc.z,gyro.x,gyro.y,gyro.z,stateEstimate.x,stateEstimate.y,stateEstimate.z,stabilizer.pitch,stabilizer.roll,stabilizer.yaw
0,23283,23280,0.019116025418043137,0.5327855944633484,0.9962143301963806,12.803750991821289,-3.2912189960479736,-1.9156752824783325,1.8567192554473877,3.9364559650421143,0.16429296135902405,0.30069005489349365,-0.22169949114322662,3.4051544666290283
1,23293,23290,-0.08553563803434372,1.1611229181289673,1.1063053607940674,8.742674827575684,3.8306291103363037,-0.6427684426307678,1.856091856956482,3.9360711574554443,0.16582751274108887,0.3516896665096283,0.0073220208287239075,3.3695619106292725
2,23303,23300,-0.054897766560316086,0.6920287013053894,1.078070878982544,6.094407081604004,6.8833327293396,-0.17595027387142181,1.8571327924728394,3.939239740371704,0.1679462045431137,0.047434527426958084,-0.4972127676010132,3.453542709350586
3,23313,23310,-0.025360891595482826,0.03862706944346428,1.0701541900634766,0.03483857586979866,9.315773963928223,-0.8574157953262329,1.8562519550323486,3.9408493041992188,0.16952607035636902,-0.07993360608816147,-0.343092679977417,3.4454214572906494
4,23323,23320,0.04081343859434128,-0.049865785986185074,1.09365975856781,1.5248334407806396,3.0269837379455566,-0.08420632034540176,1.8555060625076294,3.9422945976257324,0.1716040074825287,-0.0949253961443901,-0.4028998911380768,3.440093517303467
5,23333,23330,-0.027313273400068283,-0.11779185384511948,0.988381564617157,3.2982966899871826,-0.3903964161872864,0.6953849792480469,1.8553495407104492,3.9429991245269775,0.17303793132305145,-0.1627873182296753,-0.3984052240848541,3.4433531761169434
6,23343,23340,0.04917196184396744,-0.131501704454422,1.0465495586395264,10.528177261352539,-3.59122633934021,0.610756516456604,1.8545290231704712,3.9428012371063232,0.17474274337291718,-0.15576227009296417,-0.25011083483695984,3.4442577362060547
7,23353,23350,-0.010617771185934544,-0.1391037106513977,0.9862603545188904,16.74677085876465,-0.24743792414665222,-0.8066568970680237,1.8543740510940552,3.9416751861572266,0.1751498281955719,-0.12179656326770782,0.061802078038454056,3.440483570098877
8,23363,23360,0.004107863642275333,-0.07780839502811432,0.9667477607727051,13.914850234985352,-0.7617416381835938,-0.29761236906051636,1.853071928024292,3.9424118995666504,0.17661599814891815,-0.08246147632598877,0.3158784806728363,3.4358887672424316
9,23373,23370,0.0324922576546669,-0.08954019099473953,1.0071439743041992,12.289260864257812,-0.27849525213241577,0.27040430903434753,1.8515077829360962,3.9451050758361816,0.17860127985477448,0.09006364643573761,0.006649683229625225,3.443016290664673
10,23383,23380,-0.009134321473538876,-0.06258151680231094,1.0394209623336792,7.335147380828857,-2.1087419986724854,0.6081846356391907,1.8504669666290283,3.944122314453125,0.1802327036857605,0.15164068341255188,0.20015792548656464,3.4472780227661133
11,23393,23390,0.047635339200496674,0.014282329939305782,1.0550930500030518,6.146580219268799,0.942959725856781,0.03286372497677803,1.8502626419067383,3.9450008869171143,0.1825980395078659,0.03359498456120491,0.18853585422039032,3.4516990184783936
12,23403,23400,0.010702412575483322,0.14500518143177032,1.1355782747268677,3.9088807106018066,3.130295991897583,-0.1695956140756607,1.849968671798706,3.945237398147583,0.18427816033363342,0.047850076109170914,0.3017440140247345,3.453256130218506
13,23413,23410,-0.07893668115139008,-0.02282576635479927,1.0796743631362915,2.712968587875366,7.213866710662842,-0.1296355277299881,1.8485770225524902,3.945899724960327,0.18608874082565308,-0.0004091536975465715,0.46280959248542786,3.4501657485961914
14,23423,23420,-0.005820456426590681,0.05306079983711243,1.086974024772644,7.445102214813232,4.607107639312744,0.4878217279911041,1.8477243185043335,3.946122169494629,0.18865248560905457,-0.08889743685722351,0.5597831010818481,3.4503774642944336
15,23433,23430,-0.047280453145504,0.07810071855783463,1.0326111316680908,7.998039245605469,3.7452943325042725,-0.4919986426830292,1.8478896617889404,3.945513963699341,0.19062532484531403,-0.2215590924024582,0.7642690539360046,3.447025775909424
16,23443,23440,-0.04953831434249878,0.04494505375623703,1.0686137676239014,4.1648359298706055,-2.719008445739746,-0.21567535400390625,1.8464138507843018,3.94600248336792,0.19275812804698944,-0.1585521250963211,0.771319568157196,3.447946071624756
17,23453,23450,-0.01587429828941822,-0.12061493843793869,1.0763483047485352,3.716099977493286,-2.331655979156494,0.3154872953891754,1.8458560705184937,3.9464142322540283,0.19427751004695892,-0.12921872735023499,0.7568403482437134,3.445580005645752
18,23463,23460,0.028645634651184082,-0.09470267593860626,0.9468984603881836,1.9427589178085327,1.108473777770996,-0.5433027744293213,1.8459028005599976,3.947767496109009,0.19642655551433563,-0.18018196523189545,0.7137989401817322,3.434361457824707
19,23473,23470,-0.008923428133130074,-0.08421871066093445,0.8597967624664307,-1.3710674047470093,0.2504816949367523,-0.8463343977928162,1.8451972007751465,3.948390007019043,0.19867004454135895,-0.22506225109100342,0.9187249541282654,3.4254238605499268
20,23483,23480,0.00877112802118063,0.021605176851153374,0.9879207611083984,-2.848422050476074,-0.6583631038665771,-0.9225868582725525,1.8456461429595947,3.948770523071289,0.20072518289089203,-0.2532045841217041,0.9272082448005676,3.4141364097595215
21,23493,23490,-0.08432908356189728,-0.004072392359375954,1.0500504970550537,-2.2303428649902344,-2.477231025695801,-0.6388083100318909,1.8423765897750854,3.951202630996704,0.20374535024166107,0.03849891200661659,0.5527853965759277,3.430063486099243
22,23503,23500,0.03679555281996727,-0.2620275914669037,0.8212193846702576,0.2217712700366974,-0.1758710891008377,-0.5131796598434448,1.8422490358352661,3.9521193504333496,0.20573851466178894,0.07667525857686996,0.5381525158882141,3.4242544174194336
23,23513,23510,0.030074628069996834,-0.21098284423351288,0.879640519618988,1.936765193939209,3.307117462158203,-1.9783214330673218,1.8424358367919922,3.9529616832733154,0.2078617364168167,-0.00886200089007616,0.5517196655273438,3.4044349193573
24,23523,23520,-0.007239437662065029,-0.1057797372341156,0.953326404094696,5.445593357086182,3.6863417625427246,-1.0662028789520264,1.8434088230133057,3.958530902862549,0.20928189158439636,-0.15880617499351501,0.690915048122406,3.3768115043640137
25,23533,23530,-0.004540152847766876,-0.13218815624713898,0.8817989826202393,7.908320426940918,4.845114231109619,-1.5187175273895264,1.844326376914978,3.958430528640747,0.21108123660087585,-0.31056901812553406,0.8557450771331787,3.354038715362549
26,23543,23540,-0.08474115282297134,0.02820468693971634,0.9501010179519653,8.587791442871094,0.3935658931732178,-0.6139670610427856,1.8456913232803345,3.9609031677246094,0.21272443234920502,-0.44559523463249207,0.803877592086792,3.329458475112915
27,23553,23550,0.013802168890833855,-0.2213161736726761,0.8696747422218323,3.7875096797943115,1.066185712814331,-0.9008989334106445,1.8463534116744995,3.9624574184417725,0.21286550164222717,-0.465256929397583,0.8797917366027832,3.321253538131714
28,23563,23560,0.015488148666918278,-0.1288427859544754,0.9459109306335449,-1.4691674709320068,2.328268051147461,-1.57749605178833,1.8455852270126343,3.9649391174316406,0.21431118249893188,-0.3624073266983032,0.9536896347999573,3.330894947052002
29,23573,23570,0.056489650160074234,-0.1938866376876831,0.883014440536499,-3.0816705226898193,-1.1538629531860352,-2.012876510620117,1.8454164266586304,3.9672296047210693,0.2155911773443222,-0.39209625124931335,0.973085343837738,3.311335325241089
30,23583,23580,-0.0007725453469902277,-0.036449190229177475,1.0262207984924316,-3.7304394245147705,-3.1981759071350098,-2.1177830696105957,1.8436874151229858,3.9684269428253174,0.21678617596626282,-0.25136950612068176,0.949435293674469,3.3099238872528076
31,23593,23590,-0.003838661126792431,0.06705121695995331,0.9731066823005676,-4.445731163024902,-6.608763217926025,-1.6675814390182495,1.8438770771026611,3.9693920612335205,0.218740776181221,-0.25924983620643616,0.9025735855102539,3.282506227493286
32,23603,23600,-0.033774323761463165,-0.012181275524199009,0.9423717856407166,-5.643167018890381,-4.900063991546631,-2.190537929534912,1.8449045419692993,3.97434139251709,0.21996963024139404,-0.2511933147907257,0.8502594232559204,3.258448600769043
33,23613,23610,0.01325188297778368,0.03623054921627045,0.979923665523529,-4.265476703643799,1.6257942914962769,-1.9821429252624512,1.8444970846176147,3.9761714935302734,0.2211591601371765,-0.16724039614200592,0.7996033430099487,3.2484664916992188
34,23623,23620,0.03347764164209366,0.4741267263889313,0.9621763229370117,-2.4169843196868896,-1.0779539346694946,-1.3531748056411743,1.8434144258499146,3.9725587368011475,0.2225307822227478,-0.10080412030220032,1.4458280801773071,3.2771494388580322
35,23633,23630,0.0004447924729902297,0.04879571869969368,0.8463885188102722,-2.716400146484375,1.4859082698822021,-1.8302968740463257,1.842419981956482,3.978468179702759,0.22541174292564392,-0.16179366409778595,0.7467368841171265,3.2188379764556885
36,23643,23640,0.010650928132236004,-0.09710940718650818,0.9283844232559204,-7.638554573059082,-2.8388278484344482,-1.2834320068359375,1.8436459302902222,3.9801180362701416,0.22663606703281403,-0.37989598512649536,0.5929967761039734,3.162008047103882
37,23653,23650,0.01883688010275364,-0.27739471197128296,0.9215863347053528,-8.397150993347168,-0.28029900789260864,-1.7344744205474854,1.845839023590088,3.995582103729248,0.2292487621307373,-0.9254080653190613,-1.4110769033432007,2.9562039375305176
38,23663,23660,-0.0009144579526036978,-0.22489714622497559,0.9598984122276306,-4.270012855529785,5.190032482147217,1.1271151304244995,1.8455764055252075,3.995476484298706,0.2320011854171753,-0.9135751128196716,-1.2370219230651855,2.9773616790771484
39,23673,23670,0.044306036084890366,-0.2408054620027542,0.9154711365699768,10.358553886413574,0.3152856230735779,1.8747469186782837,1.8446292877197266,3.996657133102417,0.2349408119916916,-0.8203287124633789,-0.9466556310653687,3.0197808742523193
40,23683,23680,0.03642880171537399,-0.05542134866118431,0.9752021431922913,28.043212890625,-9.785988807678223,0.9075111746788025,1.8437750339508057,3.9959325790405273,0.23794244229793549,-0.6930079460144043,-0.4046911895275116,3.0668773651123047
41,23693,23690,0.05053742229938507,-0.011761479079723358,1.0108344554901123,39.90778732299805,-9.636341094970703,-0.26381394267082214,1.8452025651931763,3.995471715927124,0.24075740575790405,-0.7601894736289978,0.11862422525882721,3.0853753089904785
42,23703,23700,-0.04828222841024399,0.0724896565079689,1.0604609251022339,41.72541046142578,-16.434080123901367,0.2750431299209595,1.843960165977478,3.992920160293579,0.24283930659294128,-0.46649831533432007,0.9388328194618225,3.127153158187866
43,23713,23710,-0.02307860367000103,0.04837390407919884,1.0591847896575928,34.677284240722656,-16.691232681274414,-0.0005090518388897181,1.8435814380645752,3.9942140579223633,0.24424761533737183,-0.20991426706314087,1.324537754058838,3.1257505416870117
44,23723,23720,-0.012264171615242958,0.05432961508631706,0.9942800402641296,20.840744018554688,-14.994582176208496,-0.3663347065448761,1.842382788658142,3.993664026260376,0.24571506679058075,0.031829752027988434,1.7295726537704468,3.1344945430755615
45,23733,23730,-0.014767441898584366,0.2152518630027771,1.0621062517166138,4.889351844787598,-7.681670665740967,-0.9673200845718384,1.8465570211410522,3.9937405586242676,0.2473224550485611,-0.3844761252403259,1.7927510738372803,3.0921225547790527
46,23743,23740,-0.09017007052898407,0.18091973662376404,1.0152806043624878,-11.092122077941895,-8.568188667297363,-0.6868318319320679,1.8456648588180542,3.993626117706299,0.24903035163879395,-0.14339612424373627,1.8155235052108765,3.096508026123047
47,23753,23750,-0.051934558898210526,0.08066895604133606,1.0863420963287354,-19.171653747558594,-2.1872036457061768,-0.9484173655509949,1.8456178903579712,3.9935872554779053,0.25070998072624207,-0.02324005775153637,1.5942895412445068,3.091191053390503
48,23763,23760,0.044045403599739075,0.4017098546028137,0.942066490650177,-22.706037521362305,0.8881363272666931,-0.36439546942710876,1.846421718597412,3.992689371109009,0.25236818194389343,-0.04231927916407585,1.5874651670455933,3.0975801944732666
49,23773,23770,0.04210848733782768,0.47569695115089417,0.9583250284194946,-19.347976684570312,-3.082019567489624,-0.15561266243457794,1.8447880744934082,3.9933440685272217,0.2541060745716095,0.06043185666203499,1.5597612857818604,3.110840320587158
50,23783,23780,0.03501051664352417,0.08609111607074738,0.9512518644332886,-13.847622871398926,-9.431501388549805,-0.6917579174041748,1.845866322517395,3.990058422088623,0.26036974787712097,0.05992703512310982,1.703821063041687,3.1258656978607178
51,23793,23790,-0.07689420133829117,0.1414274126291275,1.0399181842803955,-5.876074314117432,-6.011594772338867,-1.4721604585647583,1.8442771434783936,3.991201877593994,0.26228097081184387,0.23743809759616852,1.535284399986267,3.1367034912109375
52,23803,23800,-0.004700700286775827,0.03849497810006142,0.9397220015525818,-1.3607479333877563,-5.008622169494629,-0.5229671001434326,1.8442591428756714,3.9917240142822266,0.2640654146671295,0.3269639015197754,1.4811991453170776,3.1311304569244385
53,23813,23810,0.03732706606388092,0.03333468735218048,0.9509385228157043,-2.3698811531066895,-7.428940296173096,-0.837317168712616,1.8435635566711426,3.990868330001831,0.26576292514801025,0.4787710905075073,1.5674998760223389,3.140758752822876
54,23823,23820,0.10516741871833801,-0.030395135283470154,0.9055070281028748,-4.619653224945068,-9.383806228637695,-0.844753623008728,1.8435055017471313,3.992151975631714,0.2686476707458496,0.5497688055038452,1.4843953847885132,3.1388020515441895
55,23833,23830,0.01251412183046341,-0.23616668581962585,0.8548976182937622,-9.629470825195312,-6.944320201873779,-1.7230137586593628,1.8451563119888306,3.99284291267395,0.270295113325119,0.5542727112770081,1.5796246528625488,3.1169919967651367
56,23843,23840,0.019539210945367813,-0.24455730617046356,0.8828331232070923,-16.953378677368164,-0.004335224162787199,-1.7097198963165283,1.8431533575057983,3.9943361282348633,0.27211207151412964,0.6842286586761475,1.357807993888855,3.1148245334625244
57,23853,23850,-0.007807557005435228,-0.08843687176704407,0.8885455131530762,-19.701189041137695,-4.64611291885376,-1.0387921333312988,1.8418458700180054,3.9936161041259766,0.27293479442596436,0.8195510506629944,1.2602077722549438,3.115919828414917
58,23863,23860,-0.1331256479024887,-0.05657735839486122,0.8700282573699951,-21.7925968170166,3.573897361755371,-1.8235111236572266,1.8426544666290283,3.99257755279541,0.2742019295692444,0.7704135775566101,1.1640602350234985,3.083098888397217
59,23873,23870,-0.03809185326099396,0.1336527317762375,0.9631492495536804,-24.46139144897461,9.354430198669434,-1.598809838294983,1.8428850173950195,3.9935293197631836,0.2754009962081909,0.723771333694458,0.956644594669342,3.0680060386657715
60,23883,23880,-0.14388087391853333,0.4233092963695526,1.0036733150482178,-21.04757308959961,8.94527816772461,-2.229931592941284,1.8426252603530884,3.9891276359558105,0.2786092162132263,0.6209770441055298,0.8873767256736755,3.0432937145233154
61,23893,23890,-0.10312391817569733,0.3412138521671295,0.9785826206207275,-17.23160171508789,3.600266218185425,-2.163058042526245,1.8423017263412476,3.992981195449829,0.28002414107322693,0.5914362072944641,0.5277668237686157,3.042325973510742
62,23903,23900,-0.033224865794181824,0.04707739129662514,0.9477542638778687,-13.435744285583496,1.1331820487976074,-1.7204225063323975,1.8417435884475708,3.991382360458374,0.28126710653305054,0.5430576205253601,0.4676898717880249,3.0156009197235107
63,23913,23910,0.06957768648862839,-0.23558184504508972,0.765263020992279,-10.514230728149414,-2.316291570663452,-1.4507355690002441,1.8421310186386108,3.9913129806518555,0.2825081944465637,0.5433428287506104,0.3923041522502899,2.9936747550964355
64,23923,23920,0.05342809110879898,-0.1952483057975769,0.8637148141860962,-10.251105308532715,-3.7721140384674072,-1.6609115600585938,1.8409968614578247,3.9916634559631348,0.28348788619041443,0.5921773314476013,0.19317835569381714,2.9967234134674072
65,23933,23930,-0.019222546368837357,-0.01010119542479515,0.9674798250198364,-10.769794464111328,-2.9694740772247314,-2.3501110076904297,1.8401719331741333,3.9896860122680664,0.2844236493110657,0.668670117855072,0.09518550336360931,2.984302520751953
66,23943,23940,-0.1236342191696167,0.17208775877952576,0.9511505961418152,-11.013508796691895,-1.191076397895813,-2.3598575592041016,1.8395341634750366,3.991814374923706,0.28530657291412354,0.7356488108634949,-0.08126764744520187,2.972738742828369
67,23953,23950,-0.0580601803958416,0.28356820344924927,1.0031930208206177,-11.441431045532227,1.1903202533721924,-3.064891815185547,1.8387380838394165,3.9903664588928223,0.2856983244419098,0.7295234203338623,-0.11492383480072021,2.941577911376953
68,23963,23960,-0.06661625951528549,0.17711710929870605,0.96782386302948,-13.71350383758545,6.029801845550537,-3.648988723754883,1.839018702507019,3.990790605545044,0.2864832878112793,0.6840839982032776,-0.31711217761039734,2.9189956188201904
69,23973,23970,-0.02281675860285759,0.2423529177904129,1.0005861520767212,-13.368561744689941,3.792790651321411,-2.8552160263061523,1.8387106657028198,3.9906065464019775,0.28715527057647705,0.5998677611351013,-0.46004369854927063,2.8834266662597656
70,23983,23980,0.08719607442617416,0.12304844707250595,0.9797273874282837,-8.977975845336914,4.2470293045043945,-2.100292444229126,1.839400291442871,3.9916491508483887,0.28756678104400635,0.5234106183052063,-0.6698248982429504,2.856968402862549
71,23993,23990,0.08809078484773636,-0.00023740135657135397,0.8813709020614624,-9.096036911010742,9.226922988891602,-2.960946798324585,1.8393819332122803,3.992457866668701,0.28820204734802246,0.46206241846084595,-0.7298529148101807,2.829244375228882
72,24003,24000,0.054362956434488297,-0.0006388015463016927,0.9257864356040955,-1.7155942916870117,1.7618086338043213,-2.1987547874450684,1.8373733758926392,3.9915273189544678,0.2888122498989105,0.5320029854774475,-0.6903164982795715,2.7895429134368896
73,24013,24010,0.09170106053352356,-0.23842033743858337,0.6948463916778564,-2.7529103755950928,2.2130699157714844,-1.9655091762542725,1.8373991250991821,3.9913687705993652,0.2893050014972687,0.49150311946868896,-0.7471556067466736,2.765933036804199
74,24023,24020,0.11927942931652069,-0.13002437353134155,0.9495681524276733,-3.37528133392334,-3.2785470485687256,-2.5938913822174072,1.8365199565887451,3.9916584491729736,0.2905300557613373,0.4972480833530426,-0.85078364610672,2.7536656856536865
75,24033,24030,-0.07623361796140671,-0.01520095020532608,1.0321862697601318,-3.8842060565948486,-1.8686654567718506,-2.588066816329956,1.836108684539795,3.9914560317993164,0.2907315790653229,0.5501749515533447,-0.8771384954452515,2.729611873626709
76,24043,24040,-0.17442592978477478,0.0008203648030757904,0.9555742144584656,-4.431361198425293,1.9876775741577148,-2.5493569374084473,1.8357361555099487,3.9924356937408447,0.29087960720062256,0.5854994654655457,-0.9140201210975647,2.708142042160034
77,24053,24050,-0.06553945690393448,-0.11781486123800278,0.9289014935493469,-3.2962398529052734,1.1886581182479858,-1.8260116577148438,1.835282802581787,3.9921116828918457,0.2903907597064972,0.6288027763366699,-1.029052734375,2.6891634464263916
78,24063,24060,0.012561172246932983,-0.06341838091611862,0.9414545893669128,-5.1421709060668945,9.468832015991211,-3.037364959716797,1.8347394466400146,3.992110013961792,0.2904989421367645,0.6209695339202881,-1.0672787427902222,2.668316602706909
79,24073,24070,-0.0071863094344735146,0.3535380959510803,1.119668960571289,-2.312098503112793,9.06969165802002,-2.1875405311584473,1.8351856470108032,3.990551233291626,0.29056406021118164,0.46464332938194275,-1.1098982095718384,2.6508398056030273
80,24083,24080,-0.04330584034323692,0.3846158981323242,1.0377264022827148,0.4672386050224304,5.391965389251709,-1.9919673204421997,1.83405601978302,3.9906208515167236,0.29038694500923157,0.45918089151382446,-1.1129130125045776,2.6121127605438232
81,24093,24090,0.03305760398507118,0.005769063718616962,0.9439125061035156,2.530740976333618,6.1352739334106445,-1.8193438053131104,1.834520936012268,3.991581916809082,0.2904822528362274,0.3398596942424774,-1.1208802461624146,2.60079288482666
82,24103,24100,0.04826894402503967,0.036216091364622116,1.051640272140503,3.1053309440612793,1.3946088552474976,-1.3566981554031372,1.8307452201843262,3.9913551807403564,0.2905583083629608,0.539406418800354,-1.1147410869598389,2.5499460697174072
83,24113,24110,-0.016448648646473885,0.134752094745636,1.1147527694702148,1.7906907796859741,1.8772281408309937,-1.2090554237365723,1.8308351039886475,3.992187738418579,0.2911485433578491,0.4493882656097412,-1.1149355173110962,2.544016122817993
84,24123,24120,-0.00939225684851408,-0.03695288300514221,0.9739792346954346,1.9915553331375122,9.394593238830566,-1.2083799839019775,1.8310083150863647,3.99200177192688,0.2913667857646942,0.3634510934352875,-1.1080329418182373,2.5428972244262695
85,24133,24130,0.008607357740402222,0.09275756031274796,1.053678035736084,0.15060898661613464,9.097289085388184,-0.9582552909851074,1.8312327861785889,3.9923059940338135,0.2916545569896698,0.19032758474349976,-1.1182516813278198,2.5519778728485107
86,24143,24140,0.01193287130445242,0.34553179144859314,1.1056134700775146,1.951886534690857,4.969132900238037,-0.3275870680809021,1.83229660987854,3.9933648109436035,0.2919086217880249,0.02343212440609932,-1.1362401247024536,2.552218437194824
87,24153,24150,-0.04036877676844597,0.4626975953578949,1.1443676948547363,1.7879676818847656,4.71776819229126,-1.711674690246582,1.8299676179885864,3.992737293243408,0.29258736968040466,0.07874908298254013,-1.1212413311004639,2.5262811183929443
88,24163,24160,-0.06778337806463242,0.22072526812553406,1.1081809997558594,3.4312524795532227,3.858196258544922,-1.103805422782898,1.8308120965957642,3.99412202835083,0.2930345833301544,-0.012291553430259228,-1.0948237180709839,2.5218589305877686
89,24173,24170,-0.024254566058516502,0.08883584290742874,1.0684149265289307,4.033191204071045,2.5973141193389893,-0.5486012697219849,1.830283522605896,3.994455337524414,0.2935637831687927,-0.10648307204246521,-1.1286500692367554,2.519618034362793
90,24183,24180,-0.017536265775561333,0.051564570516347885,1.0541683435440063,5.571061611175537,1.9022629261016846,-0.38124895095825195,1.830304503440857,3.994204521179199,0.29126688838005066,-0.1625811755657196,-1.0511908531188965,2.5152199268341064
91,24193,24190,-0.079124316573143,0.2985880970954895,0.9419006109237671,5.117170810699463,1.924037218093872,-0.2448832094669342,1.8293571472167969,3.9932644367218018,0.2917880713939667,-0.11768723279237747,-0.9699550867080688,2.502758264541626
92,24203,24200,-0.11902068555355072,0.480965256690979,1.0843050479888916,7.408411026000977,-2.0078811645507812,-0.2823638617992401,1.8289473056793213,3.9931983947753906,0.29226627945899963,-0.16148167848587036,-0.9606501460075378,2.5041985511779785
93,24213,24210,-0.04599611088633537,0.24492177367210388,1.031857967376709,6.885464191436768,-5.393188953399658,0.06903553009033203,1.8273807764053345,3.9935615062713623,0.2908228933811188,-0.08114400506019592,-0.9291961789131165,2.4844138622283936
94,24223,24220,-0.028172452002763748,0.08445578068494797,1.0581406354904175,5.502342224121094,-1.4956616163253784,-0.23775266110897064,1.8273061513900757,3.9931821823120117,0.2912323474884033,-0.034314218908548355,-0.8233424425125122,2.483304500579834
95,24233,24230,-0.016323616728186607,-0.02605907991528511,0.9414447546005249,5.126064777374268,2.094517469406128,-0.5229232311248779,1.82676100730896,3.993912935256958,0.2917212247848511,-0.02782350219786167,-0.8051158785820007,2.4869437217712402
96,24243,24240,0.06527559459209442,-0.0002596581762190908,0.9753643870353699,3.96955943107605,2.362105369567871,-0.3246624767780304,1.8249562978744507,3.9936177730560303,0.2921202778816223,0.060793135315179825,-0.7233673930168152,2.4639298915863037
97,24253,24250,0.0036732153967022896,0.7524632811546326,0.9351840019226074,2.823316812515259,4.999441146850586,-0.05390436574816704,1.8241524696350098,3.992715358734131,0.2889574468135834,-0.006646296475082636,-0.7305105328559875,2.463857650756836
98,24263,24260,0.03310176730155945,0.5522879958152771,0.9954847693443298,4.639644145965576,13.773571014404297,-0.1977756917476654,1.822397232055664,3.993945837020874,0.28908613324165344,0.04679097607731819,-0.7202935814857483,2.451070547103882
99,24273,24270,0.04379230737686157,-0.0326944999396801,0.9197347164154053,2.8719570636749268,24.11394500732422,0.09175753593444824,1.8219231367111206,3.995249032974243,0.2891986072063446,-0.14642390608787537,-0.7837040424346924,2.4676380157470703
100,24283,24280,-0.047065142542123795,0.12049376964569092,0.963325023651123,5.036478519439697,27.884164810180664,0.6734687089920044,1.8218358755111694,3.9952008724212646,0.2839046120643616,-0.4215794503688812,-0.6873142719268799,2.4769318103790283
101,24293,24290,0.06052525341510773,0.2637433707714081,0.8758952021598816,6.4791579246521,28.648866653442383,0.22338615357875824,1.822363257408142,3.9949228763580322,0.28353720903396606,-0.8415993452072144,-0.5626320242881775,2.5023577213287354
102,24303,24300,-0.04564446583390236,0.09939001500606537,1.0283851623535156,5.851862907409668,18.427167892456055,-0.15472353994846344,1.8225936889648438,3.999342918395996,0.283318430185318,-1.017985224723816,-0.5917204022407532,2.4806597232818604
103,24313,24310,-0.1061675176024437,0.2905782461166382,1.1013145446777344,6.307229518890381,17.18539810180664,-0.20077484846115112,1.8213067054748535,4.000792503356934,0.28194987773895264,-1.1741397380828857,-0.4665486514568329,2.468766927719116
104,24323,24320,-0.05849434807896614,-0.04471822828054428,1.0098514556884766,7.564167022705078,10.3731107711792,0.32119220495224,1.8205140829086304,4.00076961517334,0.281556099653244,-1.3737088441848755,-0.4059752821922302,2.471309185028076
105,24333,24330,0.06276629120111465,-0.23339444398880005,0.8507636189460754,8.051780700683594,4.630326271057129,0.013251302763819695,1.8200807571411133,4.001361846923828,0.2813069224357605,-1.4481656551361084,-0.23822258412837982,2.4857678413391113
106,24343,24340,0.011496552266180515,0.007065655197948217,1.011884331703186,6.786062717437744,-0.24240323901176453,0.5492311120033264,1.8200453519821167,4.003542423248291,0.28093501925468445,-1.5408751964569092,-0.3205742835998535,2.4719080924987793
107,24353,24350,-0.004191674757748842,-0.04342575743794441,1.023268699645996,3.2390973567962646,1.7916489839553833,-0.010195249691605568,1.8195632696151733,4.003243446350098,0.2837129831314087,-1.5076390504837036,-0.1908474713563919,2.478452205657959
108,24363,24360,-0.07274223864078522,0.11496143788099289,1.030957579612732,1.9480174779891968,-0.23902732133865356,0.7630786299705505,1.8191028833389282,4.005425453186035,0.28350114822387695,-1.5613659620285034,-0.18823112547397614,2.47298002243042
109,24373,24370,0.04984520375728607,-0.11321675032377243,0.9236576557159424,2.4203591346740723,0.43739941716194153,0.48075470328330994,1.8178879022598267,4.006787300109863,0.28336113691329956,-1.498728632926941,-0.19211584329605103,2.468661069869995
110,24383,24380,0.030176814645528793,-0.1965750753879547,0.9041984677314758,2.8657562732696533,2.8098526000976562,0.6724914908409119,1.8190710544586182,4.007667541503906,0.2836631238460541,-1.6322948932647705,-0.10652841627597809,2.493927240371704
111,24393,24390,0.10039303451776505,-0.17597123980522156,0.9579755663871765,3.9256134033203125,3.8912699222564697,0.15394145250320435,1.820069432258606,4.009220600128174,0.2833620309829712,-1.6877864599227905,-0.1702893227338791,2.4824910163879395
112,24403,24400,0.028088834136724472,-0.11255014687776566,0.9671582579612732,5.696285724639893,5.028928756713867,0.819763720035553,1.8197356462478638,4.010361194610596,0.2830880284309387,-1.6705197095870972,-0.12383473664522171,2.4808502197265625
113,24413,24410,0.03375020623207092,-0.1536354422569275,0.988698422908783,6.866151332855225,6.781001091003418,1.076972246170044,1.8193469047546387,4.011619567871094,0.2831379771232605,-1.7060837745666504,-0.0643872320652008,2.4819118976593018
114,24423,24420,-0.018512051552534103,-0.07687033712863922,1.030495047569275,7.704129219055176,4.315493106842041,1.0751287937164307,1.8187812566757202,4.011849403381348,0.2827673852443695,-1.7956790924072266,0.012461066246032715,2.494415521621704
115,24433,24430,-0.11349684000015259,0.1462969034910202,1.206984281539917,7.870382785797119,1.799802541732788,0.7193856239318848,1.82048499584198,4.013252258300781,0.28234943747520447,-1.9848434925079346,0.09540217369794846,2.5112226009368896
116,24443,24440,-0.036118850111961365,0.02012307196855545,1.1138651371002197,7.582442760467529,1.0395174026489258,0.7764344811439514,1.8206965923309326,4.017007827758789,0.28245067596435547,-1.911555528640747,0.026824327185750008,2.4757561683654785
117,24453,24450,0.019587891176342964,0.060653846710920334,1.0829646587371826,6.813136577606201,-2.1075825691223145,1.369596004486084,1.8206208944320679,4.018085479736328,0.28244197368621826,-1.8959801197052002,0.12846753001213074,2.488001823425293
118,24463,24460,-0.025484230369329453,0.029952432960271835,1.0823389291763306,7.001754283905029,-5.653891563415527,1.5666955709457397,1.8206348419189453,4.017509460449219,0.2825586199760437,-1.8324730396270752,0.2975517213344574,2.528250217437744
119,24473,24470,-0.032818179577589035,0.14062254130840302,1.0681343078613281,4.1684041023254395,-2.631058692932129,0.6646919250488281,1.8209621906280518,4.019352436065674,0.28264927864074707,-1.803321361541748,0.28638166189193726,2.5209450721740723
120,24483,24480,0.07345780730247498,-0.007750297896564007,1.040693759918213,3.5176985263824463,-1.4874762296676636,0.6782511472702026,1.823258638381958,4.020157337188721,0.2811009883880615,-1.961488127708435,0.41045236587524414,2.551433563232422
121,24493,24490,-0.0641886368393898,0.0022937420289963484,1.160874605178833,3.2702107429504395,-2.671445846557617,1.2427269220352173,1.8235362768173218,4.021985054016113,0.2812559902667999,-1.94254469871521,0.3394211232662201,2.5309035778045654
122,24503,24500,-0.02805572934448719,0.04587100073695183,1.0934898853302002,2.5817251205444336,-4.158806800842285,1.3443268537521362,1.8228310346603394,4.022072792053223,0.2816949188709259,-1.7972006797790527,0.43130892515182495,2.5658791065216064
123,24513,24510,-0.03648930415511131,0.013793230056762695,1.068141222000122,2.2623376846313477,-3.495091676712036,0.8557260036468506,1.823290467262268,4.022584915161133,0.28089919686317444,-1.8203394412994385,0.4388844668865204,2.572909116744995
124,24523,24520,0.054166797548532486,-0.0802614837884903,1.0314966440200806,2.6017417907714844,-4.212869167327881,0.8888238668441772,1.8244370222091675,4.022568225860596,0.2812661826610565,-1.8165072202682495,0.5313277244567871,2.6009702682495117
125,24533,24530,-0.04193733632564545,0.04665064811706543,1.103397250175476,2.399702787399292,-5.113306045532227,0.5849175453186035,1.8242583274841309,4.025177478790283,0.2818094789981842,-1.6178251504898071,0.5362330675125122,2.6081507205963135
126,24543,24540,-0.0407930389046669,-0.001730767311528325,1.0378429889678955,2.21232271194458,-4.362432479858398,0.8223588466644287,1.8252551555633545,4.027030944824219,0.2831211984157562,-1.6184663772583008,0.4612734913825989,2.5835154056549072
127,24553,24550,0.02011094242334366,-0.021059498190879822,0.9777149558067322,1.8923444747924805,-3.6723854541778564,0.8821178674697876,1.824579119682312,4.027162551879883,0.2836746871471405,-1.5234729051589966,0.3919810652732849,2.5719001293182373
128,24563,24560,-0.0680919736623764,0.046639662235975266,1.0668243169784546,2.2525389194488525,-4.762730598449707,1.4734138250350952,1.825549840927124,4.0276970863342285,0.28424960374832153,-1.539017677307129,0.4828074276447296,2.59755539894104
129,24573,24570,-0.08526429533958435,-0.062225084751844406,0.976302444934845,2.2555992603302,-3.30893874168396,0.7937102317810059,1.825325846672058,4.027602195739746,0.28503087162971497,-1.3829759359359741,0.562580943107605,2.633594036102295
130,24583,24580,-0.026964712888002396,0.0322384387254715,1.045841097831726,2.412869453430176,-3.883042573928833,0.31527432799339294,1.8279354572296143,4.030216693878174,0.2848021984100342,-1.5601330995559692,0.5681604743003845,2.620668649673462
131,24593,24590,-0.028326770290732384,0.017469706013798714,1.0298911333084106,3.736675500869751,-4.1327738761901855,0.796766996383667,1.8293057680130005,4.031351089477539,0.2855285704135895,-1.4545433521270752,0.6568349599838257,2.645494222640991
132,24603,24600,-0.019226981326937675,0.021114690229296684,1.0307137966156006,3.362586259841919,-4.179882526397705,0.5657025575637817,1.8289368152618408,4.032060623168945,0.28628823161125183,-1.2898321151733398,0.594516396522522,2.639676094055176
133,24613,24610,0.01245780847966671,-0.020934289321303368,0.9667701721191406,2.6992290019989014,-6.087777137756348,0.88926100730896,1.8292421102523804,4.031158447265625,0.28379204869270325,-1.1143829822540283,0.6903411149978638,2.67105770111084
134,24623,24620,-0.12379307299852371,0.18518182635307312,1.0734248161315918,2.562847375869751,-5.418949127197266,0.3272273540496826,1.8306118249893188,4.029738426208496,0.2841854989528656,-1.1341338157653809,0.7709318995475769,2.6818268299102783
135,24633,24630,-0.25776350498199463,0.30618834495544434,1.0109111070632935,0.13686248660087585,-3.0441648960113525,-0.7911217212677002,1.8324064016342163,4.030547618865967,0.2845793664455414,-1.1696282625198364,0.753987729549408,2.665659189224243
136,24643,24640,-0.1521143764257431,0.456898957490921,1.0407707691192627,-0.8704757690429688,-5.353732585906982,0.06197384372353554,1.8342154026031494,4.030051231384277,0.28382474184036255,-1.2635210752487183,0.703687310218811,2.631683349609375
137,24653,24650,-0.10586536675691605,0.08410534262657166,1.0536953210830688,-2.821288585662842,-3.5310933589935303,0.04711218550801277,1.834715723991394,4.030572891235352,0.28437960147857666,-1.1187920570373535,0.7077967524528503,2.6420271396636963
138,24663,24660,-0.04117424413561821,0.042365703731775284,1.02053701877594,-0.6268260478973389,-5.068511486053467,-0.2592204511165619,1.836260437965393,4.030422687530518,0.2847452163696289,-1.1836583614349365,0.6891443729400635,2.633145809173584
139,24673,24670,-0.030056020244956017,0.20653127133846283,1.1696114540100098,-0.9352126121520996,-7.552706241607666,0.01168810110539198,1.835706353187561,4.029242992401123,0.28559571504592896,-0.9734348654747009,0.7588263154029846,2.6640284061431885
140,24683,24680,-0.09191511571407318,0.4545055627822876,1.0754369497299194,-1.2159996032714844,-10.338774681091309,-0.015241795219480991,1.8352805376052856,4.03091287612915,0.2828926742076874,-0.8135079741477966,0.6668025851249695,2.664462089538574
141,24693,24690,-0.048865873366594315,0.2508488595485687,0.9898726344108582,0.24640479683876038,-12.342229843139648,-0.41522181034088135,1.8361173868179321,4.031889915466309,0.2834392488002777,-0.7484363317489624,0.6698483228683472,2.669343948364258
142,24703,24700,-0.06090584024786949,0.010522807948291302,1.069018840789795,-0.3776378333568573,-11.22945785522461,-0.724978506565094,1.8375811576843262,4.032479763031006,0.28397852182388306,-0.7243281006813049,0.6875126957893372,2.6535258293151855
143,24713,24710,0.004991163499653339,0.03535314276814461,1.048036813735962,0.61375492811203,-10.357499122619629,-0.22430528700351715,1.8392237424850464,4.032320976257324,0.2827167510986328,-0.7165919542312622,0.693082332611084,2.6314845085144043
144,24723,24720,-0.041731614619493484,0.003656041342765093,1.031692385673523,1.3516703844070435,-7.454802989959717,0.17981550097465515,1.8397694826126099,4.031330108642578,0.2832372486591339,-0.6244507431983948,0.696062445640564,2.6286776065826416
145,24733,24730,-0.04656250402331352,-0.030972052365541458,0.9363714456558228,-0.2171763777732849,-6.893828868865967,-0.11685578525066376,1.8407069444656372,4.0317583084106445,0.283742755651474,-0.6079114675521851,0.714769721031189,2.6217360496520996
146,24743,24740,0.10894807428121567,0.4010131359100342,0.9075024724006653,0.8024790287017822,-10.429481506347656,0.760136067867279,1.841235637664795,4.032367706298828,0.28275930881500244,-0.5566666722297668,0.6397926807403564,2.617476463317871
147,24753,24750,0.21594567596912384,-0.10489752888679504,0.8527904152870178,-1.9942492246627808,-9.571586608886719,-0.1619836539030075,1.841427206993103,4.032522201538086,0.28324976563453674,-0.3925479054450989,0.6485120058059692,2.6337521076202393
148,24763,24760,0.12837612628936768,-0.15823934972286224,0.8854085206985474,-3.874966621398926,-10.622709274291992,0.17525674402713776,1.843506932258606,4.03214693069458,0.2834889590740204,-0.34487926959991455,0.702146589756012,2.6309685707092285
149,24773,24770,-0.026172827929258347,0.054609328508377075,0.9780174493789673,-3.9483189582824707,-10.877001762390137,0.24397118389606476,1.844975471496582,4.033093452453613,0.2851281464099884,-0.2357458919286728,0.6463772654533386,2.6279730796813965
150,24783,24780,-0.04437551274895668,-0.007021705154329538,0.9373401999473572,-4.56212854385376,-4.789709091186523,-0.08128952234983444,1.8481701612472534,4.032751083374023,0.28516098856925964,-0.34164074063301086,0.6529498100280762,2.605806589126587
151,24793,24790,0.12416143715381622,0.20055559277534485,0.8915716409683228,-5.3862175941467285,-7.310499668121338,0.3586367070674896,1.8482670783996582,4.033812522888184,0.28545647859573364,-0.16278497874736786,0.5629055500030518,2.6260673999786377
152,24803,24800,0.014476499520242214,0.10544832795858383,0.9270326495170593,-2.0980312824249268,-7.7752227783203125,0.6486542224884033,1.8496570587158203,4.0344977378845215,0.2854670584201813,-0.09542884677648544,0.5045344233512878,2.633333683013916
153,24813,24810,0.04698244482278824,-0.32624495029449463,0.6736406683921814,-4.262188911437988,-5.337736129760742,-0.2801430821418762,1.8509219884872437,4.0359110832214355,0.2848791778087616,0.02554783970117569,0.4737280309200287,2.652141571044922
154,24823,24820,0.05023818090558052,-0.14884808659553528,0.939208984375,-4.8263678550720215,-5.4286675453186035,-0.4484679698944092,1.8520108461380005,4.036611080169678,0.2845730781555176,0.10301702469587326,0.411547988653183,2.6503336429595947
155,24833,24830,-0.005440943408757448,-0.0028232212644070387,0.9880116581916809,-3.4963459968566895,-6.155789375305176,-0.010432302951812744,1.8536823987960815,4.0356340408325195,0.2840786576271057,0.1525580883026123,0.5046969652175903,2.6394340991973877
156,24843,24840,-0.04433806613087654,-0.1425255835056305,0.9646773934364319,-3.602983236312866,-5.530153751373291,-0.33565017580986023,1.8522673845291138,4.03595495223999,0.28339362144470215,0.42995402216911316,0.4383170008659363,2.66817307472229
157,24853,24850,0.026796206831932068,-0.2144838571548462,0.943476676940918,-2.5496182441711426,-3.1398656368255615,-0.1533406376838684,1.8547606468200684,4.036149501800537,0.2828255593776703,0.36781227588653564,0.45305123925209045,2.658557415008545
158,24863,24860,-0.0720132440328598,-0.07446728646755219,1.0649677515029907,-3.710538864135742,-2.4203412532806396,0.48686814308166504,1.8559728860855103,4.036208629608154,0.2822055518627167,0.31962937116622925,0.38214269280433655,2.6586086750030518
159,24873,24870,-0.06485681235790253,0.043262891471385956,1.0179429054260254,-2.8219075202941895,-2.791750192642212,0.6445630788803101,1.8558837175369263,4.035776138305664,0.28262457251548767,0.485236793756485,0.3136533796787262,2.6786701679229736
160,24883,24880,-0.03102044016122818,-0.1850891411304474,0.9435076117515564,-3.3127377033233643,1.1208561658859253,-0.21275046467781067,1.856257438659668,4.0368499755859375,0.28228500485420227,0.6352041959762573,0.2602608799934387,2.7016828060150146
161,24893,24890,0.04548611864447594,-0.012861947529017925,0.9420146942138672,-3.3855416774749756,2.563776969909668,0.34069907665252686,1.8570258617401123,4.037385940551758,0.2818296253681183,0.60276198387146,0.20197579264640808,2.708033561706543
162,24903,24900,0.09235402941703796,0.1709626466035843,0.9002186059951782,-3.2424099445343018,3.77415132522583,0.1155266985297203,1.8586559295654297,4.037688255310059,0.28131937980651855,0.5198235511779785,0.21510937809944153,2.7104318141937256
163,24913,24910,0.007112665101885796,-0.07145106792449951,0.9478020668029785,-1.2846165895462036,3.869182586669922,0.059563711285591125,1.860146403312683,4.03729248046875,0.28200337290763855,0.439200758934021,0.17410778999328613,2.7043468952178955
164,24923,24920,-0.003347164485603571,-0.12244297564029694,1.0146679878234863,-0.2117549031972885,0.949394166469574,0.4983341693878174,1.8599580526351929,4.037134170532227,0.28156501054763794,0.5027883648872375,0.15346857905387878,2.6971490383148193
165,24933,24930,0.047796882688999176,-0.11198291182518005,1.0355472564697266,-1.051782488822937,3.119999647140503,0.18952897191047668,1.8610230684280396,4.035985946655273,0.2810620367527008,0.5040172338485718,0.21897299587726593,2.6914641857147217
166,24943,24940,0.1002555638551712,0.054765377193689346,1.0724326372146606,-1.304423451423645,-3.8386073112487793,0.35500094294548035,1.8621242046356201,4.035492897033691,0.28162190318107605,0.4769423305988312,0.26653027534484863,2.696719169616699
167,24953,24950,0.012434489093720913,0.08566232025623322,1.0267119407653809,0.15310126543045044,-5.612795829772949,0.45695820450782776,1.8637100458145142,4.036656379699707,0.28116708993911743,0.4210585653781891,0.25080686807632446,2.699100971221924
168,24963,24960,-0.08979833126068115,0.3154648542404175,1.2005842924118042,-3.2405128479003906,-5.514203071594238,0.6787480711936951,1.8633993864059448,4.037975311279297,0.2810235321521759,0.5559319853782654,0.048342201858758926,2.7415804862976074
169,24973,24970,-0.05074916407465935,0.175840362906456,1.1988263130187988,-3.3247201442718506,-2.9985220432281494,0.002336246659979224,1.8649674654006958,4.037481784820557,0.28332552313804626,0.6153134703636169,0.14116819202899933,2.718688726425171
170,24983,24980,-0.05892370641231537,0.15420059859752655,1.0871282815933228,-4.983840465545654,0.306693434715271,-0.1828998178243637,1.8662396669387817,4.0379204750061035,0.28341564536094666,0.535165011882782,0.058581333607435226,2.744213581085205
171,24993,24990,0.01088879443705082,-0.1351093202829361,0.9753638505935669,-1.8799328804016113,4.172211170196533,-0.17500358819961548,1.8661468029022217,4.036681652069092,0.2838306725025177,0.6250880360603333,0.06235221400856972,2.739805221557617
172,25003,25000,0.02601984143257141,-0.20359840989112854,0.9748603701591492,-2.1724812984466553,5.29170560836792,-0.45024576783180237,1.86556077003479,4.037508010864258,0.28383487462997437,0.6166408658027649,0.011946951039135456,2.743910074234009
173,25013,25010,0.022337647154927254,-0.04852303862571716,1.0551042556762695,-1.4712733030319214,9.882676124572754,-1.682464599609375,1.8667442798614502,4.037069320678711,0.28688928484916687,0.46155276894569397,-0.03606601431965828,2.7450337409973145
174,25023,25020,-0.027483373880386353,-0.16907332837581635,1.0144318342208862,-2.3706276416778564,8.453500747680664,-0.6923016309738159,1.8684613704681396,4.037652492523193,0.2872757315635681,0.29101279377937317,-0.06983715295791626,2.7253143787384033
175,25033,25030,0.02516653575003147,-0.020603500306606293,1.010805368423462,-1.0536651611328125,8.35176944732666,-0.13557204604148865,1.868279218673706,4.036957740783691,0.28781992197036743,0.2752244472503662,-0.10956414043903351,2.7331624031066895
176,25043,25040,0.10873639583587646,0.12527142465114594,0.9822217226028442,-0.9356392025947571,-1.6735644340515137,-0.27602073550224304,1.8686225414276123,4.037590980529785,0.29174670577049255,0.3058948814868927,-0.12846791744232178,2.7500247955322266
177,25053,25050,0.03688260167837143,0.08086588233709335,1.072067379951477,0.017754897475242615,-5.442868709564209,-0.7891860604286194,1.8701553344726562,4.038456916809082,0.2924014925956726,0.24645890295505524,-0.13674667477607727,2.7470850944519043
178,25063,25060,0.004408504813909531,0.07644599676132202,1.0811867713928223,1.4346129894256592,-3.7456862926483154,-1.4610669612884521,1.870275855064392,4.037219524383545,0.29324644804000854,0.35977399349212646,0.019067879766225815,2.7146875858306885
179,25073,25070,-0.04964404180645943,0.16612881422042847,1.1019271612167358,2.1679179668426514,-5.9662370681762695,-0.2951778471469879,1.872302532196045,4.037294387817383,0.2959548532962799,0.26704534888267517,0.02344619296491146,2.698371410369873
180,25083,25080,-0.05088385194540024,0.02495606429874897,1.1101222038269043,1.9794121980667114,-3.4791533946990967,0.0123231690376997,1.8704267740249634,4.037155628204346,0.2972196042537689,0.5533080697059631,-0.032375022768974304,2.696782112121582
181,25093,25090,0.05105583742260933,-0.0037107509560883045,1.033008337020874,-0.3218672573566437,-2.7692346572875977,-0.3352906107902527,1.8716566562652588,4.037428855895996,0.29832080006599426,0.5155770778656006,-0.03538871183991432,2.7007622718811035
182,25103,25100,-0.028160816058516502,0.1758328527212143,1.0012435913085938,-1.1014552116394043,-0.7575786709785461,-0.09738832712173462,1.872373342514038,4.037876605987549,0.30166569352149963,0.539678692817688,-0.061731092631816864,2.6959571838378906
183,25113,25110,-0.020245548337697983,0.12205694615840912,0.9444679617881775,-2.834416151046753,3.0495355129241943,-0.4860701560974121,1.8746531009674072,4.0383076667785645,0.30292120575904846,0.31562089920043945,-0.09549111872911453,2.7097575664520264
184,25123,25120,0.023632053285837173,0.07750698924064636,0.9574452638626099,-1.0180610418319702,6.586287975311279,-0.3764140009880066,1.8764457702636719,4.038563251495361,0.304134726524353,0.15468303859233856,-0.13265351951122284,2.704263687133789
185,25133,25130,0.060427889227867126,-0.10023067146539688,0.9873975515365601,-1.8365558385849,7.697239875793457,0.26332521438598633,1.8761712312698364,4.038168907165527,0.3054318130016327,0.11715082824230194,-0.16050098836421967,2.704453468322754
186,25143,25140,0.05837498977780342,-0.016889138147234917,0.8992905020713806,-0.897584080696106,3.7203166484832764,0.6185186505317688,1.8764278888702393,4.037963390350342,0.3071770966053009,0.12011368572711945,-0.18213596940040588,2.692326068878174
187,25153,25150,0.17795728147029877,0.13169683516025543,1.0068461894989014,-4.785789966583252,7.752067565917969,-1.6350921392440796,1.8770421743392944,4.037923812866211,0.30836400389671326,0.05646579712629318,-0.19122156500816345,2.7118477821350098
188,25163,25160,-0.03766829892992973,0.6089541912078857,1.0904213190078735,0.5402683615684509,0.25264889001846313,-1.1016535758972168,1.8779559135437012,4.038667678833008,0.3095487356185913,0.0339948907494545,-0.21577244997024536,2.7121527194976807
189,25173,25170,-0.038189224898815155,0.2109609991312027,0.927344799041748,3.5460145473480225,-5.5630974769592285,-0.47985634207725525,1.8791325092315674,4.038984775543213,0.3104262351989746,0.007881103083491325,-0.25992700457572937,2.7125930786132812
190,25183,25180,0.032957885414361954,-0.1846591830253601,0.8387614488601685,4.236578464508057,0.33584073185920715,-1.5882651805877686,1.8794372081756592,4.039543628692627,0.31175509095191956,0.2110246866941452,-0.15035083889961243,2.7156145572662354
191,25193,25190,-0.11174007505178452,-0.03225160762667656,0.9095204472541809,4.224118232727051,0.12435668706893921,-1.2427054643630981,1.8793137073516846,4.039074897766113,0.312976211309433,0.32088741660118103,-0.08110029995441437,2.67850399017334
192,25203,25200,-0.12166338413953781,0.27159515023231506,1.0357857942581177,4.77843713760376,2.9993698596954346,-1.4575185775756836,1.8807718753814697,4.038900852203369,0.314656138420105,0.15246166288852692,-0.11094789952039719,2.6744329929351807
193,25213,25210,-0.05862030014395714,0.3536856770515442,0.9388233423233032,1.5357975959777832,4.172577381134033,-1.9017255306243896,1.880788803100586,4.037128925323486,0.31570732593536377,0.1282842457294464,-0.011208578944206238,2.62947416305542
194,25223,25220,0.08848702162504196,0.47880038619041443,0.9345771074295044,1.954919457435608,4.990786552429199,-1.9403742551803589,1.8813198804855347,4.038398742675781,0.3167249262332916,0.10008136928081512,-0.12785577774047852,2.62522554397583
195,25233,25230,0.1018049567937851,-0.01750362478196621,0.8787019848823547,1.5854665040969849,6.18842887878418,-2.047085762023926,1.8815326690673828,4.037170886993408,0.31768599152565,0.11540514975786209,-0.0541573204100132,2.583911657333374
196,25243,25240,0.010617274791002274,-0.2169191688299179,0.846721351146698,0.5722548365592957,6.576177597045898,-1.8200054168701172,1.8812681436538696,4.037041187286377,0.3176489472389221,0.13235236704349518,-0.06756044924259186,2.56925892829895
197,25253,25250,-0.02316797524690628,-0.025503329932689667,0.8987413048744202,-0.7166939973831177,7.366189956665039,-2.0942327976226807,1.8813543319702148,4.0376434326171875,0.31835615634918213,0.08970999717712402,-0.05845461040735245,2.567040205001831
198,25263,25260,-0.20880189538002014,0.18375663459300995,0.9963759183883667,-0.5921823382377625,6.848480224609375,-3.232452869415283,1.8829478025436401,4.037741661071777,0.3189637362957001,-0.03499278426170349,-0.07312171161174774,2.556777000427246
199,25273,25270,-0.09890864789485931,0.29829442501068115,0.9629753232002258,1.537624478340149,8.168550491333008,-2.562807321548462,1.883143663406372,4.038183689117432,0.3217044770717621,-0.0981530174612999,-0.04174770042300224,2.526845932006836
200,25283,25280,0.044474270194768906,0.5279669165611267,0.8797516822814941,0.8205435872077942,10.061047554016113,-3.3650829792022705,1.884395956993103,4.038204669952393,0.3222760558128357,-0.33935603499412537,-0.04221932962536812,2.501453161239624
201,25293,25290,-0.03210053965449333,0.12259162217378616,0.9239749312400818,2.4327805042266846,9.055529594421387,-2.729628086090088,1.884338617324829,4.037748336791992,0.32288023829460144,-0.43257835507392883,-0.007348852232098579,2.4544994831085205
202,25303,25300,-0.013419813476502895,0.0002722759381867945,0.955490231513977,2.855940341949463,6.14670467376709,-2.2895660400390625,1.885069489479065,4.037003040313721,0.3271706700325012,-0.475608229637146,0.04940347746014595,2.426011800765991
203,25313,25310,0.012898853980004787,-0.1706766039133072,0.8571747541427612,4.823037147521973,-4.954190254211426,-1.8182411193847656,1.8846280574798584,4.035606384277344,0.3284206986427307,-0.30109676718711853,0.13591516017913818,2.380293607711792
204,25323,25320,-0.08171672374010086,-0.1869508922100067,0.820363461971283,3.1811137199401855,-3.4206254482269287,-2.434278726577759,1.8834428787231445,4.03511381149292,0.32848602533340454,-0.07804066687822342,0.24579672515392303,2.352663040161133
205,25333,25330,-0.214229017496109,0.38071295619010925,0.9212576150894165,0.8791963458061218,1.9067832231521606,-2.715118408203125,1.884475827217102,4.035739421844482,0.3302552103996277,-0.13363881409168243,0.19881154596805573,2.3440821170806885
206,25343,25340,-0.23889966309070587,0.31895023584365845,1.0430271625518799,-1.1811825037002563,6.411627292633057,-2.2382593154907227,1.8869447708129883,4.036211013793945,0.3308694064617157,-0.3892510235309601,0.15240134298801422,2.3193085193634033
207,25353,25350,-0.08288991451263428,0.2802640199661255,1.056447148323059,-2.439047336578369,9.368123054504395,-1.9943923950195312,1.8877577781677246,4.037318706512451,0.33085528016090393,-0.5062379837036133,0.0826236829161644,2.3158016204833984
208,25363,25360,0.10962801426649094,0.2134864181280136,0.9051696062088013,-2.8636441230773926,12.260713577270508,-1.824581265449524,1.888430118560791,4.036310195922852,0.3311251401901245,-0.6589669585227966,0.029990915209054947,2.2792601585388184
209,25373,25370,0.07749680429697037,0.006391963455826044,0.880837619304657,-2.820446252822876,4.61129903793335,-2.356961488723755,1.888965129852295,4.036893367767334,0.33333271741867065,-0.7905351519584656,-0.009213930927217007,2.2593436241149902
210,25383,25380,-0.13337408006191254,0.4726158380508423,1.0089200735092163,0.7807707190513611,-3.8292934894561768,-2.2939870357513428,1.8893884420394897,4.035843372344971,0.33404508233070374,-0.721314549446106,-0.04025913402438164,2.2029218673706055
211,25393,25390,-0.009394756518304348,0.11189182102680206,0.9247367978096008,2.7934441566467285,-4.109709739685059,-2.250791072845459,1.8891183137893677,4.035521030426025,0.3340941369533539,-0.6408658623695374,0.03558355197310448,2.1843221187591553
212,25403,25400,0.057478778064250946,-0.14290332794189453,0.8436849117279053,7.054827690124512,-7.063307762145996,-1.6051808595657349,1.8903172016143799,4.035993576049805,0.3379376530647278,-0.5721980929374695,0.06977428495883942,2.173816204071045
213,25413,25410,0.019571542739868164,-0.1647941619157791,0.8578565716743469,7.724272727966309,-6.158956527709961,-1.3280339241027832,1.8899279832839966,4.0349836349487305,0.3384307026863098,-0.3791787028312683,0.18735069036483765,2.1548776626586914
214,25423,25420,0.06745767593383789,-0.11370963603258133,0.7838062644004822,4.220120906829834,-5.204045295715332,-1.7804605960845947,1.8904297351837158,4.035573959350586,0.33870241045951843,-0.3573307991027832,0.22759605944156647,2.1386640071868896
215,25433,25430,-0.06365644186735153,0.07101601362228394,0.9686529636383057,0.18949545919895172,1.3129334449768066,-2.445376396179199,1.8897733688354492,4.034791946411133,0.3387943506240845,-0.30031055212020874,0.24180810153484344,2.1147336959838867
216,25443,25440,-0.048074301332235336,0.7835640907287598,1.0627192258834839,0.20468926429748535,4.7171406745910645,-1.3920574188232422,1.8919070959091187,4.036096572875977,0.33664271235466003,-0.48727184534072876,0.13047915697097778,2.1200172901153564
217,25453,25450,0.13109205663204193,0.46529287099838257,0.9798603653907776,0.007164728827774525,5.937340259552002,-2.276190996170044,1.8937004804611206,4.039161682128906,0.3364337086677551,-0.580571174621582,0.07150857150554657,2.1233365535736084
218,25463,25460,0.10374993830919266,-0.019837334752082825,0.9220471978187561,-1.2516670227050781,4.229406833648682,-2.6457901000976562,1.893716812133789,4.039106369018555,0.3363054096698761,-0.5791134834289551,0.0774732232093811,2.0982067584991455
219,25473,25470,0.01918560452759266,0.2889691889286041,0.9158936142921448,-0.4375537633895874,0.18204577267169952,-2.5806286334991455,1.8952473402023315,4.039918899536133,0.3385133445262909,-0.6286078691482544,0.08247771859169006,2.0843005180358887
220,25483,25480,-0.07272573560476303,0.32887423038482666,0.8357787728309631,0.9096881151199341,-1.3004891872406006,-1.9223854541778564,1.8959851264953613,4.040169715881348,0.33834823966026306,-0.5599856376647949,0.11660383641719818,2.08139967918396
221,25493,25490,-0.11387564241886139,0.0011322073405608535,0.9326497912406921,2.266021728515625,-1.750083327293396,-2.3019466400146484,1.8978902101516724,4.040168762207031,0.3379673659801483,-0.6351693272590637,0.18502360582351685,2.0629332065582275
222,25503,25500,-0.08809442073106766,0.6267662048339844,0.9579679369926453,3.7121052742004395,-1.0372278690338135,-1.8323324918746948,1.8979564905166626,4.040598392486572,0.335679292678833,-0.5641942620277405,0.18363575637340546,2.0335581302642822
223,25513,25510,-0.12329718470573425,0.5646727681159973,1.0410407781600952,2.478583812713623,-1.6834932565689087,-1.4925706386566162,1.898017406463623,4.0404205322265625,0.3351215720176697,-0.5102854371070862,0.15491175651550293,2.0041451454162598
224,25523,25520,-0.12720432877540588,0.1899079978466034,1.0245871543884277,3.024510145187378,-0.9161339402198792,-1.64211106300354,1.8981223106384277,4.040916919708252,0.33459052443504333,-0.45767831802368164,0.13128149509429932,1.9885618686676025
225,25533,25530,-0.11211156100034714,0.2227083295583725,1.0740947723388672,3.638397693634033,-1.0087565183639526,-1.400252103805542,1.8984280824661255,4.040682315826416,0.33476492762565613,-0.3643549680709839,0.1954607516527176,1.9754769802093506
226,25543,25540,-0.07192594558000565,0.210420161485672,1.074076533317566,1.8563228845596313,-1.839194655418396,-0.8983563780784607,1.899240493774414,4.0404372215271,0.33432987332344055,-0.3657725155353546,0.26920172572135925,1.963381290435791
227,25553,25550,-0.05571313947439194,0.3806556761264801,1.0683379173278809,3.989673137664795,0.14431539177894592,-1.147057294845581,1.900336503982544,4.040298938751221,0.33393481373786926,-0.42153412103652954,0.23875580728054047,1.9227321147918701
228,25563,25560,-0.10946519672870636,0.7599291205406189,1.0457823276519775,4.365488529205322,-1.6243654489517212,-0.8729074597358704,1.9027488231658936,4.04257345199585,0.3336103558540344,-0.510757565498352,0.1696196049451828,1.9414241313934326
229,25573,25570,-0.10737375169992447,0.5174656510353088,1.0196436643600464,5.6050944328308105,-5.203876972198486,-0.9540506601333618,1.9036060571670532,4.043542385101318,0.3327817916870117,-0.47548508644104004,0.29731160402297974,1.96450936794281
230,25583,25580,0.07079635560512543,0.006383797619491816,0.9215951561927795,3.5118393898010254,-1.7880339622497559,-2.3021774291992188,1.9048130512237549,4.043335437774658,0.3325377106666565,-0.4582922160625458,0.3781610429286957,1.9702281951904297
231,25593,25590,0.015680769458413124,-0.0320533812046051,0.9998199343681335,2.67006254196167,-4.123567581176758,-1.5611079931259155,1.9055801630020142,4.044337749481201,0.33217334747314453,-0.45215731859207153,0.3711462914943695,1.9507627487182617
232,25603,25600,0.09196992218494415,0.1417120397090912,0.9471739530563354,2.0673060417175293,-2.8893649578094482,-1.5407963991165161,1.9066619873046875,4.045657157897949,0.33148226141929626,-0.4546412229537964,0.36573779582977295,1.9602564573287964
233,25613,25610,0.11778708547353745,0.4473533034324646,0.9535560011863708,0.7079010009765625,-3.337156295776367,-1.8916741609573364,1.9091901779174805,4.0466461181640625,0.33095473051071167,-0.5630268454551697,0.3388274312019348,1.9158560037612915
234,25623,25620,-0.05591581389307976,0.354035884141922,0.9280208349227905,0.35343459248542786,-6.39126443862915,-1.316574215888977,1.9093067646026611,4.0462799072265625,0.3305969834327698,-0.4474002718925476,0.3833179771900177,1.9248099327087402
235,25633,25630,0.08268100768327713,-0.026084544137120247,0.8771428465843201,2.336526870727539,-11.037628173828125,-0.4825765788555145,1.908429503440857,4.0449981689453125,0.3265213668346405,-0.16248783469200134,0.45035138726234436,1.9160420894622803
236,25643,25640,0.06346481293439865,-0.15875127911567688,0.8664759397506714,1.8362928628921509,-7.473667144775391,-0.7751607298851013,1.909604787826538,4.0446953773498535,0.32571181654930115,-0.14550386369228363,0.5126782655715942,1.898425817489624
237,25653,25650,-0.04226110130548477,-0.05402044206857681,0.966339111328125,2.432976007461548,-7.453876972198486,-0.23354756832122803,1.9114898443222046,4.045238971710205,0.3247973322868347,-0.15628749132156372,0.5634341835975647,1.9131536483764648
238,25663,25660,0.03128555044531822,-0.12365100532770157,0.8968455195426941,0.29254913330078125,-3.3453378677368164,-0.4890342056751251,1.9121071100234985,4.0449748039245605,0.3242362141609192,-0.05681721121072769,0.5981255173683167,1.889101505279541
239,25673,25670,-0.004592679440975189,-0.0162956565618515,0.9831905961036682,-2.153092861175537,-1.6207410097122192,-1.0189458131790161,1.912280559539795,4.045730113983154,0.3232836425304413,0.06019684299826622,0.5166960954666138,1.899183988571167
240,25683,25680,-0.029240082949399948,0.11696047335863113,1.0004804134368896,-3.950806140899658,1.436638355255127,-0.5906615257263184,1.912862777709961,4.044816970825195,0.32220861315727234,0.07644163072109222,0.4822808504104614,1.8700226545333862
