,timestamp_start,timestamp_end,acc.x,acc.y,acc.z,gyro.x,gyro.y,gyro.z,stateEstimate.x,stateEstimate.y,stateEstimate.z,stabilizer.pitch,stabilizer.roll,stabilizer.yaw
0,22718,22715,-0.0203287061303854,-0.06494620442390442,1.1321473121643066,0.08510718494653702,13.322940826416016,4.775759696960449,1.85786771774292,3.987687587738037,0.15424078702926636,-0.5547167062759399,0.18744416534900665,4.453104019165039
1,22728,22725,0.012416108511388302,-0.04631742462515831,1.1170768737792969,0.6198130249977112,10.116385459899902,4.267832279205322,1.8584668636322021,3.9901692867279053,0.15557244420051575,-0.840169370174408,0.10332310199737549,4.479384422302246
2,22738,22735,0.00458377692848444,-0.011353171430528164,1.1494555473327637,-0.7691981196403503,8.40280818939209,4.285038471221924,1.8560898303985596,3.991551637649536,0.15721607208251953,-1.044644832611084,0.11075721681118011,4.520481109619141
3,22748,22745,-0.035445116460323334,-0.002261773217469454,1.181172251701355,-1.9193804264068604,5.171557426452637,4.412164211273193,1.8562639951705933,3.9938180446624756,0.15854401886463165,-1.1224108934402466,0.171413391828537,4.580588340759277
4,22758,22755,0.012307167053222656,-0.05288553610444069,1.1715312004089355,-2.0094661712646484,1.0293347835540771,3.716963052749634,1.8560080528259277,3.9931387901306152,0.16025680303573608,-1.2919083833694458,-0.15156659483909607,4.534108638763428
5,22768,22765,0.043351996690034866,-0.025943314656615257,1.103941559791565,-1.4594565629959106,-1.1208349466323853,4.373785018920898,1.8541011810302734,3.994659423828125,0.1622837334871292,-1.3690783977508545,-0.13899363577365875,4.586865425109863
6,22778,22775,0.02367965131998062,0.029477283358573914,1.1173392534255981,2.455521821975708,-4.199339866638184,3.954983711242676,1.8533259630203247,3.9940528869628906,0.16434060037136078,-1.4546442031860352,-0.10470934212207794,4.642337322235107
7,22788,22785,-0.032736316323280334,0.0700831189751625,1.158943772315979,5.813657283782959,-6.830909729003906,3.0253446102142334,1.852657437324524,3.9929161071777344,0.16910503804683685,-1.3438721895217896,0.11268505454063416,4.758628845214844
8,22798,22795,-0.04870550334453583,0.12243936210870743,1.1070104837417603,6.442107677459717,-8.056866645812988,1.837695598602295,1.8524796962738037,3.993317127227783,0.1717696636915207,-1.3265188932418823,0.20005932450294495,4.800747394561768
9,22808,22805,0.022795595228672028,0.008887862786650658,1.1721607446670532,4.838780879974365,-8.045493125915527,0.8916674256324768,1.8499096632003784,3.9917473793029785,0.17427955567836761,-1.153261423110962,0.2165575474500656,4.808465480804443
10,22818,22815,0.012776846066117287,-0.039280325174331665,1.0251368284225464,2.4447686672210693,-6.05111026763916,0.138717383146286,1.8479400873184204,3.991575241088867,0.17842575907707214,-1.1251860857009888,0.3486174941062927,4.852499485015869
11,22828,22825,0.03937094286084175,-0.017865337431430817,1.026139736175537,-1.7971959114074707,-3.6100099086761475,-0.13004371523857117,1.8445179462432861,3.9920623302459717,0.18128420412540436,-0.9788903594017029,0.2981340289115906,4.823618412017822
12,22838,22835,0.01259975228458643,-0.02831440046429634,1.0279232263565063,-6.055157661437988,-1.1065350770950317,-0.6947530508041382,1.842189073562622,3.994004249572754,0.18428143858909607,-1.0264244079589844,0.32675620913505554,4.83217191696167
13,22848,22845,0.002406617160886526,-0.018939560279250145,1.0167828798294067,-6.661027431488037,-0.3101240396499634,-0.6967900395393372,1.8422678709030151,3.9937689304351807,0.18719372153282166,-1.1534264087677002,0.23048610985279083,4.802111625671387
14,22858,22855,0.02360755391418934,-0.09291627258062363,0.9821949005126953,-7.667967796325684,0.5241638422012329,-0.9814280271530151,1.8450249433517456,3.9956138134002686,0.19024862349033356,-1.206746220588684,0.39336851239204407,4.87667989730835
15,22868,22865,0.017146101221442223,-0.1398472636938095,1.0585284233093262,-5.84108829498291,-1.544813871383667,-1.8011497259140015,1.8431111574172974,3.993659496307373,0.19327349960803986,-1.0469467639923096,0.16759610176086426,4.825690269470215
16,22878,22875,0.0699884369969368,-0.03190097585320473,0.974486768245697,-3.9649620056152344,-3.727041721343994,-2.3485758304595947,1.842467188835144,3.9975967407226562,0.1964382827281952,-1.0053434371948242,0.19967369735240936,4.848455905914307
17,22888,22885,0.03789941594004631,-0.008773730136454105,0.9557932615280151,-3.9647138118743896,-6.975003719329834,-2.918154239654541,1.842333436012268,3.996518611907959,0.1994829773902893,-1.0295767784118652,0.05082404986023903,4.775610446929932
18,22898,22895,0.025416307151317596,-0.01746537536382675,0.963309109210968,-2.490431785583496,-7.5473833084106445,-2.931485891342163,1.842651128768921,3.999006509780884,0.2025933414697647,-1.09334135055542,0.5746167898178101,4.949200630187988
19,22908,22905,-0.0599750317633152,-0.021587353199720383,1.0173760652542114,-1.9738941192626953,-8.130816459655762,-4.722683429718018,1.8432008028030396,3.9950802326202393,0.20542797446250916,-1.0654734373092651,0.4391545057296753,4.881010055541992
20,22918,22915,0.00888821016997099,-0.0377475768327713,0.9273321032524109,-5.183046817779541,-8.289249420166016,-5.034333229064941,1.8433820009231567,3.9951469898223877,0.20983201265335083,-1.0099692344665527,0.38131648302078247,4.825525760650635
21,22928,22925,0.01731344312429428,0.012579018250107765,0.9620537757873535,-11.249505996704102,-8.171798706054688,-5.254310607910156,1.8435862064361572,3.9948437213897705,0.21292263269424438,-0.9412371516227722,0.11375967413187027,4.672387599945068
22,22938,22935,-0.0035433995071798563,-0.010773956775665283,0.937036395072937,-14.65759563446045,-8.234199523925781,-4.817942142486572,1.8441493511199951,3.994300127029419,0.2160940021276474,-0.8010775446891785,0.1118660643696785,4.623879432678223
23,22948,22945,-0.01157069206237793,0.009023020975291729,0.9566332101821899,-16.14630889892578,-8.804950714111328,-4.625421047210693,1.8434255123138428,3.993454694747925,0.21871589124202728,-0.8220217823982239,-0.10807140916585922,4.595767498016357
24,22958,22955,0.048189930617809296,-0.0831722766160965,0.9409523606300354,-14.567546844482422,-8.827227592468262,-5.119991302490234,1.8421610593795776,3.99312686920166,0.22164317965507507,-0.7529124617576599,-0.40605592727661133,4.5059003829956055
25,22968,22965,0.09269930422306061,-0.04532650113105774,0.8680254220962524,-10.3140287399292,-7.936537742614746,-4.930270195007324,1.842298150062561,3.993943452835083,0.2244579941034317,-0.6130568981170654,-0.5878732800483704,4.451928615570068
26,22978,22975,0.043287813663482666,0.07951968163251877,0.8908145427703857,-2.722891092300415,-8.056285858154297,-4.89316987991333,1.8427683115005493,3.9944331645965576,0.22646164894104004,-0.4950776994228363,-0.7585610747337341,4.390052318572998
27,22988,22985,-0.027025459334254265,0.09914781153202057,0.8801299929618835,3.6828882694244385,-7.326206684112549,-5.002223014831543,1.8421642780303955,3.9948573112487793,0.22903993725776672,-0.36288249492645264,-0.8024348020553589,4.3422346115112305
28,22998,22995,0.009362385608255863,0.00024981217575259507,0.9016402959823608,9.578289031982422,-6.435872554779053,-5.1533074378967285,1.839938998222351,3.9939658641815186,0.23156368732452393,-0.24379390478134155,-0.7354127168655396,4.301785469055176
29,23008,23005,0.028861409053206444,-0.002579947467893362,0.8703439235687256,11.988350868225098,-3.2222182750701904,-5.873281478881836,1.8394132852554321,3.9920408725738525,0.23397144675254822,-0.16164977848529816,-0.8121869564056396,4.218725681304932
30,23018,23015,0.05056902766227722,-0.0777064636349678,0.8570306301116943,10.957281112670898,-2.601807117462158,-5.695222854614258,1.8391059637069702,3.9932937622070312,0.23447395861148834,0.025844015181064606,-1.0510257482528687,4.0855937004089355
31,23028,23025,0.024021215736865997,-0.01759643666446209,0.9281466603279114,9.51202392578125,-0.9829955697059631,-4.735620021820068,1.8361247777938843,3.9956252574920654,0.23615926504135132,-0.11513084918260574,-0.32594209909439087,4.149855613708496
32,23038,23035,0.013589160516858101,-0.05356984585523605,0.9468288421630859,8.630990982055664,-0.5586915016174316,-5.25552225112915,1.836638331413269,3.989738702774048,0.23954643309116364,-2.23952054977417,-0.6903746724128723,4.160908222198486
33,23048,23045,-0.04500587657094002,-0.09944159537553787,1.0133779048919678,4.881072044372559,0.8231534361839294,-6.6744585037231445,1.8538844585418701,3.993952751159668,0.24016758799552917,-1.9753292798995972,-0.6072213053703308,4.095550537109375
34,23058,23055,-0.1384839564561844,-0.05125357583165169,0.9691365361213684,1.213881015777588,-8.522055625915527,-6.305963039398193,1.8537719249725342,3.9955179691314697,0.24364019930362701,-1.709777593612671,-0.4637399911880493,3.966092586517334
35,23068,23065,-0.020468777045607567,0.07788591831922531,0.9465029239654541,-0.3528802990913391,-22.447391510009766,-5.698699951171875,1.8561394214630127,3.9998788833618164,0.24666760861873627,-1.5131850242614746,-0.4330003261566162,3.959141492843628
36,23078,23075,0.019132014364004135,0.0905194953083992,0.9790980815887451,-0.1640194207429886,-37.375160217285156,-5.645055294036865,1.8571494817733765,4.001468181610107,0.2500268816947937,-1.0736669301986694,-0.4795304238796234,3.8691043853759766
37,23088,23085,0.004606032278388739,0.06440392881631851,0.9973058104515076,3.3039472103118896,-49.88554763793945,-5.302893161773682,1.8562589883804321,4.003073215484619,0.2527311146259308,-0.3548067808151245,-0.4323725402355194,3.796778678894043
38,23098,23095,0.012543386779725552,0.004137981683015823,0.9600554704666138,7.235996723175049,-53.03379821777344,-4.404778003692627,1.8542871475219727,4.0049920082092285,0.2554488182067871,-0.07806198298931122,-0.33416587114334106,3.778224468231201
39,23108,23105,-0.005843762774020433,-0.004755984991788864,0.9416836500167847,9.099112510681152,-45.30390167236328,-3.7371580600738525,1.8555043935775757,4.003687381744385,0.2582739293575287,0.5206854343414307,-0.33672234416007996,3.7166271209716797
40,23118,23115,-0.007824283093214035,-0.030923061072826385,0.96247398853302,8.255422592163086,-32.141021728515625,-3.6450955867767334,1.8555723428726196,4.0056915283203125,0.26031413674354553,1.0582308769226074,-0.23614710569381714,3.677694320678711
41,23128,23125,-0.009881721809506416,0.012085978873074055,0.904373049736023,6.511221408843994,-14.888947486877441,-3.7812459468841553,1.8558213710784912,4.004015922546387,0.26226601004600525,1.5033706426620483,-0.1488618403673172,3.637343168258667
42,23138,23135,0.03848609700798988,0.005323837511241436,0.924845278263092,4.921140670776367,-1.7162131071090698,-4.032326698303223,1.8577450513839722,4.005800724029541,0.2641277015209198,1.8098464012145996,-0.021932201460003853,3.5935685634613037
43,23148,23145,-0.012068931013345718,0.0046072970144450665,0.944798469543457,2.2370171546936035,8.31230354309082,-3.6272695064544678,1.859053611755371,4.0065155029296875,0.2637779414653778,1.9173246622085571,0.0027290245052427053,3.549476385116577
44,23158,23155,-0.08476471155881882,0.11406225711107254,0.8948033452033997,0.15374554693698883,12.625849723815918,-3.4386730194091797,1.8579431772232056,4.006829738616943,0.265379399061203,1.949465036392212,-0.003767886431887746,3.508179187774658
45,23168,23165,-0.04987212270498276,0.12107674032449722,0.867120087146759,-0.2543126046657562,12.610518455505371,-3.3237082958221436,1.858394742012024,4.008049964904785,0.26702556014060974,1.8087385892868042,0.040212325751781464,3.463212490081787
46,23178,23175,0.0026000498328357935,-0.0026657627895474434,0.9011415839195251,0.6107177138328552,8.79881763458252,-3.8375418186187744,1.8569848537445068,4.007111072540283,0.26722821593284607,1.8126832246780396,0.0638706386089325,3.4217050075531006
47,23188,23185,0.01598181575536728,-0.029190534725785255,0.922380805015564,2.485990524291992,3.6464717388153076,-3.6143295764923096,1.8554433584213257,4.007013320922852,0.2684633731842041,1.7315460443496704,0.10809888690710068,3.3773252964019775
48,23198,23195,0.03868471831083298,-0.009932614862918854,0.9346767663955688,4.182345390319824,-1.2923848628997803,-3.403830051422119,1.8519210815429688,4.007197856903076,0.2697153091430664,1.8713405132293701,0.1693490594625473,3.3394687175750732
49,23208,23205,-0.016424786299467087,-0.03489013388752937,0.9650312066078186,5.434227466583252,-4.942309856414795,-3.403372049331665,1.849343180656433,4.006171703338623,0.2697801887989044,1.912591576576233,0.256381094455719,3.2976577281951904
50,23218,23215,-0.034046318382024765,0.018947748467326164,0.9888045787811279,4.707222938537598,-2.8703513145446777,-3.122938871383667,1.8483821153640747,4.006337642669678,0.2707771956920624,1.97526216506958,0.34640488028526306,3.2569611072540283
51,23228,23225,-0.07798201590776443,-0.04455726221203804,1.0354368686676025,2.1867737770080566,1.8512438535690308,-2.873566150665283,1.8479549884796143,4.005880355834961,0.27170708775520325,2.008077383041382,0.4170462191104889,3.221392869949341
52,23238,23235,-0.01580655574798584,0.015095923095941544,0.9535804986953735,-0.5912525057792664,6.3706536293029785,-2.5152347087860107,1.8475964069366455,4.006005764007568,0.2726667821407318,1.9846121072769165,0.30644989013671875,3.2210185527801514
53,23248,23245,0.02626791037619114,0.042611341923475266,0.9392397999763489,-4.898212909698486,13.00660514831543,-2.858457565307617,1.848340630531311,4.008023738861084,0.27096569538116455,1.848779320716858,0.3730834722518921,3.1803066730499268
54,23258,23255,-0.005421064328402281,0.14452515542507172,0.9439584016799927,-6.8262457847595215,16.489368438720703,-2.4660887718200684,1.8484187126159668,4.007289886474609,0.2718001902103424,1.6285910606384277,0.3001938760280609,3.1614584922790527
55,23268,23265,0.027697402983903885,0.15699009597301483,0.9410393238067627,-6.216236591339111,16.856630325317383,-2.523064136505127,1.8478119373321533,4.0082173347473145,0.2725391983985901,1.7375568151474,0.2043026238679886,3.1497418880462646
56,23278,23275,0.07929109781980515,0.04361286386847496,0.9597936272621155,-4.56183385848999,13.62835693359375,-2.664377212524414,1.8449939489364624,4.0087480545043945,0.275920033454895,1.5889267921447754,0.196837916970253,3.112683057785034
57,23288,23285,0.1122434139251709,-0.07983743399381638,0.9876763820648193,-0.39375537633895874,10.911410331726074,-2.2856481075286865,1.8434278964996338,4.00964879989624,0.2767432630062103,1.4728903770446777,0.1488303244113922,3.0880167484283447
58,23298,23295,0.13315129280090332,-0.12481682002544403,0.9463351368904114,2.4456005096435547,7.436568737030029,-2.214134454727173,1.841966152191162,4.011504650115967,0.2774643003940582,1.3359934091567993,0.15345768630504608,3.0592219829559326
59,23308,23305,0.007355236914008856,0.08565449714660645,1.0146358013153076,4.309199333190918,6.0533952713012695,-2.061676263809204,1.841666340827942,4.0104546546936035,0.2785029113292694,1.3029718399047852,0.20300117135047913,3.0320496559143066
60,23318,23315,0.012150907889008522,0.0034651958849281073,0.96409010887146,4.901485919952393,5.762718200683594,-1.798678994178772,1.8386380672454834,4.011014461517334,0.2792156934738159,1.1517689228057861,0.2769646942615509,3.0014917850494385
61,23328,23325,0.00502002565190196,-0.008585084229707718,0.9905028939247131,2.9409451484680176,7.811776638031006,-1.9169719219207764,1.8384357690811157,4.009449481964111,0.27997705340385437,1.2256134748458862,0.34217923879623413,2.984741687774658
62,23338,23335,0.0949917659163475,-0.120208241045475,1.0242173671722412,-0.030807478353381157,9.356428146362305,-2.1916303634643555,1.836689829826355,4.009125232696533,0.2806108891963959,0.9517232179641724,0.36921533942222595,2.960841417312622
63,23348,23345,0.051180869340896606,-0.14791473746299744,1.0650430917739868,-3.0851681232452393,10.9533052444458,-2.4383137226104736,1.8376773595809937,4.009718418121338,0.2808457612991333,1.1970235109329224,0.19597746431827545,2.990647792816162
64,23358,23355,0.04090799763798714,-0.16744264960289001,0.9949371218681335,-4.796788215637207,12.662506103515625,-2.9664812088012695,1.83402681350708,4.011257648468018,0.2815529704093933,0.9299221038818359,0.1532498151063919,2.9656834602355957
65,23368,23365,-0.012684031389653683,-0.03456617519259453,0.9879210591316223,-3.853476047515869,13.943435668945312,-3.299126625061035,1.8343778848648071,4.011150360107422,0.2824752628803253,0.7213480472564697,0.09560276567935944,2.9374120235443115
66,23378,23375,0.04429609328508377,-0.12408033013343811,0.9982303977012634,-1.179909110069275,14.7708158493042,-2.5664398670196533,1.8343440294265747,4.012115955352783,0.28309720754623413,0.7222185134887695,0.05739779770374298,2.9111058712005615
67,23388,23385,0.024681461974978447,-0.06091667711734772,0.9750785231590271,1.6364715099334717,12.665404319763184,-2.6049692630767822,1.8307546377182007,4.012055397033691,0.2838630974292755,0.4851163923740387,0.13972240686416626,2.869049310684204
68,23398,23395,0.01789150945842266,-0.021417463198304176,0.9877772927284241,5.389594078063965,10.537737846374512,-2.0347092151641846,1.8297532796859741,4.010805606842041,0.2846764624118805,0.3734453320503235,0.11845960468053818,2.8501393795013428
69,23408,23405,-0.010717310011386871,0.02566826157271862,1.0223259925842285,6.7236738204956055,8.949440956115723,-1.8131145238876343,1.8278635740280151,4.0123372077941895,0.2862895727157593,0.2879873216152191,0.14560511708259583,2.8337290287017822
70,23418,23415,0.026897335425019264,-0.04748978465795517,0.9481814503669739,6.054303169250488,6.289208889007568,-2.34472393989563,1.8258647918701172,4.0138373374938965,0.28704869747161865,0.2290821522474289,0.186539426445961,2.8189196586608887
71,23428,23425,-0.022461414337158203,-0.008664264343678951,0.9559588432312012,3.323465347290039,5.359350204467773,-2.4068336486816406,1.824858546257019,4.014125347137451,0.2877882122993469,0.052313096821308136,0.2869107723236084,2.7909202575683594
72,23438,23435,0.00130273902323097,-0.025702625513076782,0.948214054107666,1.444140911102295,5.960697174072266,-2.029168128967285,1.8251248598098755,4.014094352722168,0.28856515884399414,0.2826152443885803,0.3475084900856018,2.7776057720184326
73,23448,23445,0.005216962657868862,0.010921455919742584,0.9567698240280151,-1.456237554550171,7.246857643127441,-2.0486297607421875,1.8216843605041504,4.013761043548584,0.28658410906791687,0.14892961084842682,0.36353832483291626,2.7525289058685303
74,23458,23455,-0.007969992235302925,0.04908404126763344,1.00628662109375,-2.0984795093536377,7.8947954177856445,-1.8493504524230957,1.8207499980926514,4.014255046844482,0.28713980317115784,0.008261466398835182,0.3410234749317169,2.728520393371582
75,23468,23465,0.007797094527631998,-2.2734950107405894e-05,0.9933350682258606,-1.6906648874282837,8.926043510437012,-1.8283909559249878,1.8205734491348267,4.0136919021606445,0.2876530587673187,-0.13220104575157166,0.3142634928226471,2.706191062927246
76,23478,23475,0.021833689883351326,-0.010529570281505585,0.979362428188324,-1.558671474456787,10.295013427734375,-1.7587316036224365,1.8208012580871582,4.012512683868408,0.28860387206077576,-0.27980226278305054,0.2924756109714508,2.685819387435913
77,23488,23485,-0.025112276896834373,0.12147128582000732,0.9678362607955933,-0.8834690451622009,11.993818283081055,-1.848116397857666,1.8205065727233887,4.012882709503174,0.2890920042991638,-0.522391676902771,0.3502950072288513,2.6631603240966797
78,23498,23495,-0.031198715791106224,-0.05878538638353348,1.0189777612686157,-0.026198046281933784,16.408784866333008,-1.6545108556747437,1.819227933883667,4.0103759765625,0.2895708382129669,-0.32171911001205444,0.33701008558273315,2.6605117321014404
79,23508,23505,-0.01429684180766344,-0.053004879504442215,1.0207140445709229,0.17333711683750153,21.412822723388672,-1.6410272121429443,1.8149588108062744,4.009339809417725,0.28917813301086426,-0.6037243604660034,0.3325805068016052,2.6394922733306885
80,23518,23515,0.004166210535913706,-0.058156587183475494,0.9687883257865906,-1.4975905418395996,24.768749237060547,-1.9515900611877441,1.8143177032470703,4.009690284729004,0.2896553575992584,-0.7396990060806274,0.2440493106842041,2.6213395595550537
81,23528,23525,-0.0020900052040815353,0.10037348419427872,0.9784046411514282,-1.538110613822937,25.74493408203125,-1.526745319366455,1.8133723735809326,4.009256839752197,0.2900744378566742,-1.077431559562683,0.3037702441215515,2.6040282249450684
82,23538,23535,0.013801741413772106,0.1574994921684265,0.9273062348365784,-1.908203125,25.049495697021484,-1.7455772161483765,1.8131386041641235,4.00897741317749,0.28927430510520935,-1.4128602743148804,0.27257582545280457,2.581911563873291
83,23548,23545,0.009791587479412556,0.23180606961250305,1.0093212127685547,-0.8817386031150818,21.0497989654541,-1.7329329252243042,1.811895489692688,4.008586406707764,0.28952428698539734,-1.5719131231307983,0.2415039837360382,2.5677833557128906
84,23558,23555,0.03172453120350838,0.011193758808076382,0.9805019497871399,-0.012240011245012283,12.502091407775879,-1.5152701139450073,1.8099291324615479,4.008096694946289,0.28981494903564453,-1.9363291263580322,0.1549409031867981,2.5313642024993896
85,23568,23565,-0.025933174416422844,0.043716058135032654,1.0188041925430298,-0.3538413643836975,6.378849506378174,-1.3458839654922485,1.810888409614563,4.008849143981934,0.28998512029647827,-2.0001044273376465,0.1562166064977646,2.5184030532836914
86,23578,23575,0.02083517238497734,-0.016842832788825035,0.9676152467727661,0.4409354329109192,2.0679566860198975,-1.0786852836608887,1.8099148273468018,4.008874893188477,0.2860466241836548,-2.0433871746063232,0.24003718793392181,2.523667573928833
87,23588,23585,-0.007762241177260876,0.013959366828203201,1.0300899744033813,0.9441565871238708,0.04475858435034752,-1.2480336427688599,1.8094606399536133,4.00810432434082,0.2860795855522156,-1.9476661682128906,0.24600523710250854,2.518017292022705
88,23598,23595,0.00965071376413107,-0.001773298135958612,1.043209433555603,2.0622971057891846,0.4594879746437073,-0.6472609043121338,1.8068455457687378,4.009070873260498,0.28616371750831604,-1.9178327322006226,0.2630027234554291,2.5092198848724365
89,23608,23605,-0.005017563235014677,-0.015784522518515587,1.0205928087234497,0.3943812847137451,3.6753640174865723,-0.7060424089431763,1.8061854839324951,4.008667945861816,0.2874743938446045,-1.9844835996627808,0.28093719482421875,2.4998886585235596
90,23618,23615,-0.018335500732064247,-0.013005205430090427,1.0186054706573486,-0.8628513216972351,6.8597187995910645,-0.4160170555114746,1.804243803024292,4.007506370544434,0.2876495122909546,-2.024747133255005,0.2758930027484894,2.4900336265563965
91,23628,23625,-0.019438980147242546,0.1380256861448288,0.9664197564125061,-3.4050168991088867,9.93648910522461,-0.7587060332298279,1.804291009902954,4.00654411315918,0.28784796595573425,-2.1944549083709717,0.24019114673137665,2.4717764854431152
92,23638,23635,-0.005778248887509108,0.1808236539363861,0.9787958860397339,-3.3719801902770996,10.544425010681152,-0.5428934097290039,1.8052977323532104,4.006743431091309,0.2889445126056671,-2.16819167137146,0.18015876412391663,2.458144426345825
93,23648,23645,-0.042916905134916306,0.042546533048152924,1.0854275226593018,-3.581162929534912,8.927688598632812,-1.0602922439575195,1.8037528991699219,4.006471633911133,0.28924617171287537,-2.362163782119751,0.19304613769054413,2.4664154052734375
94,23658,23655,0.007194901816546917,-0.022721892222762108,1.0285226106643677,-1.6949632167816162,5.761526584625244,-0.9393901228904724,1.8047313690185547,4.006080627441406,0.2894810140132904,-2.503995418548584,0.21280770003795624,2.474865436553955
95,23668,23665,0.006883483845740557,0.02432568371295929,1.0473284721374512,-1.9964760541915894,3.3146350383758545,-0.911087691783905,1.8049020767211914,4.004175186157227,0.28973254561424255,-2.5943024158477783,0.16488754749298096,2.455029010772705
96,23678,23675,0.023188302293419838,0.03623850643634796,1.0332529544830322,0.141999289393425,-2.2144553661346436,-1.2557567358016968,1.8046119213104248,4.004327297210693,0.2900390326976776,-2.6156439781188965,0.13355867564678192,2.444293737411499
97,23688,23685,-0.006630845833569765,0.05461905896663666,1.0742926597595215,0.37375375628471375,-6.035100936889648,-0.5996206402778625,1.8045181035995483,4.004236221313477,0.29041555523872375,-2.5556766986846924,0.12338082492351532,2.431514024734497
98,23698,23695,0.010280376300215721,-0.03933235630393028,0.987740695476532,-0.23660752177238464,-7.258976936340332,-1.0612785816192627,1.8035242557525635,4.004343509674072,0.29086920619010925,-2.5175728797912598,0.11641903221607208,2.419696569442749
99,23708,23705,0.06727475672960281,-0.1927230954170227,1.0134177207946777,-0.31370866298675537,-8.676352500915527,-0.7667503952980042,1.8042036294937134,4.004606246948242,0.2885216474533081,-2.365612506866455,0.10066699236631393,2.4063549041748047
100,23718,23715,0.03694213926792145,-0.06252516061067581,1.03701913356781,-1.3473318815231323,-6.988302230834961,-1.2292455434799194,1.8025381565093994,4.002486705780029,0.2888356149196625,-2.4331979751586914,0.07951667904853821,2.3895647525787354
101,23728,23725,-0.0007077582413330674,0.015529275871813297,1.0418254137039185,1.049194574356079,-4.935983180999756,-0.6889122128486633,1.803525686264038,4.001589298248291,0.28905707597732544,-2.287187337875366,0.14779967069625854,2.413644313812256
102,23738,23735,-0.026288732886314392,0.032120756804943085,1.0597933530807495,-0.5643748641014099,-2.957139015197754,-1.3912328481674194,1.803204894065857,4.0006890296936035,0.29162102937698364,-2.177400588989258,0.21336379647254944,2.4307010173797607
103,23748,23745,-0.017553552985191345,-0.03582927957177162,0.9995757341384888,-1.858461856842041,-0.947923481464386,-1.1235065460205078,1.8028005361557007,3.999999523162842,0.29215121269226074,-2.1825077533721924,0.18032190203666687,2.4048006534576416
104,23758,23755,-0.002525768941268325,0.06386023014783859,0.9808101654052734,-3.1601321697235107,0.4663112461566925,-0.5430027842521667,1.8029993772506714,3.9991509914398193,0.2926616966724396,-2.219886064529419,0.12455955147743225,2.3767871856689453
105,23768,23765,0.009649585001170635,-0.03710492327809334,1.0266789197921753,-4.690995693206787,-0.18769989907741547,-0.7165265083312988,1.8037726879119873,3.9993627071380615,0.29205965995788574,-2.1811747550964355,0.05037001892924309,2.354628086090088
106,23778,23775,0.004284638445824385,-0.03417196869850159,1.0156687498092651,-4.179441452026367,-3.594606876373291,-0.739669144153595,1.8038595914840698,4.000484466552734,0.29258328676223755,-2.3321382999420166,0.11804497987031937,2.393186092376709
107,23788,23785,-0.057598430663347244,-0.003580729477107525,1.0193320512771606,-3.764650583267212,-7.376253604888916,-1.2382417917251587,1.8066227436065674,3.998788356781006,0.29298242926597595,-2.1839256286621094,0.10615342855453491,2.399318218231201
108,23798,23795,-0.0211435966193676,0.025245556607842445,0.98899906873703,-3.103607416152954,-10.122885704040527,-0.8486348390579224,1.8061422109603882,3.99827241897583,0.2936114966869354,-2.0604820251464844,0.025472544133663177,2.372680902481079
109,23808,23805,0.0026820888742804527,0.00035274922265671194,1.017722249031067,-2.900308132171631,-12.36220932006836,-0.5854629874229431,1.8057491779327393,3.9985125064849854,0.2935677766799927,-1.9691532850265503,0.02981535531580448,2.3793442249298096
110,23818,23815,0.005186771042644978,-0.0519290417432785,0.9984747767448425,-3.5548644065856934,-13.116662979125977,-0.4641958475112915,1.806087851524353,3.997605323791504,0.29404687881469727,-1.9128844738006592,-0.04792133718729019,2.354543447494507
111,23828,23825,-0.028781002387404442,-0.0010296013206243515,0.9828951954841614,-3.0181522369384766,-11.28051471710205,-0.31540894508361816,1.8073171377182007,3.997591257095337,0.29450738430023193,-1.7798033952713013,-0.04802756756544113,2.3611679077148438
112,23838,23835,-0.016616130247712135,-0.02184351347386837,0.9819886088371277,-2.8146116733551025,-9.843503952026367,-0.5323714017868042,1.8074226379394531,3.997980833053589,0.2954626679420471,-1.8135427236557007,-0.04296397790312767,2.369051933288574
113,23848,23845,-0.005073757842183113,-0.004159413743764162,1.003716230392456,-3.112609386444092,-8.401690483093262,-0.804911732673645,1.8091009855270386,3.9979565143585205,0.2958580255508423,-1.635907769203186,-0.11454126238822937,2.349266529083252
114,23858,23855,-0.017215657979249954,-0.019837692379951477,1.0610378980636597,-2.7960305213928223,-8.009098052978516,-0.7085167169570923,1.8091895580291748,3.9981889724731445,0.29646944999694824,-1.4716839790344238,-0.11070884019136429,2.3554258346557617
115,23868,23865,-0.038132451474666595,0.0017257509753108025,1.0674705505371094,-2.8517515659332275,-7.009759426116943,-0.8729085326194763,1.808563232421875,3.9974684715270996,0.2987399697303772,-1.3955930471420288,-0.1080038994550705,2.3605599403381348
116,23878,23875,-0.06751378625631332,0.09286719560623169,0.9939738512039185,-1.6884286403656006,-6.917784214019775,-0.7915558815002441,1.8081555366516113,3.995464324951172,0.2993871867656708,-1.2548887729644775,-0.1668124943971634,2.3391270637512207
117,23888,23885,-0.0019053963478654623,0.034704677760601044,0.985882043838501,-2.1838083267211914,-6.838881969451904,-0.561177134513855,1.8070015907287598,3.9954543113708496,0.3001598119735718,-1.2748273611068726,-0.21899497509002686,2.321396589279175
118,23898,23895,-0.028203580528497696,0.0777304545044899,0.9869565367698669,-3.0633997917175293,-6.514535903930664,-0.58907550573349,1.8083889484405518,3.9946212768554688,0.30079978704452515,-1.1472015380859375,-0.13601824641227722,2.343348979949951
119,23908,23905,-0.05046623572707176,0.0238351933658123,1.0434719324111938,-2.571528911590576,-6.912325382232666,-0.8054159283638,1.807834506034851,3.9941470623016357,0.30016276240348816,-1.2391066551208496,-0.28558748960494995,2.3103373050689697
120,23918,23915,-0.029438380151987076,-0.01731393299996853,1.0059161186218262,-2.5570549964904785,-6.690944671630859,-0.5204775929450989,1.809674620628357,3.9955697059631348,0.3007057309150696,-1.086221694946289,-0.34442389011383057,2.292444944381714
121,23928,23925,-0.09845535457134247,0.08003272116184235,1.0340991020202637,-2.833488941192627,-8.160074234008789,-0.2072770893573761,1.810137152671814,3.9960711002349854,0.3014635741710663,-1.067286729812622,-0.3260742425918579,2.297226905822754
122,23938,23935,-0.005876917392015457,-0.007551953662186861,0.9516956210136414,-1.58843994140625,-8.639813423156738,-0.16959895193576813,1.811477541923523,3.994617462158203,0.3036375939846039,-0.9638597965240479,-0.3758885860443115,2.2888681888580322
123,23948,23945,0.007629677653312683,0.15820430219173431,0.9662048816680908,0.1706065535545349,-9.33673095703125,-0.47586187720298767,1.8129689693450928,3.99420166015625,0.3044193983078003,-0.8696903586387634,-0.4040383994579315,2.283478260040283
124,23958,23955,-0.006101703271269798,0.07345043122768402,1.0003199577331543,1.1041017770767212,-10.01823902130127,-0.5104648470878601,1.8143744468688965,3.994887351989746,0.3051620125770569,-0.7622754573822021,-0.4079311490058899,2.2767820358276367
125,23968,23965,0.02431071177124977,-0.05736945569515228,0.985518753528595,1.9613242149353027,-10.690145492553711,-0.6730926036834717,1.8167825937271118,3.9948248863220215,0.3055904507637024,-0.6506972908973694,-0.32459571957588196,2.2823586463928223
126,23978,23975,-0.0009447990451008081,-0.10865071415901184,0.970013439655304,2.003244161605835,-10.595226287841797,-0.5821885466575623,1.8173046112060547,3.9938058853149414,0.30628517270088196,-0.823740541934967,-0.3860512375831604,2.277618646621704
127,23988,23985,-0.01823713444173336,-0.12357912212610245,0.9556273818016052,0.8592499494552612,-10.090152740478516,-0.288191556930542,1.82118558883667,3.9937744140625,0.30671387910842896,-0.6049095392227173,-0.4441657066345215,2.253331184387207
128,23998,23995,0.01173501554876566,-0.04463725537061691,0.9458896517753601,0.30143874883651733,-10.93582820892334,-0.23591387271881104,1.8213245868682861,3.9940025806427,0.30749136209487915,-0.3895662724971771,-0.43520858883857727,2.2464439868927
129,24008,24005,0.018365154042840004,0.02254878170788288,1.0101284980773926,1.7626737356185913,-10.675244331359863,-0.5929841995239258,1.8209874629974365,3.995600938796997,0.310457319021225,-0.3210568130016327,-0.41880589723587036,2.248944044113159
130,24018,24015,0.08211515098810196,-0.07819297909736633,0.9957447052001953,1.670903205871582,-9.231409072875977,-0.4073754847049713,1.8224475383758545,3.996621608734131,0.31112197041511536,-0.2502690255641937,-0.3894522786140442,2.2506747245788574
131,24028,24025,0.04133393242955208,-0.09770077466964722,1.010887861251831,2.1608974933624268,-7.407007694244385,-0.7451670169830322,1.8238303661346436,3.996332883834839,0.3117736279964447,-0.19336897134780884,-0.35332754254341125,2.2549123764038086
132,24038,24035,0.002779922680929303,-0.038990188390016556,0.9636435508728027,2.195802688598633,-5.290902614593506,-0.9903362393379211,1.825823426246643,3.9974889755249023,0.3128291368484497,-0.24304626882076263,-0.3164638876914978,2.2580623626708984
133,24048,24045,-0.02562708407640457,0.023789413273334503,0.9809167981147766,2.4238836765289307,-5.467569351196289,-1.185065746307373,1.8281573057174683,3.996452569961548,0.3134290874004364,-0.0790020078420639,-0.2775971293449402,2.245469808578491
134,24058,24055,-0.10551073402166367,0.14618127048015594,0.926532506942749,1.4127954244613647,-5.947114944458008,-1.1591036319732666,1.8276736736297607,3.9971683025360107,0.314174622297287,0.07210938632488251,-0.24199774861335754,2.225275754928589
135,24068,24065,-0.09631778299808502,0.11657601594924927,0.8898462653160095,0.39909839630126953,-6.993581295013428,-1.0605361461639404,1.8278287649154663,3.997056484222412,0.3113335371017456,0.07081913948059082,-0.2268003672361374,2.213855743408203
136,24078,24075,-0.06384481489658356,0.005888332147151232,1.0179353952407837,-0.05822041258215904,-7.238274097442627,-1.019848346710205,1.8299016952514648,3.9972479343414307,0.31159526109695435,0.24939832091331482,-0.3006480932235718,2.1983001232147217
137,24088,24085,-0.0016002912307158113,-0.025892436504364014,1.000829815864563,-0.8153166770935059,-4.3181281089782715,-0.8502431511878967,1.8296793699264526,3.9977807998657227,0.3119604289531708,0.16214299201965332,-0.3048345446586609,2.1977651119232178
138,24098,24095,0.007482909597456455,-0.015576070174574852,0.9733375310897827,0.0859861969947815,-2.776526689529419,-0.26852521300315857,1.8323100805282593,3.9966843128204346,0.3099691867828369,0.2737443149089813,-0.3091338276863098,2.1799490451812744
139,24108,24105,0.01971389912068844,-0.07691441476345062,0.9827394485473633,0.805125892162323,-1.8627899885177612,0.015728367492556572,1.8322641849517822,3.9971225261688232,0.3101194500923157,0.28494003415107727,-0.2991984784603119,2.1796486377716064
140,24118,24115,0.03963738679885864,-0.08852595090866089,0.9797185659408569,1.7845155000686646,-1.272202968597412,-0.26881664991378784,1.833276391029358,3.9969773292541504,0.3101888597011566,0.358284056186676,-0.2739964425563812,2.1769440174102783
141,24128,24125,0.04548340290784836,-0.03706172853708267,0.9514161348342896,3.499718427658081,-0.820939302444458,-0.4505707025527954,1.8331387042999268,3.996659517288208,0.31033462285995483,0.3393067717552185,-0.29641464352607727,2.179947853088379
142,24138,24135,0.08283720910549164,-0.017358748242259026,0.8953598737716675,4.1477370262146,-0.5758727788925171,-0.47037220001220703,1.8360921144485474,3.997291326522827,0.30986514687538147,0.45437681674957275,-0.22299309074878693,2.1646573543548584
143,24148,24145,0.026988770812749863,0.008022122085094452,0.9708058834075928,3.5594916343688965,-1.6487505435943604,-0.020362939685583115,1.835170030593872,3.9967212677001953,0.30989813804626465,0.42468005418777466,-0.15012319386005402,2.152001142501831
144,24158,24155,0.053084488958120346,-0.13123682141304016,1.0062251091003418,2.2041609287261963,-0.7428432106971741,0.05988083779811859,1.8369642496109009,3.995643138885498,0.3097304105758667,0.40112677216529846,-0.10187535732984543,2.1516847610473633
145,24168,24165,-0.00709361070767045,-0.031385183334350586,1.019553303718567,0.7938129901885986,0.07231613248586655,-0.15228228271007538,1.8385810852050781,3.995046377182007,0.3082287013530731,0.45430487394332886,-0.0732576996088028,2.1500661373138428
146,24178,24175,0.016209950670599937,-0.06269553303718567,0.9640981554985046,0.14964833855628967,0.5639649033546448,-0.3098771572113037,1.8392034769058228,3.9949893951416016,0.30800798535346985,0.267283171415329,-0.13538095355033875,2.1660361289978027
147,24188,24185,-0.029915984719991684,0.009541422128677368,1.029737949371338,-1.2476662397384644,0.9380843043327332,-0.8815228939056396,1.8424545526504517,3.994727373123169,0.3076028823852539,0.38668158650398254,-0.21313592791557312,2.1571662425994873
148,24198,24195,0.02715514786541462,0.042212583124637604,0.9969685673713684,-1.0960584878921509,-0.5711270570755005,-0.7709364891052246,1.8426073789596558,3.996310234069824,0.3087552487850189,0.3533872961997986,-0.21474699676036835,2.1439688205718994
149,24208,24205,0.026017820462584496,-0.006112626288086176,0.9980472922325134,-0.11489143967628479,-0.8281832337379456,-0.7419641613960266,1.8441002368927002,3.995551109313965,0.3085707426071167,0.33267921209335327,-0.20722468197345734,2.1370224952697754
150,24218,24215,-0.008121439255774021,-0.10210026055574417,1.0309984683990479,2.900841236114502,-2.158762216567993,-0.8218825459480286,1.846330165863037,3.995051622390747,0.3083797097206116,0.48148077726364136,-0.09689339995384216,2.101363182067871
151,24228,24225,-5.317678369465284e-05,-0.050594720989465714,1.0203913450241089,4.557949542999268,-2.292034149169922,0.034646663814783096,1.8459655046463013,3.9936933517456055,0.30844646692276,0.6245245933532715,0.0423615388572216,2.075397253036499
152,24238,24235,-0.010716891847550869,-0.012480526231229305,1.002812147140503,4.001246929168701,-1.781126618385315,0.1780703067779541,1.8457636833190918,3.9932940006256104,0.3089916706085205,0.46814706921577454,-0.041136231273412704,2.1122703552246094
153,24248,24245,0.0026099146343767643,-0.043118782341480255,1.0056402683258057,0.7187892198562622,1.6106358766555786,-0.5435665845870972,1.8481495380401611,3.9945027828216553,0.3089170753955841,0.5031487345695496,0.0036062905564904213,2.107862710952759
154,24258,24255,0.001826997846364975,-0.09138787537813187,1.0338950157165527,-0.8744425177574158,2.3687503337860107,-0.7066362500190735,1.8489022254943848,3.994255781173706,0.3089688718318939,0.5825911164283752,0.007079907692968845,2.1008427143096924
155,24268,24265,-0.014936482533812523,-0.12897956371307373,1.0194894075393677,-0.8775731325149536,2.876631736755371,-0.7741779088973999,1.8489261865615845,3.9930896759033203,0.308331698179245,0.4129667282104492,-0.0037572067230939865,2.08262038230896
156,24278,24275,0.008245817385613918,-0.1116161197423935,0.9564231038093567,-0.7857972979545593,3.07521653175354,-0.470726877450943,1.8520182371139526,3.9934568405151367,0.308195561170578,0.46792343258857727,-0.013621331192553043,2.0727057456970215
157,24288,24285,0.06871955841779709,-0.12921775877475739,0.9956552386283875,-1.0675729513168335,2.564157485961914,-0.8656427264213562,1.8518472909927368,3.9932496547698975,0.3082297742366791,0.5234208106994629,-0.02199256420135498,2.065887212753296
158,24298,24295,0.04283574968576431,-0.14501577615737915,1.1008495092391968,0.4035339057445526,1.333290457725525,-0.4641523063182831,1.851911187171936,3.993316411972046,0.3078013062477112,0.37012341618537903,-0.02576112188398838,2.0635812282562256
159,24308,24305,0.04875411093235016,-0.09698609262704849,0.9988488554954529,1.0118037462234497,2.2016100883483887,-0.951715886592865,1.8543661832809448,3.9933817386627197,0.3076813817024231,0.36696287989616394,-0.013532748445868492,2.056614398956299
160,24318,24315,0.00821912195533514,-0.008837810717523098,0.9963522553443909,1.3949339389801025,2.6977038383483887,-0.6953878998756409,1.855302095413208,3.9933972358703613,0.3076789379119873,0.4117734134197235,0.007109766360372305,2.0432627201080322
161,24328,24325,0.05546192079782486,-0.0761205181479454,0.9487299919128418,1.185204029083252,1.9123975038528442,-1.1892850399017334,1.8547399044036865,3.9930922985076904,0.30777716636657715,0.2251160591840744,0.026185637339949608,2.0329642295837402
162,24338,24335,0.008390410803258419,-0.02265763282775879,1.0058763027191162,1.1069538593292236,0.970293402671814,-0.5687790513038635,1.856732726097107,3.9933860301971436,0.30658990144729614,0.2301471084356308,0.04097048193216324,2.025468111038208
163,24348,24345,0.01799732632935047,-0.04616355895996094,1.0014410018920898,1.0812591314315796,-1.0052183866500854,-0.9323567748069763,1.8574700355529785,3.9932901859283447,0.3065173327922821,0.341874361038208,-0.08524183183908463,2.0314865112304688
164,24358,24355,-0.021287495270371437,0.016830680891871452,1.0563788414001465,0.24628202617168427,-1.6844223737716675,-0.5795180201530457,1.8572427034378052,3.993926763534546,0.30659499764442444,0.37697818875312805,-0.06425700336694717,2.021480083465576
165,24368,24365,0.04852580651640892,0.010433048941195011,0.9442949295043945,0.1635846495628357,-0.3762379288673401,-0.7249391078948975,1.8578510284423828,3.992767572402954,0.3096004128456116,0.4589158892631531,-0.04440192133188248,2.002169370651245
166,24378,24375,0.001027750433422625,-0.018157077953219414,0.9904032349586487,0.5398366451263428,0.1566842496395111,-0.9979660511016846,1.8585495948791504,3.992152214050293,0.30980804562568665,0.46546274423599243,-0.023581169545650482,1.9823561906814575
167,24388,24385,0.01564326323568821,-0.10483378916978836,1.0817993879318237,0.6557393074035645,2.493333101272583,-1.0619949102401733,1.8596059083938599,3.991823434829712,0.30994006991386414,0.36841335892677307,-0.005570463370531797,1.9612641334533691
168,24398,24395,-0.008042529225349426,-0.10382585972547531,1.089347243309021,2.036311626434326,4.184606552124023,-0.5454939007759094,1.8612221479415894,3.991809844970703,0.31149566173553467,0.41109755635261536,0.028950389474630356,1.9421968460083008
169,24408,24405,-0.005290236324071884,-0.037676166743040085,1.0095487833023071,2.307934284210205,5.919224739074707,-0.32963523268699646,1.8622530698776245,3.991628408432007,0.3118624687194824,0.25188881158828735,-0.0015265059191733599,1.9452450275421143
170,24418,24415,-0.014319694600999355,0.025862494483590126,1.0589699745178223,2.523794174194336,5.595093250274658,-1.2845416069030762,1.8628686666488647,3.991088390350342,0.31219637393951416,0.23764844238758087,0.05634570121765137,1.9243141412734985
171,24428,24425,0.07507043331861496,-0.015445551835000515,0.9975798726081848,1.5638333559036255,4.55654239654541,-1.2594306468963623,1.8632954359054565,3.9908976554870605,0.3117011785507202,0.21075500547885895,0.02102545276284218,1.919691562652588
172,24438,24435,0.018549738451838493,-0.05533738061785698,1.0499248504638672,0.9893746376037598,1.5413873195648193,-1.0331233739852905,1.8638049364089966,3.9908859729766846,0.3120710253715515,-0.07810302078723907,0.05328917130827904,1.8914579153060913
173,24448,24445,-0.010493164882063866,-0.046670101583004,1.007503867149353,-0.20910249650478363,0.028290189802646637,-1.4934828281402588,1.8665130138397217,3.990706205368042,0.31225427985191345,0.015076701529324055,0.07729008793830872,1.8822720050811768
174,24458,24455,0.00918596237897873,0.016526544466614723,1.0301660299301147,0.9123438000679016,-2.0436172485351562,-0.8286667466163635,1.867264986038208,3.9907097816467285,0.31278035044670105,0.12177834659814835,0.08743275701999664,1.8614503145217896
175,24468,24465,0.013648240827023983,-0.008122574537992477,0.9930480718612671,2.5243582725524902,-3.67722225189209,-0.6765768527984619,1.8670235872268677,3.990462303161621,0.3111874461174011,0.10056471824645996,0.1318090707063675,1.8379861116409302
176,24478,24475,0.0110470000654459,-0.011089070700109005,1.0037779808044434,1.8452168703079224,-3.1968703269958496,-0.7914032936096191,1.8676332235336304,3.9891533851623535,0.311450719833374,0.16928933560848236,0.17259660363197327,1.8278790712356567
177,24488,24485,0.01726546697318554,-0.026441657915711403,0.9909526705741882,0.6414870619773865,-1.9195950031280518,-0.9252692461013794,1.8690266609191895,3.98899245262146,0.31177574396133423,0.2144402265548706,0.11835084110498428,1.8347502946853638
178,24498,24495,-0.02370188757777214,0.03182327374815941,1.0433491468429565,-0.4964258372783661,0.37067505717277527,-0.8651498556137085,1.8699902296066284,3.990483522415161,0.31041306257247925,0.1477830708026886,0.1293405294418335,1.8233647346496582
179,24508,24505,0.020102277398109436,-0.08254683017730713,0.9783692359924316,-0.30026671290397644,0.9701801538467407,-1.6237473487854004,1.8711496591567993,3.991276264190674,0.31053662300109863,0.2290293574333191,0.12780344486236572,1.825443983078003
180,24518,24515,-0.013956038281321526,-0.011728712357580662,1.0405147075653076,0.16956155002117157,4.6535964012146,-1.6691842079162598,1.8711752891540527,3.9913206100463867,0.3108007311820984,0.09693947434425354,0.05345727503299713,1.8298197984695435
181,24528,24525,0.003897604998201132,-0.009827055968344212,1.0031020641326904,0.8719573020935059,5.423679351806641,-1.4999490976333618,1.872605562210083,3.992652654647827,0.3133741319179535,0.10010100901126862,0.1549864113330841,1.8081151247024536
182,24538,24535,0.02067098580300808,0.000246609328314662,0.9935053586959839,1.6912614107131958,4.947500228881836,-1.301599144935608,1.8724714517593384,3.991832971572876,0.31377112865448,0.02276349440217018,0.18647612631320953,1.7939531803131104
183,24548,24545,0.004911086056381464,0.002701512770727277,1.0149186849594116,1.322590708732605,3.718214511871338,-1.3786147832870483,1.8734809160232544,3.9916300773620605,0.3140929043292999,0.03374408558011055,0.21765123307704926,1.7816128730773926
184,24558,24555,0.02238965407013893,-0.04533888399600983,0.9522567987442017,0.593715488910675,3.2729227542877197,-1.592125415802002,1.8730344772338867,3.9922783374786377,0.3144872784614563,0.05061866343021393,0.23612354695796967,1.7815160751342773
185,24568,24565,0.018081847578287125,-0.027261018753051758,0.9587903022766113,0.10249021649360657,1.1152698993682861,-1.5707952976226807,1.8734374046325684,3.992412567138672,0.31639987230300903,0.08543913811445236,0.24505385756492615,1.7744547128677368
186,24578,24575,0.007128212600946426,-0.024577980861067772,0.963731586933136,-0.7750465869903564,0.10573326796293259,-1.8235548734664917,1.8735488653182983,3.9929909706115723,0.31681475043296814,0.13603757321834564,0.23416781425476074,1.7641927003860474
187,24588,24585,-0.019180363044142723,0.013317137025296688,1.001205325126648,-1.1716712713241577,0.5251445770263672,-1.1547828912734985,1.87257719039917,3.9931411743164062,0.31720447540283203,0.039042796939611435,0.21789176762104034,1.7496753931045532
188,24598,24595,0.004781607538461685,-0.008896038867533207,0.9740797877311707,-1.5882363319396973,2.782437562942505,-0.9546303749084473,1.87399160861969,3.993104934692383,0.3171125054359436,0.08942341804504395,0.19395683705806732,1.7408243417739868
189,24608,24605,-0.029483109712600708,0.04090022295713425,1.0569318532943726,-1.245883822441101,4.928303241729736,-1.1789084672927856,1.8744795322418213,3.992133378982544,0.3174935579299927,-0.20535744726657867,0.09627202153205872,1.7068883180618286
190,24618,24615,0.03999502584338188,-0.0471220463514328,0.9344120025634766,-1.4610743522644043,6.523599624633789,-1.372945785522461,1.8772481679916382,3.9925241470336914,0.3176862299442291,-0.19337095320224762,0.08850991725921631,1.683426022529602
191,24628,24625,0.06702268123626709,-0.07717426866292953,0.9636181592941284,-0.9314208030700684,5.113476753234863,-1.3656243085861206,1.8777227401733398,3.992152214050293,0.3174680769443512,-0.22442246973514557,0.0718502551317215,1.6793060302734375
192,24638,24635,0.09449539333581924,-0.09251946955919266,0.9799962043762207,0.9957476258277893,1.3436199426651,-1.3125615119934082,1.8786969184875488,3.9921648502349854,0.3177565634250641,-0.2763417959213257,0.08209556341171265,1.6790107488632202
193,24648,24645,0.06741354614496231,-0.15280362963676453,0.9702832698822021,2.950782060623169,-1.848575234413147,-0.9951476454734802,1.8790796995162964,3.992680549621582,0.3179333806037903,-0.18960067629814148,0.2009374052286148,1.6637544631958008
194,24658,24655,0.021039929240942,-0.19269536435604095,0.9639937281608582,3.3947370052337646,-3.550227403640747,-1.0646569728851318,1.878609538078308,3.9918742179870605,0.3182002007961273,-0.1392766684293747,0.25186648964881897,1.6613481044769287
195,24668,24665,-0.038742102682590485,-0.13940510153770447,0.952425479888916,1.9164422750473022,-3.3859455585479736,-0.8402549028396606,1.8792426586151123,3.991426467895508,0.3189847469329834,-0.14374113082885742,0.29926440119743347,1.647403597831726
196,24678,24675,-0.04081817716360092,-0.0398445725440979,0.9541763663291931,-0.3553735613822937,-1.3399373292922974,-0.9592072367668152,1.880237340927124,3.991957426071167,0.3190882205963135,-0.01546842698007822,0.306657999753952,1.6576086282730103
197,24688,24685,-0.01891276054084301,0.012930995784699917,0.984952449798584,-4.328089237213135,1.575562596321106,-1.002584457397461,1.8799238204956055,3.9914722442626953,0.3192543387413025,-0.08016512542963028,0.2628246247768402,1.6532379388809204
198,24698,24695,0.0338188000023365,-0.01955927163362503,0.9744049310684204,-5.875861167907715,4.502035617828369,-1.3019444942474365,1.880548357963562,3.993473768234253,0.32026413083076477,-0.05730942636728287,0.17114581167697906,1.6547095775604248
199,24708,24705,-0.0502663254737854,0.04010966047644615,1.0414135456085205,-5.4783430099487305,6.479067802429199,-1.097066044807434,1.8815629482269287,3.9936578273773193,0.32044586539268494,-0.06664755195379257,0.07347480952739716,1.644069790840149
200,24718,24715,-0.0645696371793747,0.039933349937200546,0.997992992401123,-2.754051446914673,6.365825653076172,-1.1911301612854004,1.8819591999053955,3.9952189922332764,0.32062920928001404,-0.24196304380893707,0.09123554080724716,1.6360383033752441
201,24728,24725,-0.0879833847284317,0.11221776902675629,0.9636398553848267,-0.8551331758499146,5.888388633728027,-1.5712467432022095,1.8841665983200073,3.994429111480713,0.32189425826072693,-0.2677164673805237,0.05909210443496704,1.6310139894485474
202,24738,24735,0.003994515165686607,0.002452797954902053,0.9585062265396118,0.5647571682929993,4.62392520904541,-1.5460668802261353,1.8844830989837646,3.9943654537200928,0.3221120536327362,-0.2875113785266876,0.05600377917289734,1.6107699871063232
203,24748,24745,-0.0218758974224329,0.01698802225291729,1.029819369316101,2.1852807998657227,1.5550076961517334,-1.5806103944778442,1.8843339681625366,3.994894504547119,0.3222934305667877,-0.34858405590057373,0.07084100693464279,1.5943238735198975
204,24758,24755,-0.002193156396970153,-0.06549417227506638,0.99330735206604,2.1880416870117188,-0.3984392285346985,-2.0294525623321533,1.8853336572647095,3.9950473308563232,0.3246915638446808,-0.4122789800167084,0.10322168469429016,1.5867199897766113
205,24768,24765,-0.0634065568447113,-0.00572799751535058,1.071783423423767,2.016084909439087,-0.619892954826355,-1.693806529045105,1.8870058059692383,3.9951350688934326,0.3249446153640747,-0.31008046865463257,0.13151484727859497,1.5702553987503052
206,24778,24775,-0.08462358266115189,0.09059402346611023,1.0806950330734253,1.6437580585479736,-2.0204172134399414,-1.0933905839920044,1.8865447044372559,3.994659900665283,0.3254086375236511,-0.2742677927017212,0.22823014855384827,1.5560555458068848
207,24788,24785,-0.027255427092313766,0.014308703131973743,0.9833539128303528,-0.8494648337364197,-1.3004752397537231,-0.7580797076225281,1.8871749639511108,3.993746519088745,0.32583504915237427,-0.3241342604160309,0.15009404718875885,1.5427955389022827
208,24798,24795,0.03327252343297005,-0.060610461980104446,0.9413346648216248,-2.2865207195281982,0.25187602639198303,-0.7721461057662964,1.8886903524398804,3.994626522064209,0.3263026773929596,-0.24375346302986145,0.11994767934083939,1.5366970300674438
209,24808,24805,0.04493223875761032,0.09106647223234177,0.9515975713729858,-3.268198013305664,1.8108007907867432,-1.1168484687805176,1.88835608959198,3.99430775642395,0.3267715871334076,-0.37532249093055725,0.06560811400413513,1.5171290636062622
210,24818,24815,0.11549238860607147,-0.008200895972549915,0.8915777206420898,-4.365923881530762,2.1010985374450684,-0.4201100170612335,1.890121340751648,3.9947667121887207,0.3270309269428253,-0.3657341003417969,0.06652744859457016,1.5099793672561646
211,24828,24825,0.10488603264093399,-0.11645358800888062,0.9596498608589172,-3.6550817489624023,0.6260085105895996,-0.7602201700210571,1.89107346534729,3.9942851066589355,0.32767370343208313,-0.48473790287971497,0.0631747916340828,1.5044161081314087
212,24838,24835,0.02870546281337738,-0.06696894019842148,0.9582856893539429,-2.4892427921295166,-0.42964574694633484,-0.6726622581481934,1.8923640251159668,3.9936676025390625,0.32785868644714355,-0.47948652505874634,0.0006720434757880867,1.4866398572921753
213,24848,24845,-0.011113651096820831,0.04026132822036743,0.9715843796730042,-1.0738401412963867,-1.5171716213226318,-0.3559364974498749,1.8934695720672607,3.993959426879883,0.32808083295822144,-0.45262154936790466,0.03702300414443016,1.492616891860962
214,24858,24855,-0.015313896350562572,-0.04316755756735802,0.9580915570259094,0.05992605537176132,-2.635019540786743,-0.3533666729927063,1.893335223197937,3.9928274154663086,0.3279068171977997,-0.31753671169281006,0.019933028146624565,1.504294753074646
215,24868,24865,-0.04206034168601036,-0.011498179286718369,0.9690336585044861,0.3766077756881714,-3.939537286758423,-1.4648913145065308,1.8927217721939087,3.9940671920776367,0.32799622416496277,-0.40389418601989746,-0.06084735691547394,1.4908170700073242
216,24878,24875,-0.010653544217348099,-0.04063927009701729,0.956834077835083,-0.39628034830093384,-3.4787726402282715,-0.7830155491828918,1.894714117050171,3.994830846786499,0.3280472755432129,-0.3930746912956238,-0.06349395960569382,1.480739951133728
217,24888,24885,0.04263164848089218,-0.0925406888127327,0.9174462556838989,-1.2912187576293945,-1.5694174766540527,-1.088602900505066,1.8960083723068237,3.994880199432373,0.32808172702789307,-0.3470722734928131,-0.08173523843288422,1.4695887565612793
218,24898,24895,-0.01953389123082161,0.001980732660740614,1.0036011934280396,-0.7646903991699219,-2.1676812171936035,-1.1892942190170288,1.8965975046157837,3.9949634075164795,0.3253017067909241,-0.36372342705726624,-0.09761760383844376,1.4594625234603882
219,24908,24905,0.0483984500169754,-0.05404478684067726,0.9386594891548157,-0.06846711784601212,-0.9565083980560303,-1.3476455211639404,1.8976812362670898,3.9943337440490723,0.32507455348968506,-0.3313677906990051,-0.03509461134672165,1.4425971508026123
220,24918,24915,-0.11741194874048233,0.10560747236013412,0.9517682194709778,1.287793755531311,-1.3578888177871704,-0.9737440943717957,1.8979260921478271,3.9940237998962402,0.32490429282188416,-0.29666703939437866,-0.02518923580646515,1.4273163080215454
221,24928,24925,-0.023020224645733833,0.05883345752954483,0.9152289032936096,0.5837708115577698,0.39481136202812195,-1.491320252418518,1.8990024328231812,3.9930620193481445,0.32442644238471985,-0.43572887778282166,-0.020276246592402458,1.3970301151275635
222,24938,24935,0.0055635301396250725,0.1756218522787094,0.9195112586021423,-0.4895990490913391,-0.6782987117767334,-1.2113035917282104,1.901454210281372,3.9930944442749023,0.3239631950855255,-0.3481575846672058,-0.031569354236125946,1.3658992052078247
223,24948,24945,0.020109063014388084,0.12232380360364914,0.9739284515380859,-0.5353672504425049,-2.9433975219726562,-0.9007565975189209,1.9013069868087769,3.992192029953003,0.32367002964019775,-0.39388352632522583,-0.05350245535373688,1.3540973663330078
224,24958,24955,0.02713797427713871,0.0007301205769181252,1.045598030090332,0.2646181881427765,-4.999168872833252,-1.236607313156128,1.9029338359832764,3.991668224334717,0.32540154457092285,-0.24310962855815887,-0.07330992817878723,1.3427547216415405
225,24968,24965,0.025057213380932808,-0.03704854100942612,0.9960665106773376,0.9552851319313049,-5.504947662353516,-0.516327977180481,1.9025702476501465,3.991939067840576,0.32517123222351074,-0.2146410346031189,-0.07055991142988205,1.3279306888580322
226,24978,24975,-0.042786773294210434,0.03938865289092064,1.0529783964157104,-0.13853564858436584,-4.045214653015137,-0.08905205875635147,1.9037762880325317,3.9912209510803223,0.3248291015625,-0.18338130414485931,-0.06868796050548553,1.3079684972763062
227,24988,24985,0.005019594915211201,-0.044050708413124084,0.9565877914428711,-0.29506081342697144,-1.7132432460784912,-0.08336008340120316,1.9040659666061401,3.9909322261810303,0.3245506286621094,-0.19588035345077515,-0.07679049670696259,1.3083879947662354
228,24998,24995,0.039421357214450836,0.1178191751241684,0.9849907755851746,-1.180101990699768,1.5169833898544312,-0.38120439648628235,1.9054992198944092,3.9909918308258057,0.32413411140441895,-0.12017431855201721,-0.09148646146059036,1.3044313192367554
229,25008,25005,0.0150665994733572,0.017491891980171204,0.9917863011360168,-1.4238532781600952,1.7258625030517578,-0.4762215316295624,1.9062780141830444,3.9916486740112305,0.3239067792892456,-0.35308602452278137,-0.11867264658212662,1.3378140926361084
230,25018,25015,-0.0026256453711539507,-0.020668113604187965,1.0256831645965576,-0.025942659005522728,0.067570760846138,-0.3233167231082916,1.90928316116333,3.9932281970977783,0.32341328263282776,-0.25293436646461487,-0.12012043595314026,1.3292858600616455
231,25028,25025,-0.0025825505144894123,-0.010470927692949772,1.0139679908752441,-0.48061424493789673,-0.5484265089035034,-0.3979405164718628,1.9087716341018677,3.9937286376953125,0.3214583396911621,-0.1498906910419464,-0.1259920299053192,1.3394964933395386
232,25038,25035,0.007726695854216814,-0.00828630942851305,1.0117079019546509,2.0941848754882812,-3.462007522583008,-0.22942475974559784,1.908591389656067,3.9935193061828613,0.32114365696907043,-0.16420000791549683,-0.18292473256587982,1.31780207157135
233,25048,25045,-0.008573493920266628,0.04295530542731285,1.0473008155822754,2.809612512588501,-3.824328899383545,0.43376490473747253,1.9094140529632568,3.993986129760742,0.320708304643631,-0.15695308148860931,-0.1357511281967163,1.3340355157852173
234,25058,25055,0.034659940749406815,0.030282700434327126,1.0541267395019531,2.74227237701416,-4.527294635772705,-0.27488672733306885,1.911128282546997,3.99353289604187,0.3218725025653839,-0.0684129148721695,-0.08529242128133774,1.34828782081604
235,25068,25065,0.05828117951750755,-0.026093294844031334,1.0223091840744019,2.8643198013305664,-4.009665012359619,-0.4036276042461395,1.9106274843215942,3.9938113689422607,0.32165348529815674,-0.13602621853351593,-0.039460208266973495,1.3386449813842773
236,25078,25075,-0.014381546527147293,0.037023015320301056,1.0213406085968018,1.6894363164901733,-2.4767444133758545,-0.6161583662033081,1.9123553037643433,3.994237184524536,0.3213498294353485,-0.07193142920732498,0.0046079326421022415,1.3463720083236694
237,25088,25085,0.030929826200008392,-0.013220756314694881,0.9104049801826477,1.2384417057037354,-0.5221903324127197,-0.45106804370880127,1.9128912687301636,3.9942874908447266,0.321460098028183,0.03149266168475151,0.018973033875226974,1.3365178108215332
238,25098,25095,-0.05563501641154289,0.053433045744895935,1.0580776929855347,0.3692953288555145,-0.5880548357963562,-0.4666547477245331,1.912274718284607,3.9948902130126953,0.32135164737701416,0.00470372661948204,-0.10935354232788086,1.3618988990783691
