,timestamp_start,timestamp_end,acc.x,acc.y,acc.z,gyro.x,gyro.y,gyro.z,stateEstimate.x,stateEstimate.y,stateEstimate.z,stabilizer.pitch,stabilizer.roll,stabilizer.yaw
0,21235,21231,0.01195692177861929,0.016232481226325035,1.0152314901351929,-15.984427452087402,-16.154613494873047,0.8301820158958435,1.7401440143585205,4.3757219314575195,0.17165039479732513,1.1489834785461426,-0.3442191481590271,1.326444149017334
1,21245,21241,0.025601297616958618,-0.005256610456854105,0.9980098605155945,-11.71827507019043,-17.080913543701172,1.4820311069488525,1.7328252792358398,4.379819393157959,0.17448651790618896,1.5914288759231567,-0.784868597984314,1.3719686269760132
2,21255,21251,-0.009707865305244923,-0.03785927966237068,0.9896605014801025,-6.104296684265137,-12.196547508239746,2.177990436553955,1.732566237449646,4.380353927612305,0.17902426421642303,1.599689245223999,-0.7975308299064636,1.3741257190704346
3,21265,21261,0.0030002272687852383,0.005319633055478334,1.0167592763900757,2.2932605743408203,-4.487728595733643,2.4803786277770996,1.730778455734253,4.381989002227783,0.18143966794013977,1.8409751653671265,-0.9114875197410583,1.4001356363296509
4,21275,21271,0.020222900435328484,0.004405030980706215,1.0117956399917603,8.65715503692627,3.6338675022125244,3.0939722061157227,1.7297091484069824,4.383171081542969,0.18373113870620728,1.8006865978240967,-0.8960162997245789,1.4248629808425903
5,21285,21281,0.016833996400237083,-0.020654620602726936,0.9898113012313843,13.523126602172852,11.569514274597168,3.722848892211914,1.7306814193725586,4.382912635803223,0.18729954957962036,2.5517189502716064,-0.5170341730117798,1.4078203439712524
6,21295,21291,0.0006692062597721815,-0.029584813863039017,0.9785182476043701,14.542540550231934,16.93803596496582,4.248062610626221,1.7282078266143799,4.37315559387207,0.18936336040496826,2.366633415222168,-0.04517616331577301,1.301340103149414
7,21305,21301,0.0024516277480870485,-0.048359036445617676,0.9748067259788513,8.376994132995605,25.417110443115234,4.477868556976318,1.7289037704467773,4.369510650634766,0.19254186749458313,2.0782523155212402,0.04616095498204231,1.3596181869506836
8,21315,21311,0.028070630505681038,-0.12562058866024017,1.011074423789978,-2.9275364875793457,29.488264083862305,3.860091209411621,1.7291940450668335,4.369231224060059,0.1941274106502533,1.8376108407974243,0.052112214267253876,1.4328086376190186
9,21325,21321,0.055425118654966354,-0.1435677856206894,0.9696928262710571,-14.783331871032715,29.885713577270508,2.406898260116577,1.7286944389343262,4.369240760803223,0.19706366956233978,1.3463371992111206,-0.17770133912563324,1.5448145866394043
10,21335,21331,-0.014107447117567062,0.011839237995445728,1.0334651470184326,-21.518856048583984,25.666379928588867,1.6115386486053467,1.7293885946273804,4.37054443359375,0.20043623447418213,0.9483240246772766,-0.2751094698905945,1.5677295923233032
11,21345,21341,0.01909247413277626,-0.012298320420086384,0.964729368686676,-22.044172286987305,18.24073600769043,1.5740286111831665,1.7289613485336304,4.371184349060059,0.20290888845920563,0.8820600509643555,-0.46970605850219727,1.581446886062622
12,21355,21351,-0.013308885507285595,-0.06325963139533997,0.9424046874046326,-17.840850830078125,10.525163650512695,2.0427918434143066,1.7277252674102783,4.370246410369873,0.20399267971515656,0.6070072650909424,-0.8109226822853088,1.6189359426498413
13,21365,21361,0.027003435418009758,-0.048037730157375336,0.9139237999916077,-10.094315528869629,3.1557304859161377,1.6132230758666992,1.7276839017868042,4.370872497558594,0.20635390281677246,0.3968258202075958,-1.0543075799942017,1.6461657285690308
14,21375,21371,0.012581437826156616,-0.017758239060640335,0.9728477597236633,-0.1397506147623062,-1.2943322658538818,1.8091782331466675,1.7278069257736206,4.371128559112549,0.20858274400234222,0.5289306640625,-1.156172513961792,1.6529483795166016
15,21385,21381,0.008217927068471909,0.013281043618917465,0.9978713989257812,8.694708824157715,-3.2151262760162354,2.1342384815216064,1.7257680892944336,4.370046138763428,0.2106153964996338,0.4843137860298157,-1.1729545593261719,1.671377182006836
16,21395,21391,-0.003048820188269019,0.016782181337475777,0.9948275089263916,17.014314651489258,-2.224480628967285,1.887830138206482,1.7247792482376099,4.368711471557617,0.21283957362174988,0.4756319224834442,-1.0326454639434814,1.687638759613037
17,21405,21401,-0.004307935480028391,0.00880686566233635,0.9872289299964905,18.796043395996094,1.6114976406097412,1.5966606140136719,1.7240161895751953,4.367019176483154,0.21506920456886292,0.3643474280834198,-1.0167720317840576,1.7288495302200317
18,21415,21411,-0.025797482579946518,0.06681785732507706,0.9482511878013611,16.597850799560547,5.1050615310668945,0.6308215260505676,1.7241970300674438,4.367153167724609,0.21647761762142181,0.4353230893611908,-0.805435836315155,1.7379342317581177
19,21425,21421,0.0013678728137165308,0.04185876250267029,0.9337978959083557,11.52336311340332,8.091504096984863,0.290399432182312,1.7232780456542969,4.366896152496338,0.21857061982154846,0.2863219976425171,-0.7207119464874268,1.759229063987732
20,21435,21431,0.0008438146323896945,0.015111656859517097,0.9626668691635132,5.434737682342529,9.831192016601562,0.183530792593956,1.7235702276229858,4.367182731628418,0.22062669694423676,0.1855580359697342,-0.6345030069351196,1.767432689666748
21,21445,21441,0.03217342123389244,0.0583808608353138,0.901835560798645,1.063297152519226,9.252711296081543,-0.09269718825817108,1.7234569787979126,4.367368221282959,0.22171619534492493,-0.011848416179418564,-0.5562057495117188,1.7759644985198975
22,21455,21451,0.04097559303045273,0.01564175821840763,0.9192427396774292,-1.8108055591583252,7.25361967086792,-0.5546504855155945,1.7236437797546387,4.366340160369873,0.2236068695783615,-0.17824877798557281,-0.6284677386283875,1.7816060781478882
23,21465,21461,-0.012438956648111343,0.04329698905348778,0.9989686012268066,-1.3774045705795288,3.6029083728790283,-0.7332025170326233,1.7236807346343994,4.366541385650635,0.22540543973445892,-0.2940825819969177,-0.6406441330909729,1.7805533409118652
24,21475,21471,-0.006543546449393034,-0.018715161830186844,0.9702110886573792,0.996202826499939,-0.4715039134025574,-0.43274742364883423,1.7225300073623657,4.364492416381836,0.2272110879421234,-0.3421693444252014,-0.4024755358695984,1.7785613536834717
25,21485,21481,-0.047860193997621536,0.10626277327537537,0.9946903586387634,3.645569324493408,-5.318950176239014,-1.2033909559249878,1.7226287126541138,4.362553119659424,0.22938039898872375,-0.31541168689727783,-0.3876759707927704,1.7714788913726807
26,21495,21491,-0.030167505145072937,0.04385906830430031,0.9677469730377197,4.829926013946533,-7.101243495941162,-0.6115261316299438,1.7223588228225708,4.362414836883545,0.2312019020318985,-0.22989705204963684,-0.33953163027763367,1.7591086626052856
27,21505,21501,-0.0021932225208729506,0.06033068522810936,0.9527185559272766,4.8721723556518555,-7.340577602386475,-0.8283951878547668,1.7219916582107544,4.36218786239624,0.23299942910671234,-0.12301671504974365,-0.27321791648864746,1.7522368431091309
28,21515,21511,0.017400382086634636,-0.0033546308986842632,0.9284956455230713,3.362281084060669,-5.185340881347656,-1.407231330871582,1.721571445465088,4.3619184494018555,0.23552511632442474,-0.1020723208785057,0.39400193095207214,1.7851245403289795
29,21525,21521,0.020904535427689552,-0.03835245966911316,0.9661923050880432,1.1772575378417969,-2.1497058868408203,-1.829490065574646,1.7221471071243286,4.356441020965576,0.23700617253780365,-0.7195263504981995,0.8870473504066467,1.822448492050171
30,21535,21531,-0.00921598169952631,0.02849915437400341,1.0231410264968872,-6.044680118560791,-0.0034110001288354397,-2.2060394287109375,1.7262423038482666,4.3470964431762695,0.2375270277261734,-0.613114595413208,0.7233849763870239,1.7825572490692139
31,21545,21541,0.020811427384614944,-0.023264983668923378,0.9446735978126526,-17.055692672729492,-2.767151117324829,-2.560643434524536,1.7250710725784302,4.345952987670898,0.2393512725830078,-0.5266998410224915,0.44232580065727234,1.7418830394744873
32,21555,21551,-0.0029409409034997225,-0.02641317807137966,0.9633079767227173,-25.212392807006836,-6.963056564331055,-2.5329480171203613,1.724793791770935,4.347000598907471,0.24153131246566772,-0.40619179606437683,0.024819614365696907,1.692602515220642
33,21565,21561,0.018755409866571426,-0.018365193158388138,0.9572405219078064,-27.025592803955078,-11.140316009521484,-2.819735288619995,1.7242915630340576,4.348573207855225,0.2435874491930008,-0.3019055128097534,-0.39231783151626587,1.6501507759094238
34,21575,21571,0.00124246790073812,0.008179602213203907,0.9964141249656677,-22.699827194213867,-12.430956840515137,-3.242079019546509,1.7230075597763062,4.347743511199951,0.24526062607765198,-0.14757712185382843,-0.5732433795928955,1.6353440284729004
35,21585,21581,0.011424359865486622,-0.013694467954337597,0.9787569046020508,-11.863606452941895,-11.837862014770508,-3.406419277191162,1.7231186628341675,4.346177577972412,0.24636687338352203,0.018861178308725357,-0.9699097275733948,1.5893025398254395
36,21595,21591,0.013202046044170856,-0.01716427505016327,0.9745113849639893,-2.375030994415283,-9.057223320007324,-3.053544044494629,1.7198898792266846,4.3474907875061035,0.24784742295742035,0.16651174426078796,-1.1848963499069214,1.5519973039627075
37,21605,21601,0.048614662140607834,0.0029533582273870707,0.9407314658164978,10.30236530303955,-6.84884786605835,-2.929734468460083,1.7198725938796997,4.34787130355835,0.2492205798625946,0.19558130204677582,-1.1878366470336914,1.5249582529067993
38,21615,21611,0.012552720494568348,0.004913025069981813,0.968660295009613,17.593395233154297,-2.746375799179077,-2.677457571029663,1.7193095684051514,4.345683574676514,0.2508910000324249,0.3340897858142853,-1.0912443399429321,1.4974712133407593
39,21625,21621,0.01343868114054203,-0.029019493609666824,0.9536942839622498,20.591482162475586,-1.329240083694458,-2.858656644821167,1.7170236110687256,4.342313289642334,0.2522798776626587,0.4088610112667084,-0.8873695731163025,1.471866488456726
40,21635,21631,0.02663135901093483,0.10407847166061401,0.9186419248580933,17.421585083007812,1.2838431596755981,-2.9924044609069824,1.7169150114059448,4.341799736022949,0.2536146342754364,0.5171261429786682,-1.0425889492034912,1.4174859523773193
41,21645,21641,0.035321444272994995,0.06624897569417953,0.9731075167655945,11.135170936584473,2.1815738677978516,-3.0489940643310547,1.714882731437683,4.34316349029541,0.2521926164627075,0.5072786808013916,-0.7538678646087646,1.3934465646743774
42,21655,21651,0.03474745526909828,-0.045061469078063965,0.9351279735565186,6.188872337341309,1.9110485315322876,-3.1252710819244385,1.715018391609192,4.342310905456543,0.2533595860004425,0.48938339948654175,-0.6535583138465881,1.3609429597854614
43,21665,21661,0.018867433071136475,-0.024280741810798645,0.9861680269241333,1.8220359086990356,1.2867130041122437,-3.3641910552978516,1.7130661010742188,4.344340801239014,0.2544203996658325,0.4751433730125427,-0.6321268081665039,1.3278616666793823
44,21675,21671,0.012797060422599316,0.00012035472900606692,0.9825589060783386,-0.7107883095741272,-0.3174195885658264,-3.4642438888549805,1.7118443250656128,4.345975875854492,0.2554246783256531,0.4679301977157593,-0.5923171639442444,1.2956792116165161
45,21685,21681,0.08162547647953033,-0.035546302795410156,0.8904266953468323,-0.11740138381719589,-0.8420359492301941,-3.8562967777252197,1.7114624977111816,4.346324443817139,0.25625860691070557,0.47447896003723145,-0.7345743179321289,1.2560943365097046
46,21695,21691,0.026186494156718254,-0.021789824590086937,0.9583072066307068,1.7386263608932495,-2.197913646697998,-3.6833629608154297,1.7111787796020508,4.347886085510254,0.25713351368904114,0.5793540477752686,-0.6215696334838867,1.2142583131790161
47,21705,21701,-0.004836655221879482,-0.007141003385186195,0.9977918863296509,5.739152431488037,-1.9852385520935059,-3.919268846511841,1.7102758884429932,4.347007751464844,0.25807541608810425,0.6922750473022461,-0.5529221296310425,1.1729532480239868
48,21715,21711,0.0362451896071434,-0.026909802109003067,0.973109245300293,9.038963317871094,-1.0060278177261353,-3.4988021850585938,1.7095516920089722,4.346939563751221,0.2595440447330475,0.48804202675819397,-0.5039995312690735,1.1460239887237549
49,21725,21721,0.04440887272357941,-0.039361823350191116,0.9618685245513916,10.189985275268555,1.118642807006836,-3.1880831718444824,1.7113606929779053,4.347278594970703,0.26060596108436584,0.5799932479858398,-0.7812906503677368,1.109290599822998
50,21735,21731,-0.013193556107580662,-0.029440637677907944,1.0069118738174438,9.996244430541992,2.059068202972412,-3.2013778686523438,1.7108445167541504,4.351808071136475,0.2614327073097229,0.7059155106544495,-0.6294881701469421,1.0709431171417236
51,21745,21741,0.027569692581892014,0.0025310516357421875,1.0052335262298584,10.135387420654297,3.475372791290283,-3.5934462547302246,1.709248661994934,4.35189962387085,0.260858952999115,0.5615653395652771,-0.6316070556640625,1.0466437339782715
52,21755,21751,0.0037228234577924013,-0.0014211875386536121,1.008049488067627,10.08978271484375,2.683868408203125,-3.250514507293701,1.710028052330017,4.353560924530029,0.2616536021232605,0.577521562576294,-0.545346736907959,1.0101909637451172
53,21765,21761,0.0011443482944741845,-0.020971454679965973,1.0032081604003906,10.804692268371582,3.150418281555176,-2.9408957958221436,1.7094517946243286,4.354283809661865,0.26242974400520325,0.510970413684845,-0.37775713205337524,0.9789369106292725
54,21775,21771,0.004872146528214216,0.020635630935430527,1.026450276374817,12.088903427124023,3.5112454891204834,-3.163296699523926,1.7111687660217285,4.352905750274658,0.2633078992366791,0.4423684775829315,-0.3513346314430237,0.9508668780326843
55,21785,21781,0.012360499240458012,-0.01739579439163208,1.0051400661468506,12.740489959716797,2.977792739868164,-3.075192451477051,1.7108842134475708,4.353457927703857,0.2643168568611145,0.4524100422859192,-0.14922188222408295,0.9157816767692566
56,21795,21791,0.02192714624106884,-0.05584851652383804,0.9704380035400391,12.421741485595703,2.6780033111572266,-3.0317814350128174,1.7099345922470093,4.3525190353393555,0.2652091681957245,0.46161797642707825,-0.09698793292045593,0.8852941989898682
57,21805,21801,0.0034529366530478,-0.004027380608022213,1.023770809173584,11.767879486083984,2.1860339641571045,-2.9162397384643555,1.709360122680664,4.353843688964844,0.2659951448440552,0.5439296364784241,-0.11766252666711807,0.8572418093681335
58,21815,21811,0.04321352019906044,-0.029968025162816048,0.9749991297721863,10.30884075164795,1.746633529663086,-3.0823817253112793,1.707865834236145,4.356006145477295,0.26571616530418396,0.4022681713104248,0.011197106912732124,0.8289951086044312
59,21825,21821,-0.011402370408177376,-0.062411289662122726,0.9957901239395142,10.532891273498535,2.25644850730896,-3.0708847045898438,1.708487629890442,4.35683012008667,0.2665727436542511,0.4215344488620758,0.27242180705070496,0.7941724061965942
60,21835,21831,0.02177744172513485,0.03259188309311867,1.0369412899017334,12.045251846313477,3.1907196044921875,-2.789397716522217,1.7081087827682495,4.355780124664307,0.2674594819545746,0.3484727144241333,0.4498313367366791,0.761297345161438
61,21845,21841,-0.0035357296001166105,-0.03195272758603096,1.0083706378936768,11.65114974975586,3.517589807510376,-2.142397165298462,1.707916021347046,4.355231761932373,0.26926565170288086,0.2646818161010742,0.4968862533569336,0.728874683380127
62,21855,21851,0.018303334712982178,0.00560749089345336,1.0121701955795288,9.971593856811523,3.364006519317627,-2.000810384750366,1.7099272012710571,4.351935386657715,0.2701011896133423,0.3312121331691742,0.5299214720726013,0.7117018699645996
63,21865,21861,0.013425629585981369,-0.04371644929051399,0.9834731221199036,7.912031173706055,1.9882014989852905,-1.9252313375473022,1.7079377174377441,4.352621555328369,0.2709506154060364,0.2483750730752945,0.7607032060623169,0.6871287822723389
64,21875,21871,0.00994034856557846,0.030342809855937958,1.0256469249725342,5.7032389640808105,1.475188970565796,-2.4879095554351807,1.708175539970398,4.351963043212891,0.27355191111564636,0.1888846606016159,0.7974666357040405,0.6648039817810059
65,21885,21881,-0.056268997490406036,0.08264245837926865,1.0146675109863281,3.6665573120117188,0.9827948212623596,-2.2183101177215576,1.7061909437179565,4.353865146636963,0.27453723549842834,0.1435670703649521,0.727837860584259,0.6387600302696228
66,21895,21891,0.03843331336975098,-0.026125114411115646,0.9828182458877563,2.7928216457366943,1.5973951816558838,-2.641315221786499,1.705762505531311,4.355133056640625,0.27549248933792114,0.1766280084848404,0.7858996987342834,0.6213886141777039
67,21905,21901,0.012757823802530766,0.04266712814569473,0.9831689596176147,3.075103759765625,2.3079071044921875,-2.648242473602295,1.7036994695663452,4.356940269470215,0.27656370401382446,0.10848317295312881,0.9041526317596436,0.5883625745773315
68,21915,21911,0.0048964973539114,0.08260389417409897,0.9688265919685364,4.637046813964844,0.5698062181472778,-2.159092903137207,1.7037811279296875,4.356034278869629,0.276315301656723,0.06412258744239807,0.9471414089202881,0.5601848363876343
69,21925,21921,0.030274536460638046,-0.0434579961001873,0.9539691805839539,5.5960822105407715,-0.28196507692337036,-2.4704430103302,1.7035586833953857,4.355667591094971,0.27717316150665283,0.04594018682837486,1.0140703916549683,0.5370125770568848
70,21935,21931,0.030489863827824593,-0.028554176911711693,0.9985207915306091,5.326294898986816,-0.7727154493331909,-2.4231743812561035,1.703479290008545,4.355567455291748,0.2780304551124573,0.03996337950229645,1.0863914489746094,0.5123237371444702
71,21945,21941,0.004350645001977682,-0.016047189012169838,1.0220905542373657,5.184194087982178,-1.2381618022918701,-2.3003413677215576,1.7032824754714966,4.356011867523193,0.2799501121044159,0.04539692401885986,1.2274080514907837,0.48682522773742676
72,21955,21951,-0.05517732724547386,-0.11604337394237518,1.0127201080322266,3.5244827270507812,-1.2808458805084229,-1.5859267711639404,1.703076958656311,4.3556365966796875,0.280857115983963,0.050165388733148575,1.2705239057540894,0.46284207701683044
73,21965,21961,0.021524673327803612,-0.01793978549540043,1.0006766319274902,0.45334964990615845,-1.3987892866134644,-1.7684646844863892,1.7029366493225098,4.3560895919799805,0.28178033232688904,0.06008116900920868,1.3468514680862427,0.4461290240287781
74,21975,21971,-0.006370172370225191,0.011366979219019413,1.0000367164611816,-2.1687676906585693,-4.404810428619385,-1.1966668367385864,1.7014174461364746,4.357073783874512,0.2805617153644562,0.15463656187057495,1.3673816919326782,0.441150426864624
75,21985,21981,-0.008125522173941135,-0.003203553846105933,1.0166853666305542,-4.700115203857422,-2.4221115112304688,-1.5763194561004639,1.6995854377746582,4.356170654296875,0.2814754247665405,0.24400478601455688,1.3307851552963257,0.43549931049346924
76,21995,21991,-0.002469391329213977,-0.04077305272221565,1.0116921663284302,-6.903632640838623,0.8235912322998047,-1.754534363746643,1.6983946561813354,4.3555169105529785,0.2822863757610321,0.2389013022184372,1.253309726715088,0.41665348410606384
77,22005,22001,0.013914166949689388,-0.044589683413505554,0.9947208762168884,-7.935011386871338,3.654498338699341,-1.7976436614990234,1.6980723142623901,4.355024337768555,0.2831522524356842,0.17917396128177643,1.1510459184646606,0.3895454704761505
78,22015,22011,0.009447467513382435,0.007058005779981613,1.0070666074752808,-6.895468711853027,5.662814140319824,-1.853830337524414,1.6977112293243408,4.354588508605957,0.2847115397453308,0.08594537526369095,1.051401972770691,0.3594391345977783
79,22025,22021,0.001535169780254364,-0.019195185974240303,0.968436598777771,-5.627614974975586,6.971717357635498,-1.5844589471817017,1.6980606317520142,4.355024814605713,0.2856379449367523,-0.024918725714087486,0.9673351049423218,0.32974973320961
80,22035,22031,0.015394175425171852,-0.0463954359292984,0.952481210231781,-3.1663334369659424,6.7362380027771,-1.621766448020935,1.6964031457901,4.357268810272217,0.2865571677684784,0.002492855302989483,0.9869831204414368,0.33540451526641846
81,22045,22041,0.03338393196463585,-0.03675416111946106,0.9665080308914185,-0.47537705302238464,4.658452987670898,-1.759870171546936,1.6954574584960938,4.3567376136779785,0.28762394189834595,-0.09723363071680069,0.9708254337310791,0.31086650490760803
82,22055,22051,0.01794380322098732,0.002158500486984849,1.0120924711227417,0.9328669905662537,2.56601619720459,-1.8339742422103882,1.693924903869629,4.361098289489746,0.2885088324546814,-0.1660880446434021,0.982323944568634,0.28843361139297485
83,22065,22061,0.0004914779565297067,0.031344253569841385,1.0235754251480103,0.8879357576370239,-0.2818683981895447,-1.578511118888855,1.6941272020339966,4.36105489730835,0.28935855627059937,-0.19426755607128143,1.0749839544296265,0.2735559344291687
84,22075,22071,0.026727085933089256,0.06229403242468834,0.958743155002594,-0.46791642904281616,-4.084792613983154,-1.9146777391433716,1.6942458152770996,4.360127925872803,0.2949875593185425,-0.16770930588245392,1.0063573122024536,0.25252681970596313
85,22085,22081,0.028250841423869133,-0.006592468358576298,0.9641208052635193,-3.746724843978882,-7.151303291320801,-1.9114447832107544,1.693563461303711,4.359525680541992,0.2961053252220154,-0.09363508224487305,1.1154001951217651,0.24654273688793182
86,22095,22091,0.004708386491984129,-0.005309706088155508,0.9965888261795044,-6.841888427734375,-8.478124618530273,-1.9570987224578857,1.6921699047088623,4.359206199645996,0.29715582728385925,0.016756821423768997,1.0171536207199097,0.2300785928964615
87,22105,22101,0.007380408234894276,-0.00012800924014300108,0.977110743522644,-9.969805717468262,-8.573530197143555,-1.8185096979141235,1.691622257232666,4.356782913208008,0.2977973222732544,-0.0725458562374115,0.8004165887832642,0.16708128154277802
88,22115,22111,0.0006805154262110591,-0.03479507938027382,0.9509028196334839,-10.971044540405273,-6.144039630889893,-1.3048715591430664,1.6927614212036133,4.356774806976318,0.29883432388305664,0.18424969911575317,0.7026488184928894,0.18260163068771362
89,22125,22121,-0.002767065307125449,-0.04744972288608551,0.9477007389068604,-9.064658164978027,-4.66468620300293,-0.9472377300262451,1.6895986795425415,4.357986927032471,0.29980552196502686,0.25111275911331177,0.819119393825531,0.1833868771791458
90,22135,22131,0.006463596131652594,-0.04022829607129097,0.9491979479789734,-6.984550952911377,-1.482998013496399,-0.5793966054916382,1.6889348030090332,4.3549652099609375,0.3007654547691345,0.2752603590488434,0.7361978888511658,0.17232771217823029
91,22145,22141,0.012764868326485157,-0.08291169255971909,0.980778694152832,-5.757452964782715,2.6383421421051025,-0.4118693172931671,1.6881266832351685,4.355417728424072,0.3000253438949585,0.2552507519721985,0.8191192746162415,0.1680421233177185
92,22155,22151,0.012914731167256832,-0.05707770958542824,0.9535466432571411,-5.520811080932617,5.137390613555908,-0.24654513597488403,1.6879483461380005,4.35391902923584,0.3007432222366333,0.1677904576063156,0.6162644028663635,0.150360107421875
93,22165,22161,0.0077580600045621395,-0.03627948462963104,0.956762433052063,-6.952207565307617,6.337924480438232,-0.3900802731513977,1.6883217096328735,4.355045318603516,0.3016056716442108,0.05380212515592575,0.5612104535102844,0.13920128345489502
94,22175,22171,0.018108395859599113,-0.026909200474619865,0.9710457921028137,-8.234147071838379,5.444862365722656,0.10112042725086212,1.6887825727462769,4.354825496673584,0.29986515641212463,0.012877877801656723,0.41020166873931885,0.13789615035057068
95,22185,22181,0.02474069781601429,-0.014580254442989826,0.9872880578041077,-8.85110855102539,3.373765230178833,0.16909776628017426,1.6873365640640259,4.356438159942627,0.30042314529418945,-0.07514163851737976,0.2495737373828888,0.13059887290000916
96,22195,22191,0.0159998070448637,-0.0030404275748878717,0.9989786744117737,-7.493730545043945,6.131543159484863,0.7869133353233337,1.6861251592636108,4.358453273773193,0.30092543363571167,-0.2304936796426773,0.10126148164272308,0.11610382050275803
97,22205,22201,-0.010549022816121578,0.01707904040813446,1.0092421770095825,-6.4621806144714355,9.464095115661621,1.1364573240280151,1.6862246990203857,4.359975337982178,0.3018921911716461,-0.3463466167449951,-0.01367961335927248,0.11696140468120575
98,22215,22211,0.040545251220464706,0.039112597703933716,1.0018048286437988,-2.979667901992798,12.59986686706543,1.3039531707763672,1.6868603229522705,4.360373497009277,0.3023054301738739,-0.30302590131759644,0.6284412145614624,0.18021509051322937
99,22225,22221,0.001229819725267589,0.011484800837934017,1.0015010833740234,-0.3310994803905487,13.481437683105469,1.3829734325408936,1.6847399473190308,4.353559970855713,0.3031691610813141,-0.5199882388114929,0.6016095280647278,0.18742641806602478
100,22235,22231,0.008574805222451687,-0.016838328912854195,0.9730486869812012,-2.0532186031341553,14.141473770141602,1.6456694602966309,1.6848808526992798,4.353549957275391,0.3035784363746643,-0.5987587571144104,0.5097395181655884,0.20297986268997192
101,22245,22241,0.00781615637242794,-0.026027092710137367,0.976867139339447,-7.0540056228637695,13.136167526245117,1.3100792169570923,1.6842856407165527,4.353793144226074,0.30092546343803406,-0.6759626865386963,0.36664289236068726,0.21655702590942383
102,22255,22251,-0.025164954364299774,-0.01853068731725216,1.00563645362854,-12.829964637756348,10.158334732055664,1.4733341932296753,1.683026671409607,4.3533124923706055,0.3012496829032898,-0.8657943606376648,0.2854609787464142,0.2270856350660324
103,22265,22261,0.015579345636069775,-0.01800869032740593,0.9856606721878052,-17.3044376373291,8.563333511352539,1.6007639169692993,1.6837294101715088,4.352644443511963,0.30138155817985535,-1.0137040615081787,0.12126969546079636,0.23680022358894348
104,22275,22271,0.03522074222564697,0.00035525948624126613,1.0012946128845215,-17.511398315429688,7.121615886688232,1.6145641803741455,1.6843063831329346,4.352337837219238,0.3006483316421509,-0.9817088842391968,-0.226022869348526,0.24114200472831726
105,22285,22281,0.018372580409049988,-0.018851902335882187,0.9843687415122986,-16.113018035888672,9.073481559753418,1.8398699760437012,1.6819709539413452,4.356784820556641,0.30088698863983154,-1.10701584815979,-0.25180351734161377,0.27190130949020386
106,22295,22291,0.006875846069306135,-0.15170244872570038,0.9795920848846436,-9.168335914611816,4.258387565612793,2.178809404373169,1.6819769144058228,4.355425834655762,0.30097711086273193,-1.1927038431167603,-0.3680049180984497,0.2938555181026459
107,22305,22301,0.021659793332219124,0.0038027851842343807,1.0252572298049927,-3.1675052642822266,2.9189980030059814,2.4282548427581787,1.6827934980392456,4.350279808044434,0.3029724359512329,-1.1624412536621094,-0.38897112011909485,0.32691216468811035
108,22315,22311,0.017834508791565895,0.0889582484960556,1.0351608991622925,0.918425440788269,4.213010311126709,2.595207452774048,1.6816202402114868,4.3473124504089355,0.30320408940315247,-1.2204740047454834,-0.46752050518989563,0.3421373963356018
109,22325,22321,-0.07107330858707428,0.0838688537478447,1.059666395187378,2.235267162322998,4.568869590759277,3.0581276416778564,1.6824129819869995,4.346988201141357,0.3034294545650482,-1.1908433437347412,-0.49353253841400146,0.36312800645828247
110,22335,22331,0.01223839446902275,0.02186521515250206,1.0017378330230713,1.4061187505722046,4.997211456298828,3.0672476291656494,1.6831902265548706,4.345343589782715,0.3039746880531311,-1.342016577720642,-0.5111662149429321,0.3877239525318146
111,22345,22341,-0.005665721371769905,-0.04294653609395027,0.9912351965904236,-0.6863869428634644,4.914858341217041,2.769458293914795,1.6851705312728882,4.344917297363281,0.3025016486644745,-1.4074872732162476,-0.5460989475250244,0.41006723046302795
112,22355,22351,0.025445902720093727,-0.03441619500517845,1.0011162757873535,-3.2154338359832764,3.6375584602355957,2.321471929550171,1.6855295896530151,4.3449296951293945,0.30267518758773804,-1.38338041305542,-0.6129951477050781,0.42152127623558044
113,22365,22361,0.016680140048265457,-0.002147981896996498,1.0236806869506836,-4.749035358428955,1.579613447189331,2.074660062789917,1.6852883100509644,4.344771862030029,0.3031415343284607,-1.4118694067001343,-0.7094078063964844,0.4319699704647064
114,22375,22371,-0.013929933309555054,-0.005385555326938629,1.029416561126709,-4.964655876159668,-0.7306991219520569,1.8528714179992676,1.6851763725280762,4.345444679260254,0.3016897141933441,-1.5465420484542847,-0.6710366010665894,0.47786417603492737
115,22385,22381,0.05139316990971565,-0.03261042386293411,0.9811187982559204,-3.2658779621124268,-2.443631172180176,1.2765190601348877,1.687013030052185,4.344020366668701,0.30176982283592224,-1.480398416519165,-0.6986656188964844,0.49461936950683594
116,22395,22391,0.006269106175750494,0.00018947571516036987,1.0368659496307373,0.011194251477718353,-4.781551837921143,0.9180915951728821,1.6868536472320557,4.343501567840576,0.30195119976997375,-1.449578881263733,-0.6894852519035339,0.5147674679756165
117,22405,22401,-0.06016836687922478,0.015765268355607986,1.0839852094650269,2.0797061920166016,-5.832955360412598,1.5302534103393555,1.6874957084655762,4.342502593994141,0.29973509907722473,-1.307769536972046,-0.7096523642539978,0.5132358074188232
118,22415,22411,-0.029588133096694946,-0.029844069853425026,1.0524393320083618,3.0164384841918945,-2.2982964515686035,1.122664451599121,1.6864575147628784,4.342771053314209,0.29980382323265076,-1.2142995595932007,-0.6996971368789673,0.5205269455909729
119,22425,22421,0.05622175708413124,0.027944369241595268,0.9987830519676208,3.0971779823303223,-3.8091869354248047,1.6085078716278076,1.6859233379364014,4.341847896575928,0.2999519109725952,-1.2890510559082031,-0.681875467300415,0.537614643573761
120,22435,22431,0.004752972163259983,0.005462122615426779,1.0228524208068848,2.3182804584503174,1.5270532369613647,1.2196193933486938,1.686414122581482,4.3411054611206055,0.3001171946525574,-1.2242833375930786,-0.6606176495552063,0.5474116206169128
121,22445,22441,-0.0005550161004066467,-0.04007476568222046,1.0485886335372925,1.5680789947509766,1.28024160861969,1.0680633783340454,1.6864540576934814,4.34092903137207,0.3005388081073761,-1.1986128091812134,-0.6535513401031494,0.5531584620475769
122,22455,22451,-0.00932229496538639,-0.016256365925073624,1.0530973672866821,0.8790197372436523,4.205195426940918,1.1276657581329346,1.6859877109527588,4.341219902038574,0.3008061945438385,-1.3445264101028442,-0.6489790081977844,0.575377345085144
123,22465,22461,0.0979200229048729,-0.08015549927949905,1.0019201040267944,0.34395936131477356,2.259884834289551,1.3976470232009888,1.6885069608688354,4.340424060821533,0.30102479457855225,-1.3316594362258911,-0.6603726148605347,0.579068660736084
124,22475,22471,-0.01093357801437378,-0.0670129805803299,1.0025578737258911,0.19653800129890442,1.6417534351348877,1.6709587574005127,1.6889196634292603,4.340520858764648,0.3044484555721283,-1.311777949333191,-0.6011128425598145,0.6014905571937561
125,22485,22481,0.040346141904592514,-0.01339009404182434,1.0028002262115479,0.5313146114349365,-0.32890093326568604,1.6529244184494019,1.6884671449661255,4.339749336242676,0.3044760525226593,-1.4288004636764526,-0.6214303374290466,0.6244949698448181
126,22495,22491,-0.016375631093978882,-0.0055055031552910805,1.0330063104629517,0.8647043108940125,-1.9413095712661743,1.3879811763763428,1.6917775869369507,4.3353471755981445,0.3048853278160095,-1.3522104024887085,-0.6310189366340637,0.6297364830970764
127,22505,22501,4.220020127831958e-05,-0.022770365700125694,0.9996496438980103,2.700807809829712,-4.223396301269531,1.2082669734954834,1.6912668943405151,4.334574222564697,0.30191606283187866,-1.401442289352417,-0.6155723333358765,0.6515188217163086
128,22515,22511,0.03798798844218254,-0.027259664610028267,0.993308961391449,3.9422576427459717,-4.214507579803467,1.0971853733062744,1.6930278539657593,4.333963394165039,0.30215394496917725,-1.2655889987945557,-0.5743345022201538,0.6557262539863586
129,22525,22521,-0.002230080310255289,0.008040506392717361,1.037009358406067,4.033963203430176,-5.245574474334717,0.42485499382019043,1.6940908432006836,4.332488536834717,0.3025239408016205,-1.4285931587219238,-0.44777169823646545,0.7061983942985535
130,22535,22531,0.032880086451768875,-0.016988402232527733,1.0004119873046875,5.0565571784973145,-5.388103485107422,-0.14164236187934875,1.6966869831085205,4.331599235534668,0.3040688633918762,-1.2545851469039917,-0.3925175666809082,0.6990560293197632
131,22545,22541,0.028583336621522903,0.015075482428073883,1.026124119758606,4.390320777893066,-5.790842533111572,-0.08555206656455994,1.6964055299758911,4.331236839294434,0.3045721650123596,-1.3962647914886475,-0.3383640944957733,0.7186030149459839
132,22555,22551,0.011244901455938816,-0.05614091828465462,0.9832508563995361,3.155268430709839,-9.102325439453125,-0.4327293634414673,1.698046326637268,4.330615520477295,0.3048194944858551,-1.25660240650177,-0.29805421829223633,0.7088005542755127
133,22565,22561,-0.0576346181333065,0.035105131566524506,1.031693935394287,1.155935287475586,-5.847964763641357,-0.001106332172639668,1.6982494592666626,4.330362319946289,0.30532076954841614,-1.0547000169754028,-0.3626858592033386,0.6732232570648193
134,22575,22571,0.023646842688322067,-0.00390587467700243,0.9756821990013123,-0.4360078275203705,-7.12451696395874,-0.27094197273254395,1.696695327758789,4.330878734588623,0.3052443563938141,-1.1732761859893799,-0.37088730931282043,0.683806836605072
135,22585,22581,0.015699781477451324,-0.050659749656915665,0.9987234473228455,-0.9979457855224609,-8.383462905883789,-0.5834714770317078,1.6986539363861084,4.329881191253662,0.30554288625717163,-1.0966880321502686,-0.394909530878067,0.6761712431907654
136,22595,22591,0.016659710556268692,-0.009297383017838001,1.0151127576828003,-0.3959563672542572,-8.870855331420898,-0.6454779505729675,1.700617790222168,4.329872131347656,0.3063550293445587,-0.9300005435943604,-0.33966946601867676,0.6762725114822388
137,22605,22601,0.024346046149730682,-0.06117170676589012,0.9763646721839905,0.5451153516769409,-10.07749080657959,-0.5112221240997314,1.7000632286071777,4.328449249267578,0.3026718199253082,-0.9090279936790466,-0.5089156627655029,0.6460909247398376
138,22615,22611,0.025448760017752647,-0.04079143702983856,0.9623875021934509,1.6843781471252441,-8.177952766418457,-0.5242093801498413,1.7013397216796875,4.3293137550354,0.3027789890766144,-0.8128868341445923,-0.4893634021282196,0.6431030631065369
139,22625,22621,0.02813802659511566,-0.051363926380872726,0.9529620409011841,2.6869726181030273,-8.080324172973633,0.35039567947387695,1.7013437747955322,4.329192638397217,0.302782267332077,-0.7209610939025879,-0.45157456398010254,0.6442273855209351
140,22635,22631,-0.0006993879214860499,-0.04542382434010506,0.99433833360672,3.8597757816314697,-7.338039875030518,0.8941977024078369,1.7023729085922241,4.329050540924072,0.3042561411857605,-0.7956166863441467,-0.3956819772720337,0.6647034883499146
141,22645,22641,-0.023244645446538925,-0.008253918029367924,1.0380750894546509,5.482071876525879,-5.822373867034912,0.6676779389381409,1.7062077522277832,4.32868766784668,0.3044489920139313,-0.5560875535011292,-0.31719547510147095,0.6663906574249268
142,22655,22651,0.010771432891488075,0.009964536875486374,1.004463791847229,6.290459156036377,-5.407762050628662,0.3968728482723236,1.705312728881836,4.327524662017822,0.3048302233219147,-0.5854805111885071,-0.29899919033050537,0.6754981279373169
143,22665,22661,0.01269654929637909,-0.05468262732028961,0.972629725933075,6.181591033935547,-5.2690863609313965,-0.047089967876672745,1.7079908847808838,4.3272013664245605,0.30492109060287476,-0.451899915933609,-0.26977160573005676,0.6692591905593872
144,22675,22671,0.01804947853088379,0.011418296955525875,1.0143938064575195,5.426302909851074,-5.132951259613037,0.1324448585510254,1.7067283391952515,4.328253746032715,0.3050213158130646,-0.2499477118253708,-0.16498777270317078,0.6633461713790894
145,22685,22681,0.013306928798556328,-0.04674312472343445,0.9886067509651184,5.226837635040283,-5.038335800170898,0.40878501534461975,1.7059352397918701,4.327166557312012,0.30534425377845764,-0.3845236301422119,-0.06926995515823364,0.6790614724159241
146,22695,22691,0.010382667183876038,0.003007679944857955,1.0412708520889282,3.78747296333313,-4.687642574310303,0.6915437579154968,1.7096468210220337,4.326820373535156,0.30566051602363586,-0.260661244392395,0.010175623930990696,0.6807375550270081
147,22705,22701,0.015554320998489857,0.028874607756733894,1.0633553266525269,2.3865387439727783,-3.9698145389556885,-0.04836391285061836,1.7086275815963745,4.325862407684326,0.3054898679256439,-0.23275789618492126,0.056607428938150406,0.687686026096344
148,22715,22711,-0.0007419020403176546,0.0062692794017493725,1.0351672172546387,0.9773949980735779,-2.807281494140625,0.22180421650409698,1.7098379135131836,4.325719833374023,0.305708646774292,-0.2188267558813095,-0.0011537703685462475,0.6848678588867188
149,22725,22721,0.0346856527030468,-0.02012445405125618,1.0068135261535645,-1.213222622871399,-2.373166799545288,0.7389305233955383,1.7111049890518188,4.3263678550720215,0.3059840798377991,-0.05736922472715378,-0.0036308318376541138,0.6835863590240479
150,22735,22731,-0.006658047437667847,0.03935462236404419,1.0657944679260254,-1.5229997634887695,-1.3672547340393066,0.6949307918548584,1.7121602296829224,4.3254289627075195,0.3075713813304901,-0.001036337693221867,-0.02813875302672386,0.6894401907920837
151,22745,22741,0.00623673852533102,0.0076827057637274265,1.0129178762435913,0.4367857575416565,-1.1759586334228516,0.9022427201271057,1.7125462293624878,4.325755596160889,0.30798351764678955,-0.19668228924274445,-0.031002987176179886,0.7014826536178589
152,22755,22751,0.03086230345070362,-0.03799618408083916,0.9777988195419312,1.2767480611801147,-0.4164619743824005,1.059653639793396,1.7122817039489746,4.333724498748779,0.30830132961273193,-0.14386045932769775,-0.013710124418139458,0.7197805643081665
153,22765,22761,0.010106831789016724,0.003047296544536948,1.0163829326629639,1.6495722532272339,-0.6136782169342041,0.5512795448303223,1.7130533456802368,4.333655834197998,0.30872464179992676,-0.023209627717733383,0.09554882347583771,0.7290469408035278
154,22775,22771,0.008838767185807228,-0.008813035674393177,1.0037715435028076,1.0064518451690674,-1.4404174089431763,1.1478571891784668,1.7116336822509766,4.332333087921143,0.31021928787231445,-0.22045397758483887,0.11077743768692017,0.7382982969284058
155,22785,22781,0.03236175328493118,-0.025863485410809517,0.9715460538864136,-1.0731810331344604,-2.4142796993255615,1.0530898571014404,1.7144595384597778,4.332304000854492,0.31055548787117004,-0.06423605978488922,0.10236189514398575,0.7509238719940186
156,22795,22791,0.029857907444238663,-0.006182576064020395,0.9945722222328186,-3.695141315460205,-3.426731824874878,1.4967955350875854,1.7151248455047607,4.332063674926758,0.3111564815044403,-0.2208084762096405,0.05264408886432648,0.7661442756652832
157,22805,22801,-0.007393194828182459,0.012806707061827183,1.0069743394851685,-4.780023574829102,-3.894681453704834,1.2068748474121094,1.7182914018630981,4.331696510314941,0.30733752250671387,-0.022813567891716957,-0.024294884875416756,0.7821205258369446
158,22815,22811,0.03274433687329292,-0.05503327026963234,0.9351429343223572,-4.627668380737305,-6.433414936065674,1.0534183979034424,1.7194470167160034,4.330702304840088,0.3076895475387573,0.011748628690838814,0.05481000989675522,0.7903396487236023
159,22825,22821,0.025855256244540215,-0.04738489165902138,0.977972686290741,-3.658979892730713,-5.402168273925781,1.3603968620300293,1.7178165912628174,4.336886882781982,0.3079190254211426,0.06892351061105728,0.05215956270694733,0.8098691701889038
160,22835,22831,0.005101676099002361,0.0022395602427423,1.0178906917572021,-2.839329719543457,-4.609238147735596,1.5055793523788452,1.7196329832077026,4.335806369781494,0.3115939497947693,0.10445535182952881,-0.018915802240371704,0.8249953985214233
161,22845,22841,-0.019547604024410248,-0.02131246216595173,1.0059422254562378,-2.815153121948242,-2.7237422466278076,1.9116976261138916,1.7196860313415527,4.337057590484619,0.31200435757637024,0.11727868765592575,-0.08237209916114807,0.8423559665679932
162,22855,22851,-0.003557719523087144,-0.031039001420140266,0.9885280728340149,-3.0522615909576416,-1.1969770193099976,2.2775492668151855,1.7199170589447021,4.338261604309082,0.3123980760574341,0.03566062077879906,-0.06263339519500732,0.8511382937431335
163,22865,22861,-0.03618762642145157,0.07237006723880768,0.9730483293533325,-2.5975327491760254,-0.2358100861310959,2.904158115386963,1.7238285541534424,4.332895278930664,0.31213846802711487,0.1708187609910965,-0.1263042688369751,0.8769336342811584
164,22875,22871,-0.026016639545559883,0.030418038368225098,1.014528751373291,-2.682666063308716,-0.9195573329925537,3.5805089473724365,1.721519112586975,4.334990501403809,0.31262829899787903,0.28913652896881104,-0.10377443581819534,0.9000623226165771
165,22885,22881,-0.005284173879772425,-0.027428360655903816,0.9887657761573792,-2.5216212272644043,1.6511527299880981,3.3897480964660645,1.7215893268585205,4.334423065185547,0.31307244300842285,0.06579156219959259,-0.16362647712230682,0.9357990622520447
166,22895,22891,0.045235197991132736,-0.051786668598651886,0.9247072339057922,-1.811311960220337,-1.9786642789840698,4.095409393310547,1.7235428094863892,4.3356194496154785,0.3133186399936676,0.11459462344646454,-0.1341172307729721,0.9690610766410828
167,22905,22901,0.024816688150167465,-0.02308085933327675,0.9793562293052673,-1.574962854385376,-3.382110118865967,3.831347942352295,1.7233011722564697,4.3358635902404785,0.31313833594322205,0.27325913310050964,-0.17736247181892395,1.0118094682693481
168,22915,22911,0.04115082323551178,-0.03702264279127121,0.9703896045684814,-1.3428170680999756,-3.7975120544433594,3.8850362300872803,1.7234487533569336,4.335264682769775,0.3134969472885132,0.20202238857746124,-0.2166941910982132,1.0520155429840088
169,22925,22921,-0.02044539898633957,-0.0032823269721120596,1.0254220962524414,-0.07405126839876175,-2.343266487121582,4.648991584777832,1.7248597145080566,4.334895610809326,0.31367358565330505,0.2879832983016968,-0.23936298489570618,1.0930602550506592
170,22935,22931,-0.03772427514195442,-0.12053457647562027,1.0556590557098389,1.0738894939422607,-1.0012640953063965,4.813361644744873,1.7256494760513306,4.3348236083984375,0.31622275710105896,0.2701781392097473,-0.23809346556663513,1.1399792432785034
171,22945,22941,0.0351719856262207,-0.057114385068416595,0.9633304476737976,0.7901151180267334,0.19010770320892334,4.528301239013672,1.7266485691070557,4.334412097930908,0.316590815782547,0.3908851742744446,-0.23067092895507812,1.187933325767517
172,22955,22951,0.009051168337464333,-0.02833384834229946,0.975053608417511,0.38903865218162537,0.36930257081985474,4.359350681304932,1.7265592813491821,4.334407806396484,0.31708040833473206,0.2625468075275421,-0.2247607558965683,1.2335304021835327
173,22965,22961,-0.005026436876505613,-0.01535925641655922,1.0026108026504517,-1.0744640827178955,0.7418736219406128,4.04807710647583,1.7286686897277832,4.33444881439209,0.31758594512939453,0.21810658276081085,-0.24024975299835205,1.2770402431488037
174,22975,22971,0.004437152296304703,-0.006141980178654194,0.9839112162590027,-2.8324849605560303,0.8751781582832336,4.022370338439941,1.7300641536712646,4.334604263305664,0.3179478347301483,0.17236217856407166,-0.2783340513706207,1.3196533918380737
175,22985,22981,0.04036278650164604,-0.0412571020424366,0.9396902322769165,-3.55466365814209,-0.5546932220458984,4.4642486572265625,1.7330336570739746,4.334522247314453,0.31860828399658203,0.2815704047679901,-0.34004488587379456,1.3635170459747314
176,22995,22991,0.015778345987200737,-0.00861938763409853,0.9913312792778015,-1.8269860744476318,-1.3179670572280884,4.615028381347656,1.732426404953003,4.332983493804932,0.31874242424964905,0.25269433856010437,-0.23579074442386627,1.3948363065719604
177,23005,23001,-0.009059054777026176,0.0021581104956567287,0.9942459464073181,1.2890148162841797,-1.7483692169189453,4.8734235763549805,1.7334330081939697,4.330984592437744,0.3166869878768921,0.38890957832336426,-0.25819727778434753,1.4414552450180054
178,23015,23011,-0.014406023547053337,-0.021427994593977928,0.9835186004638672,2.6924915313720703,-1.8032422065734863,4.606715679168701,1.733452320098877,4.331197738647461,0.31695958971977234,0.5181810259819031,-0.23392610251903534,1.4870519638061523
179,23025,23021,-0.05472883582115173,0.08268773555755615,0.9227814674377441,2.539371967315674,-0.6308140754699707,4.952937602996826,1.7330213785171509,4.330239772796631,0.3171985149383545,0.3954351544380188,-0.20311686396598816,1.5366603136062622
180,23035,23031,0.03492178022861481,-0.05397149175405502,0.9233726859092712,1.061601996421814,1.934671401977539,4.286144733428955,1.7353259325027466,4.329915523529053,0.31425225734710693,0.4822157025337219,-0.17959581315517426,1.5765049457550049
181,23045,23041,0.002962111961096525,-0.013466180302202702,1.0123951435089111,-1.0238503217697144,4.898846626281738,3.7902348041534424,1.7349133491516113,4.3286285400390625,0.31423068046569824,0.43064984679222107,-0.1913328319787979,1.62043035030365
182,23055,23051,-0.008824962191283703,-0.031015494838356972,0.9889870285987854,-2.535660743713379,5.875497341156006,3.4080049991607666,1.7378195524215698,4.3238959312438965,0.31409594416618347,0.34906041622161865,-0.23236289620399475,1.6389039754867554
183,23065,23061,0.0034010130912065506,-0.03387941047549248,0.9857817888259888,-4.0884199142456055,5.995847225189209,3.985433578491211,1.740822672843933,4.3193278312683105,0.315217524766922,0.26391908526420593,-0.29651421308517456,1.678764820098877
184,23075,23071,0.033752892166376114,-0.030591314658522606,0.9760543704032898,-3.3593664169311523,6.693670272827148,3.925208806991577,1.7415220737457275,4.320021152496338,0.3151427209377289,0.2474127858877182,-0.21417617797851562,1.7061539888381958
185,23085,23081,0.02235068567097187,0.08039672672748566,1.0126360654830933,-2.1585400104522705,3.9016385078430176,4.200291633605957,1.7420969009399414,4.318763256072998,0.3151101768016815,0.03181178495287895,-0.2701650559902191,1.7525802850723267
186,23095,23091,-0.0029088023584336042,0.0035629833582788706,1.0162699222564697,-1.4922808408737183,2.3317134380340576,3.957951068878174,1.7430038452148438,4.3203654289245605,0.3152635991573334,0.08334488421678543,-0.3108213245868683,1.7932798862457275
187,23105,23101,0.02055116556584835,-0.04157431796193123,0.9671397805213928,-2.0029964447021484,-0.36259979009628296,3.758509874343872,1.743091106414795,4.320516586303711,0.31529125571250916,0.08570653945207596,-0.35163450241088867,1.8170404434204102
188,23115,23111,0.03461165353655815,-0.020634902641177177,0.998293936252594,-1.2124667167663574,-1.3488255739212036,3.294001817703247,1.746307611465454,4.314360618591309,0.31519490480422974,0.04227431118488312,-0.38998138904571533,1.856025218963623
189,23125,23121,0.01305381115525961,0.0025797414127737284,1.0148916244506836,-0.25475552678108215,-1.7684764862060547,3.1809284687042236,1.7488017082214355,4.309675693511963,0.31505894660949707,0.09208802878856659,-0.4041581153869629,1.8807194232940674
190,23135,23131,-0.0188326146453619,0.014689590781927109,1.08334219455719,1.7117217779159546,-1.3471943140029907,3.3708600997924805,1.750269889831543,4.309119701385498,0.31771939992904663,0.14552715420722961,-0.39438626170158386,1.9115760326385498
191,23145,23141,0.008855955675244331,-0.03201497718691826,1.022460699081421,1.7318029403686523,-0.6199905276298523,3.4875333309173584,1.7509276866912842,4.310423374176025,0.3178623914718628,0.23822815716266632,-0.36526718735694885,1.9437075853347778
192,23155,23151,-0.025339843705296516,0.05049310252070427,1.0514304637908936,1.4451795816421509,-0.556637167930603,3.0360448360443115,1.7511951923370361,4.3100666999816895,0.3180965185165405,0.24067474901676178,-0.3491995334625244,1.9747523069381714
193,23165,23161,0.036715053021907806,-0.0818898007273674,0.9263675808906555,1.2920753955841064,2.222170829772949,2.305037260055542,1.752152681350708,4.310414791107178,0.3172071576118469,0.08274638652801514,-0.33114299178123474,2.006946325302124
194,23175,23171,-0.008409170433878899,0.009056944400072098,1.0338712930679321,0.2074717879295349,4.362488269805908,2.179661273956299,1.754154920578003,4.310804843902588,0.31724733114242554,0.10168278962373734,-0.3280973434448242,2.02612042427063
195,23185,23181,0.030565159395337105,0.025227539241313934,0.9952170848846436,-0.7408257722854614,5.16140604019165,1.9483484029769897,1.7545198202133179,4.3108038902282715,0.3173943758010864,0.02964196540415287,-0.33758413791656494,2.047835350036621
196,23195,23191,0.017276760190725327,-0.02099236659705639,0.970771074295044,-1.441386342048645,5.663796424865723,1.9087764024734497,1.7543673515319824,4.313807010650635,0.31510430574417114,0.02376895770430565,-0.3583647310733795,2.074542999267578
197,23205,23201,-0.002978057134896517,-0.010478767566382885,1.0017979145050049,-0.7618682384490967,4.815594673156738,1.7222442626953125,1.7551605701446533,4.313503742218018,0.3150888979434967,0.02366066351532936,-0.3731377422809601,2.0787711143493652
198,23215,23211,-0.006333405151963234,-0.006503370590507984,1.0005478858947754,0.5458390116691589,3.2563304901123047,1.4512819051742554,1.756941556930542,4.3090386390686035,0.3150487542152405,-0.02902846597135067,-0.304717481136322,2.08943247795105
199,23225,23221,0.00952979177236557,-0.044883497059345245,0.9547384977340698,1.4683983325958252,2.632718801498413,1.8359578847885132,1.754974126815796,4.31411075592041,0.31504368782043457,0.002631200011819601,-0.29034504294395447,2.1179206371307373
200,23235,23231,0.05357581377029419,-0.07329434156417847,0.9695623517036438,1.6621934175491333,1.8660329580307007,1.4949816465377808,1.755225658416748,4.314011096954346,0.31531307101249695,0.032801657915115356,-0.268330842256546,2.132119655609131
201,23245,23241,0.02024686522781849,-0.01680966652929783,1.001932144165039,1.6433629989624023,0.8302072286605835,1.1131869554519653,1.7543919086456299,4.314697265625,0.3152799904346466,0.015117359347641468,-0.2397283911705017,2.1436381340026855
202,23255,23251,0.013194846920669079,-0.00994333066046238,1.0108685493469238,1.4515339136123657,1.5781112909317017,1.95249605178833,1.7550805807113647,4.314622402191162,0.3151836097240448,-0.0826762244105339,-0.2905583083629608,2.1658716201782227
203,23265,23261,0.037877731025218964,-0.018865328282117844,1.0107731819152832,0.665665328502655,2.5207443237304688,1.6447622776031494,1.7570961713790894,4.315040588378906,0.3170708119869232,-0.11093320697546005,-0.2707621157169342,2.1820907592773438
204,23275,23271,-0.0082946065813303,0.010218122974038124,1.0088131427764893,0.2741532623767853,2.6975674629211426,1.8420313596725464,1.7577131986618042,4.314573287963867,0.31708529591560364,-0.15147551894187927,-0.33810484409332275,2.202314615249634
205,23285,23281,0.10747040808200836,-0.007744238246232271,0.9247190356254578,-0.05040240287780762,3.45522141456604,0.42868176102638245,1.7589547634124756,4.31510066986084,0.31707534193992615,-0.13626553118228912,-0.25478595495224,2.2081222534179688
206,23295,23291,0.0068852887488901615,0.05055128410458565,1.0220310688018799,0.45910918712615967,2.483353853225708,0.47124120593070984,1.758508324623108,4.313052177429199,0.3154463768005371,-0.10883618891239166,-0.25067389011383057,2.196997880935669
207,23305,23301,-0.018734639510512352,-0.03128989413380623,0.967658519744873,0.6362152695655823,0.5563734173774719,0.3355116546154022,1.759460687637329,4.3123040199279785,0.3153619170188904,-0.1349066197872162,-0.24156905710697174,2.1933233737945557
208,23315,23311,-0.037885598838329315,0.08237330615520477,1.0537747144699097,1.0624902248382568,1.691606044769287,0.42501506209373474,1.7599250078201294,4.311640739440918,0.31525251269340515,-0.22992491722106934,-0.22532802820205688,2.1985127925872803
209,23325,23321,0.0030159372836351395,-0.003154299221932888,1.0111204385757446,-0.025288695469498634,4.727264881134033,1.1558730602264404,1.7612947225570679,4.311164855957031,0.31509217619895935,-0.21186894178390503,-0.2191709280014038,2.2039833068847656
210,23335,23331,0.07480590790510178,-0.08390172570943832,1.0235340595245361,0.8402496576309204,3.9163477420806885,-0.5141981840133667,1.7617123126983643,4.3115620613098145,0.31535282731056213,-0.22008660435676575,-0.211238831281662,2.2027487754821777
211,23345,23341,0.02241322584450245,0.07833657413721085,0.9947349429130554,1.4964641332626343,3.469834566116333,-0.5119157433509827,1.7617175579071045,4.310805320739746,0.31532710790634155,-0.28526178002357483,-0.18860982358455658,2.1927409172058105
212,23355,23351,-0.014285159297287464,-0.13130690157413483,1.0207860469818115,1.0531806945800781,4.088808536529541,-0.6077731251716614,1.7632555961608887,4.310301780700684,0.3152383863925934,-0.26429566740989685,-0.17097169160842896,2.188544750213623
213,23365,23361,-0.004132529255002737,-0.05248137190937996,1.0289746522903442,1.3495296239852905,4.84979248046875,-1.1409779787063599,1.7628047466278076,4.310935974121094,0.3183099329471588,-0.42243319749832153,-0.2255542278289795,2.180396318435669
214,23375,23371,0.001584843616001308,-0.048913877457380295,0.9724690318107605,1.4482382535934448,4.792540073394775,-1.0983556509017944,1.7646764516830444,4.311689376831055,0.3184029459953308,-0.49723100662231445,-0.20046186447143555,2.168435573577881
215,23385,23381,-0.009350595995783806,-0.02491854876279831,1.0019792318344116,1.4060851335525513,3.525749444961548,-0.42093873023986816,1.765802025794983,4.3116536140441895,0.3185475170612335,-0.5535107254981995,-0.1705014854669571,2.162061929702759
216,23395,23391,0.016483409330248833,0.018127426505088806,1.0092843770980835,2.01830792427063,1.1932485103607178,-0.6474390625953674,1.7667737007141113,4.310798645019531,0.31879106163978577,-0.5115524530410767,-0.20967382192611694,2.1549596786499023
217,23405,23401,0.018214061856269836,-0.02900519035756588,0.9762569069862366,2.0760293006896973,-1.4676573276519775,-0.9960837960243225,1.7669286727905273,4.31144905090332,0.31902170181274414,-0.49475032091140747,-0.16564998030662537,2.140028953552246
218,23415,23411,0.05792545899748802,-0.04068923741579056,0.9960218071937561,2.147148609161377,-2.919341802597046,-0.7908976078033447,1.7666634321212769,4.31110954284668,0.3192214369773865,-0.45298853516578674,-0.12754876911640167,2.1331071853637695
219,23425,23421,0.0033579021692276,-0.011602794751524925,1.0424256324768066,1.8755693435668945,-3.114328145980835,-1.2522764205932617,1.7673312425613403,4.3110127449035645,0.32057759165763855,-0.46685659885406494,-0.08570310473442078,2.124209403991699
220,23435,23431,0.04288571700453758,-0.09414248168468475,0.9502453804016113,1.5813032388687134,-2.0456299781799316,-1.6846712827682495,1.7686715126037598,4.310912132263184,0.3207848370075226,-0.34889283776283264,-0.05127940699458122,2.107506275177002
221,23445,23441,-0.005156613886356354,-0.013302982784807682,1.0014629364013672,1.5131460428237915,-0.30016329884529114,-1.52838134765625,1.7685604095458984,4.310789108276367,0.321106493473053,-0.34336239099502563,-0.09218498319387436,2.089963674545288
222,23455,23451,-0.0051275030709803104,-0.06163402646780014,0.9585459232330322,1.0121418237686157,2.110551357269287,-1.2602226734161377,1.7693254947662354,4.311459541320801,0.3213376998901367,-0.36463290452957153,-0.06211750581860542,2.075484275817871
223,23465,23461,-0.015063690021634102,-0.033398061990737915,0.9876940250396729,-0.4065191149711609,2.9888713359832764,-0.7063799500465393,1.7698272466659546,4.310213088989258,0.3175005316734314,-0.33628928661346436,-0.05139061063528061,2.059445381164551
224,23475,23471,0.025815486907958984,-0.0065565151162445545,0.9839220643043518,-0.7054933309555054,3.7529456615448,-0.280200332403183,1.7690240144729614,4.310248374938965,0.3175034523010254,-0.6168473958969116,-0.057918693870306015,2.0532469749450684
225,23485,23481,0.008520425297319889,-0.001885566278360784,0.9824091792106628,-0.8037686944007874,3.923614978790283,-0.022703802213072777,1.7723822593688965,4.3103928565979,0.31726258993148804,-0.5830232501029968,-0.0631202682852745,2.0523123741149902
226,23495,23491,0.016656549647450447,-0.006343951914459467,0.9888771176338196,-1.620636224746704,1.3586963415145874,-0.19952814280986786,1.77255380153656,4.31044864654541,0.3148038387298584,-0.5252986550331116,-0.07437603920698166,2.0514674186706543
227,23505,23501,0.050042204558849335,-0.042105987668037415,0.9550771117210388,-1.9604026079177856,-1.8105345964431763,0.1511424332857132,1.7726445198059082,4.310536861419678,0.31460872292518616,-0.499396950006485,-0.1727117896080017,2.0490050315856934
228,23515,23511,-0.011140743270516396,0.01556956022977829,1.0146355628967285,-1.9317703247070312,-4.192788124084473,0.3708899915218353,1.7744637727737427,4.307925224304199,0.3143085539340973,-0.43328943848609924,-0.11950135976076126,2.0421388149261475
229,23525,23521,0.06439871340990067,-0.001329955761320889,0.9037972688674927,0.12896916270256042,-4.5951457023620605,0.8897954821586609,1.7749990224838257,4.30731725692749,0.3146924376487732,-0.4429910480976105,-0.12209255993366241,2.0665981769561768
230,23535,23531,0.035384707152843475,-0.004395478870719671,0.9209694862365723,0.7169797420501709,-3.422710657119751,0.7109547257423401,1.7758097648620605,4.310769081115723,0.31438347697257996,-0.5074328780174255,-0.18225765228271484,2.0696051120758057
231,23545,23541,-0.005244391970336437,-0.06346236914396286,0.9745627641677856,2.2167716026306152,-1.3701919317245483,1.2806378602981567,1.7777843475341797,4.311557769775391,0.3139025866985321,-0.36954033374786377,-0.21139922738075256,2.078381299972534
232,23555,23551,0.017405973747372627,-0.013870486058294773,1.0052529573440552,2.9939417839050293,-0.42806559801101685,1.7976744174957275,1.7775870561599731,4.312185287475586,0.3135743737220764,-0.3404516577720642,-0.07119255512952805,2.1002509593963623
233,23565,23561,0.00410734536126256,-0.017273878678679466,0.9868932366371155,4.418792247772217,0.14759637415409088,1.0565762519836426,1.778256893157959,4.311238765716553,0.31090953946113586,-0.47338271141052246,-0.07326549291610718,2.1095833778381348
234,23575,23571,0.0037664705887436867,-0.039558764547109604,1.0050592422485352,4.812374591827393,0.8075878620147705,1.8312761783599854,1.7805427312850952,4.311800479888916,0.310228168964386,-0.4572863280773163,-0.1317763328552246,2.1177802085876465
235,23585,23581,-0.009736122563481331,-0.02714296244084835,1.016055941581726,3.566114902496338,0.9491785168647766,1.155517816543579,1.7812992334365845,4.313042163848877,0.3096596598625183,-0.37646248936653137,0.035431452095508575,2.142321825027466
236,23595,23591,0.022302541881799698,-0.03840511292219162,0.9990025162696838,1.9572621583938599,-0.47344502806663513,1.324541687965393,1.7814158201217651,4.312011241912842,0.31020990014076233,-0.5033527612686157,0.0894283875823021,2.16921329498291
237,23605,23601,-0.009080816991627216,0.0117860222235322,1.0361757278442383,1.4228713512420654,-1.5030595064163208,1.00650155544281,1.7842015027999878,4.313404560089111,0.3096219301223755,-0.3801986575126648,0.04746381565928459,2.1794016361236572
238,23615,23611,0.007974706590175629,-0.029791153967380524,1.020737886428833,0.6464498043060303,-2.4440574645996094,0.9937153458595276,1.7836962938308716,4.313687324523926,0.3093014061450958,-0.25169816613197327,0.07251858711242676,2.19087815284729
239,23625,23621,0.004654742777347565,-0.03903135284781456,1.0167474746704102,-0.5981385707855225,0.10637131333351135,1.517604112625122,1.7835263013839722,4.314241409301758,0.3086622953414917,-0.43407297134399414,0.0857570692896843,2.1930761337280273
