,timestamp_start,timestamp_end,acc.x,acc.y,acc.z,gyro.x,gyro.y,gyro.z,stateEstimate.x,stateEstimate.y,stateEstimate.z,stabilizer.pitch,stabilizer.roll,stabilizer.yaw
0,29058,29054,-0.010845417156815529,0.017814399674534798,1.2084835767745972,1.7130677700042725,-34.79032897949219,-0.4920879304409027,2.0529913902282715,4.0214619636535645,0.0998237282037735,-0.2975155711174011,-0.33913376927375793,3.548513889312744
1,29068,29064,-0.005100898910313845,-0.010333102196455002,1.17644464969635,1.1138981580734253,-31.30704116821289,-0.718468964099884,2.054258346557617,4.021068096160889,0.09868506342172623,0.289678692817688,-0.24379123747348785,3.56223201751709
2,29078,29074,-0.00964212417602539,0.0878027155995369,1.1240304708480835,0.9348851442337036,-27.246822357177734,-1.5266411304473877,2.0533201694488525,4.0190629959106445,0.10275909304618835,0.5391747355461121,-0.16335824131965637,3.5661890506744385
3,29088,29084,-0.009123209863901138,0.05671198293566704,1.1868317127227783,0.4955995976924896,-25.757518768310547,-1.6941454410552979,2.0543856620788574,4.01917839050293,0.1047477275133133,0.37350648641586304,-0.1202416867017746,3.542001962661743
4,29098,29094,0.007998575456440449,-0.033934012055397034,1.194113850593567,1.2807539701461792,-25.229652404785156,-3.1100621223449707,2.05649995803833,4.020330429077148,0.10405344516038895,0.8747962713241577,-0.21431215107440948,3.5172276496887207
5,29108,29104,0.004827301949262619,-0.046301696449518204,1.1793469190597534,1.8774418830871582,-25.991008758544922,-3.2401347160339355,2.0570249557495117,4.021134853363037,0.10852164775133133,1.1043667793273926,-0.07213117927312851,3.4973649978637695
6,29118,29114,-0.002780588110908866,-0.029660547152161598,1.1995601654052734,1.0955191850662231,-27.508790969848633,-2.631937026977539,2.0579488277435303,4.020904541015625,0.1111094057559967,1.0296177864074707,-0.10403436422348022,3.4427309036254883
7,29128,29124,0.013434471562504768,-0.08397669345140457,1.2421926259994507,5.156643867492676,-28.772411346435547,-2.6541028022766113,2.0586211681365967,4.020829200744629,0.11277889460325241,1.5566649436950684,-0.13624456524848938,3.4309444427490234
8,29138,29134,-0.004160638432949781,0.06731006503105164,1.0397231578826904,5.878171920776367,-29.786964416503906,-2.7149226665496826,2.0566325187683105,4.02089786529541,0.11664054542779922,1.9686511754989624,0.019132370129227638,3.4055352210998535
9,29148,29144,-0.004062740132212639,0.021123161539435387,1.0539240837097168,4.359897613525391,-31.994857788085938,-3.1993408203125,2.057281255722046,4.021081924438477,0.12019451707601547,2.1052310466766357,0.0651029720902443,3.3642098903656006
10,29158,29154,-0.022467058151960373,0.0173167921602726,1.0819714069366455,2.7112231254577637,-30.7001953125,-3.4665212631225586,2.058356285095215,4.02074670791626,0.1234799325466156,2.578827381134033,-0.035443369299173355,3.3634893894195557
11,29168,29164,-0.0034302070271223783,-0.061960335820913315,1.1718019247055054,1.3299320936203003,-29.731639862060547,-3.8234047889709473,2.0597591400146484,4.0219902992248535,0.12645618617534637,2.7493317127227783,0.040339335799217224,3.306973695755005
12,29178,29174,0.020169617608189583,-0.044968485832214355,1.1510709524154663,1.0018497705459595,-24.083383560180664,-4.235254764556885,2.061378002166748,4.021396160125732,0.1300201416015625,3.1865315437316895,0.10550721734762192,3.2694880962371826
13,29188,29184,0.0029931573662906885,-0.01457731518894434,1.0515999794006348,1.43243408203125,-17.224313735961914,-5.17982292175293,2.061861276626587,4.02133321762085,0.13377758860588074,3.3263752460479736,0.169925257563591,3.203761100769043
14,29198,29194,0.003426543204113841,-0.022414665669202805,1.0360586643218994,1.692064642906189,-13.103399276733398,-5.007789134979248,2.0630064010620117,4.0213236808776855,0.1363099217414856,3.4702365398406982,0.22546018660068512,3.138045310974121
15,29208,29204,0.008382906205952168,-0.001912553678266704,1.0365540981292725,0.7429972290992737,-8.013289451599121,-5.288200378417969,2.0639941692352295,4.021234035491943,0.13996535539627075,3.5806884765625,0.2649114727973938,3.078338623046875
16,29218,29214,0.0021734919864684343,-0.029442917555570602,1.0220928192138672,-0.5889112949371338,-4.779112815856934,-5.139638900756836,2.0650548934936523,4.020755290985107,0.1436360627412796,3.8813295364379883,0.28111955523490906,3.0369529724121094
17,29228,29224,0.002076591830700636,0.07860216498374939,0.9787744879722595,-1.8220072984695435,-2.1750144958496094,-5.305924892425537,2.0627317428588867,4.018966197967529,0.1480908989906311,3.7932209968566895,0.27288883924484253,2.976914405822754
18,29238,29234,0.000919284182600677,0.04776871204376221,1.0272746086120605,-3.0877044200897217,-0.12836895883083344,-5.491208076477051,2.0621497631073,4.016923904418945,0.15213452279567719,3.5406625270843506,0.5876057744026184,2.7254905700683594
19,29248,29244,0.008720962330698967,-0.0010309844510629773,1.0217821598052979,-3.358827829360962,0.7626150846481323,-4.905949592590332,2.0644748210906982,4.0161614418029785,0.15643510222434998,3.708667755126953,0.4854269027709961,2.7313101291656494
20,29258,29254,0.013766705058515072,-0.055343933403491974,0.9612545371055603,-4.459825038909912,-0.38774338364601135,-4.902711391448975,2.0630083084106445,4.013469696044922,0.16074460744857788,3.630453586578369,0.7377274036407471,2.5263173580169678
21,29268,29264,-0.0053232284262776375,-0.000751752289943397,0.9939267635345459,-7.53041934967041,-1.4709646701812744,-5.058047294616699,2.061495542526245,4.011888027191162,0.16412155330181122,3.7736473083496094,0.5451636910438538,2.5545504093170166
22,29278,29274,0.005748778581619263,-0.02776782214641571,0.9514199495315552,-11.360624313354492,-2.2658274173736572,-4.980337619781494,2.059452772140503,4.010655879974365,0.16842979192733765,3.761604070663452,0.3159005343914032,2.546370267868042
23,29288,29284,3.509562020553858e-06,-0.02993914671242237,0.9522296190261841,-14.853021621704102,-2.4738717079162598,-5.203039169311523,2.0572080612182617,4.010773658752441,0.17243804037570953,3.954955816268921,0.11686012893915176,2.550910711288452
24,29298,29294,-0.002533625578507781,-0.003372100880369544,0.9695338606834412,-15.1212797164917,-1.4624346494674683,-5.254632949829102,2.057039737701416,4.010918140411377,0.17663678526878357,3.6848723888397217,-1.2085421085357666,3.011106491088867
25,29308,29304,0.005335807800292969,0.0036776550114154816,0.9543522000312805,-13.593094825744629,0.8666878342628479,-6.997636318206787,2.0585646629333496,4.018344402313232,0.18086186051368713,3.7595343589782715,-1.223501443862915,2.886748790740967
26,29318,29314,0.03834481164813042,-0.1007194072008133,0.9339180588722229,-1.829437017440796,4.321460723876953,-7.975473880767822,2.0595226287841797,4.016934394836426,0.1854953020811081,3.762826919555664,-0.9974620938301086,2.6641595363616943
27,29328,29324,-0.0029824995435774326,-0.016237931326031685,0.9519616365432739,9.37157917022705,5.608325958251953,-6.431374549865723,2.0602126121520996,4.018515586853027,0.1916222870349884,3.77909255027771,-0.8367702960968018,2.5544309616088867
28,29338,29334,-0.013494429178535938,0.1012115553021431,0.9428423643112183,20.20931053161621,9.906853675842285,-4.288887977600098,2.060321092605591,4.018131256103516,0.19572222232818604,3.72412109375,-0.49619507789611816,2.414184331893921
29,29348,29344,0.02672206424176693,-0.04601886868476868,0.9247844219207764,24.946475982666016,13.388938903808594,-3.9845082759857178,2.060274839401245,4.017457962036133,0.19980408251285553,3.5203640460968018,-0.06968432664871216,2.2831504344940186
30,29358,29354,0.04474399983882904,-0.14051850140094757,0.9098992943763733,24.019866943359375,14.284435272216797,-3.664705276489258,2.0606095790863037,4.015606880187988,0.20369480550289154,3.498126268386841,0.3427720367908478,2.1751363277435303
31,29368,29364,0.04810624569654465,-0.14213870465755463,0.8983892202377319,17.83903694152832,14.136762619018555,-3.5820887088775635,2.0596132278442383,4.013785362243652,0.20718523859977722,3.3092875480651855,-0.037701498717069626,2.3857076168060303
32,29378,29374,0.014126740396022797,-0.04342499002814293,0.9130556583404541,7.27487325668335,12.664145469665527,-4.339521408081055,2.05820369720459,4.014829635620117,0.21180370450019836,3.483003854751587,0.2012946754693985,2.2830986976623535
33,29388,29384,0.01766854152083397,-0.03481287136673927,0.8965321183204651,-0.9993913173675537,11.675710678100586,-4.738335132598877,2.054445743560791,4.013965129852295,0.2153315395116806,3.4780139923095703,1.7527058124542236,1.611673355102539
34,29398,29394,0.005581245757639408,-0.020070139318704605,0.8989051580429077,-7.452981948852539,14.18769645690918,-1.897803544998169,2.053009033203125,4.0018463134765625,0.22021347284317017,3.498547315597534,1.5853750705718994,1.6429964303970337
35,29408,29404,-0.008888118900358677,0.037694089114665985,0.9005753993988037,-18.711639404296875,17.121835708618164,-1.080665111541748,2.050278425216675,4.001443386077881,0.22392548620700836,3.245842218399048,1.2769668102264404,1.700844407081604
36,29418,29414,-0.03766344115138054,0.1227031797170639,0.9124875664710999,-30.666316986083984,22.60352325439453,-2.1501729488372803,2.0485432147979736,4.0015692710876465,0.22840963304042816,2.92099666595459,0.8630275726318359,1.7319048643112183
37,29428,29424,-0.028705239295959473,0.06211046501994133,0.9044280648231506,-37.49021911621094,27.642026901245117,-3.03835129737854,2.0490293502807617,4.001990795135498,0.2296047955751419,2.9051945209503174,0.28566643595695496,1.803521752357483
38,29438,29434,-0.019380629062652588,-0.01191464439034462,0.8951820135116577,-39.56370544433594,28.384695053100586,-3.646465301513672,2.0445845127105713,4.0011796951293945,0.23298519849777222,2.483443021774292,-0.17649370431900024,1.764064073562622
39,29448,29444,-0.05703097581863403,-0.006130246911197901,0.9251034259796143,-34.375221252441406,28.151920318603516,-3.5167436599731445,2.0439233779907227,4.000524044036865,0.23649537563323975,2.38015079498291,-0.3076326549053192,1.79163658618927
40,29458,29454,-0.03718559443950653,0.016314571723341942,0.9219681024551392,-23.450580596923828,27.407793045043945,-2.8668510913848877,2.042564630508423,4.0018157958984375,0.2395654320716858,2.1411821842193604,-0.5964846611022949,1.7431867122650146
41,29468,29464,-0.02643590234220028,-0.0217738077044487,0.9342168569564819,-11.221556663513184,23.37955093383789,-2.4695777893066406,2.0418894290924072,4.000420570373535,0.24172496795654297,1.9137842655181885,-0.9950886964797974,1.747475266456604
42,29478,29474,-0.08121035248041153,-0.0673164501786232,0.9886589646339417,1.014741063117981,19.35569190979004,-2.8381588459014893,2.0400211811065674,4.00164794921875,0.2443155199289322,1.602975606918335,-1.050690770149231,1.6930873394012451
43,29488,29484,-0.08261223882436752,-0.11759515106678009,0.9812220335006714,11.508304595947266,15.375387191772461,-3.062943935394287,2.037428140640259,4.000213623046875,0.2470138669013977,1.49470853805542,-1.0614359378814697,1.651953935623169
44,29498,29494,-0.0320793092250824,-0.0823557898402214,0.9130699038505554,16.82435417175293,11.172506332397461,-2.873641014099121,2.0344667434692383,3.9982242584228516,0.24794167280197144,1.299438238143921,-0.9256475567817688,1.60849928855896
45,29508,29504,0.0043888636864721775,-0.006120019126683474,0.9033162593841553,16.18471336364746,9.67083740234375,-2.6695618629455566,2.0333855152130127,3.9965527057647705,0.25045353174209595,1.0954400300979614,-0.8647493124008179,1.5898267030715942
46,29518,29514,0.0013533015735447407,-0.015737712383270264,0.8991552591323853,10.528282165527344,10.154746055603027,-3.0811822414398193,2.033452272415161,3.997066020965576,0.2529076337814331,1.1287730932235718,-0.814644992351532,1.5735195875167847
47,29528,29524,0.004544627852737904,-0.03845854103565216,0.8711482286453247,4.504169940948486,10.49639892578125,-3.268756151199341,2.0305514335632324,3.998354911804199,0.25506162643432617,1.0022248029708862,-0.683710515499115,1.5439238548278809
48,29538,29534,0.06328551471233368,-0.103899747133255,0.879275918006897,-2.4711878299713135,12.819923400878906,-3.533402681350708,2.03012752532959,3.998237133026123,0.2572328746318817,0.7832691073417664,-0.7293562293052673,1.5179721117019653
49,29548,29544,0.08750682324171066,-0.18154989182949066,0.8768964409828186,-7.182337760925293,14.070832252502441,-4.0036516189575195,2.030503749847412,4.001438140869141,0.25938475131988525,0.6152843832969666,-0.7187674641609192,1.5015712976455688
50,29558,29554,0.04834863543510437,-0.1925099939107895,0.8469506502151489,-9.303556442260742,16.518659591674805,-4.709522724151611,2.029454231262207,4.0004563331604,0.2613571286201477,0.5672281980514526,-0.7737019062042236,1.4487470388412476
51,29568,29564,-0.0008044230635277927,-0.03034043498337269,0.9005627632141113,-7.906946659088135,15.066518783569336,-4.255637168884277,2.027446985244751,3.999072790145874,0.26121172308921814,0.26489022374153137,-0.8538294434547424,1.4034541845321655
52,29578,29574,-0.012742547318339348,0.04596938565373421,0.9346355199813843,-2.270112991333008,13.208819389343262,-3.8782944679260254,2.027754306793213,3.9990570545196533,0.2628125548362732,0.15176773071289062,-0.9656695127487183,1.3549705743789673
53,29588,29584,-0.028899265453219414,0.08807960897684097,0.9631525874137878,3.498732805252075,11.400468826293945,-3.6534595489501953,2.0266172885894775,3.9994847774505615,0.2642301917076111,-0.15473106503486633,-0.9896193146705627,1.3193156719207764
54,29598,29594,-0.04685263708233833,0.09319043904542923,0.9775506854057312,8.860369682312012,9.5323486328125,-3.2654194831848145,2.0269126892089844,3.999328851699829,0.2662627398967743,-0.04250357300043106,-0.9974643588066101,1.2670774459838867
55,29608,29604,-0.06635025888681412,0.07576043158769608,0.9865449666976929,12.62557315826416,7.294633388519287,-2.623136281967163,2.024160146713257,3.9992873668670654,0.2676665186882019,-0.21918435394763947,-0.8415548801422119,1.253509521484375
56,29618,29614,-0.07694753259420395,0.05197920277714729,0.9975939393043518,14.839363098144531,6.325657844543457,-2.4293434619903564,2.0240156650543213,3.9998276233673096,0.2691175043582916,-0.21034936606884003,-0.7140008807182312,1.2203391790390015
57,29628,29624,-0.04611489176750183,0.012238627299666405,0.9800217151641846,12.271053314208984,8.039570808410645,-2.633427619934082,2.0225422382354736,3.999505043029785,0.2667655646800995,-0.28141671419143677,-0.7231575846672058,1.1709322929382324
58,29638,29634,-0.049413394182920456,-0.008702927269041538,0.9796204566955566,9.1731595993042,6.671576023101807,-2.526949644088745,2.0217344760894775,4.000880718231201,0.26790711283683777,-0.5054489970207214,-0.6677199006080627,1.1386336088180542
59,29648,29644,-0.10614980757236481,-0.02272612787783146,1.0207301378250122,5.928430080413818,8.109870910644531,-2.4676294326782227,2.021526575088501,4.001806735992432,0.2690814733505249,-0.6330007910728455,-0.5005860924720764,1.1289864778518677
60,29658,29654,-0.05722854286432266,-0.03036728873848915,0.9791911244392395,4.322564601898193,9.575318336486816,-2.7111129760742188,2.0211291313171387,4.001305103302002,0.2677431106567383,-0.6952511668205261,-0.5415305495262146,1.078531265258789
61,29668,29664,-0.017605269327759743,-0.062480248510837555,0.9476152062416077,3.121230363845825,7.074502468109131,-2.2050974369049072,2.0196213722229004,4.002292633056641,0.2686587870121002,-0.6861076951026917,-0.44669705629348755,1.0583971738815308
62,29678,29674,-0.014842231757938862,-0.1347939521074295,0.9370493292808533,4.750692367553711,5.4358744621276855,-2.2294998168945312,2.0165529251098633,4.001608848571777,0.26960697770118713,-0.8868132829666138,-0.4347318410873413,1.0349137783050537
63,29688,29684,0.062020786106586456,-0.10265479236841202,0.8859729766845703,6.631251811981201,3.5993709564208984,-2.003647565841675,2.016474723815918,4.002802848815918,0.270521342754364,-0.9669789671897888,-0.47355106472969055,0.9899761080741882
64,29698,29694,0.03421106934547424,-0.026249662041664124,0.9412962794303894,9.263781547546387,0.3638770580291748,-1.742537021636963,2.015385866165161,4.004138946533203,0.2732093930244446,-0.9259158968925476,-0.31117910146713257,0.9945980310440063
65,29708,29704,-0.0186639204621315,-0.06458520889282227,0.9867329001426697,10.202536582946777,-1.5887916088104248,-1.5433512926101685,2.013572931289673,4.002661228179932,0.27409297227859497,-0.9286063313484192,-0.21148467063903809,0.9792614579200745
66,29718,29714,-0.051430489867925644,-0.1614399254322052,0.9713196754455566,9.270007133483887,-1.1730537414550781,-1.094903588294983,2.0115725994110107,4.00261116027832,0.2749999463558197,-0.9797613620758057,-0.17368711531162262,0.9454508423805237
67,29728,29724,-0.017775466665625572,-0.11954880505800247,0.9482414722442627,8.306541442871094,-1.733332633972168,-0.4837644398212433,2.0114552974700928,4.003066539764404,0.27448421716690063,-1.020317554473877,0.013952722772955894,0.9629237651824951
68,29738,29734,-0.008881054818630219,-0.030995391309261322,0.9792182445526123,6.667293071746826,0.2024974524974823,-0.4288717210292816,2.0109400749206543,4.002651691436768,0.27520906925201416,-0.9102935194969177,0.01757240667939186,0.9264616370201111
69,29748,29744,0.011906792409718037,-0.01513755228370428,0.9866015911102295,5.0375189781188965,-0.24981650710105896,-0.583075761795044,2.008697509765625,4.003009796142578,0.2758927345275879,-1.0502556562423706,0.15420156717300415,0.9455387592315674
70,29758,29754,0.016806522384285927,-0.0036364460829645395,0.9860344529151917,2.4769959449768066,0.7890825867652893,-0.5086839199066162,2.0092639923095703,4.002313137054443,0.27167657017707825,-1.1023032665252686,0.09276530146598816,0.901792585849762
71,29768,29764,0.0197552889585495,-0.023142624646425247,0.9709670543670654,2.2475454807281494,0.7125306129455566,-0.11596482247114182,2.0090458393096924,4.004044532775879,0.27203381061553955,-1.1498963832855225,0.179676353931427,0.9150490164756775
72,29778,29774,0.0019194628112018108,-0.025092659518122673,0.9735872149467468,2.5960545539855957,2.3390605449676514,-0.5023625493049622,2.0079445838928223,4.003352165222168,0.2723988890647888,-1.2035892009735107,0.25109362602233887,0.9319959878921509
73,29788,29784,0.04221552610397339,-0.023683909326791763,0.9441565871238708,3.093327760696411,-2.0283689498901367,-0.4622981548309326,2.0079994201660156,4.003586292266846,0.2727043330669403,-1.3011630773544312,0.24524256587028503,0.9152824282646179
74,29798,29794,0.03656667843461037,-0.007944894023239613,0.9961840510368347,3.7314536571502686,-5.819313049316406,-0.7566946744918823,2.0072410106658936,4.004123687744141,0.2737727165222168,-1.2650967836380005,0.17035114765167236,0.8743748068809509
75,29808,29804,-0.011101464740931988,-0.016249459236860275,1.0146468877792358,4.463435173034668,-9.074438095092773,-0.6198961138725281,2.0065300464630127,4.004790306091309,0.27404114603996277,-1.1709216833114624,0.20147602260112762,0.8668332695960999
76,29818,29814,0.014319668523967266,-0.0068605518899858,1.007613182067871,6.033468723297119,-11.224006652832031,-0.6327081322669983,2.0053160190582275,4.005160808563232,0.27433207631111145,-1.1112430095672607,0.3246869146823883,0.88856041431427
77,29828,29824,0.025470541790127754,-0.02923511527478695,0.9932839870452881,6.141477584838867,-11.115367889404297,-0.8332924246788025,2.005399703979492,4.004741191864014,0.27093514800071716,-0.9448500871658325,0.3735692501068115,0.8820971846580505
78,29838,29834,-0.015745270997285843,-0.015309534966945648,1.0255513191223145,5.239523887634277,-9.797247886657715,-1.014916181564331,2.0046088695526123,4.005006313323975,0.271003782749176,-0.941943883895874,0.2632305920124054,0.8049471378326416
79,29848,29844,0.015283643268048763,-0.005644987337291241,1.0159944295883179,4.016176223754883,-7.148489952087402,-0.9312745928764343,2.005467414855957,4.00671911239624,0.2710901200771332,-0.7936945557594299,0.3969176113605499,0.8242484927177429
80,29858,29854,0.008138434030115604,-0.02629837952554226,1.0260294675827026,2.958561658859253,-4.879421234130859,-0.9653715491294861,2.004678726196289,4.006101608276367,0.2718021273612976,-0.8408867716789246,0.3424935042858124,0.7688310742378235
81,29868,29864,0.0009385973098687828,-0.01511469017714262,1.0346192121505737,3.5566866397857666,-3.7073237895965576,-1.1965925693511963,2.005713701248169,4.006923675537109,0.2719865143299103,-0.7506057620048523,0.4491477608680725,0.788512110710144
82,29878,29874,0.014976409263908863,-0.02441757544875145,1.0343934297561646,3.9460206031799316,-4.31390380859375,-0.9738367795944214,2.005429744720459,4.006612777709961,0.2722029685974121,-0.7498593330383301,0.5473852753639221,0.7937241792678833
83,29888,29884,0.0014938795939087868,-0.038604311645030975,1.084837794303894,5.587979316711426,-4.440535545349121,-1.4888124465942383,2.0053951740264893,4.005794525146484,0.27243301272392273,-0.7430624961853027,0.6538999080657959,0.805514395236969
84,29898,29894,0.009405066259205341,-0.07387040555477142,1.054049015045166,4.658353805541992,-5.663876533508301,-0.9022647142410278,2.0043392181396484,4.004759311676025,0.2722567021846771,-0.7215994000434875,0.6795966625213623,0.7806274890899658
85,29908,29904,0.006051469594240189,-0.057901494204998016,1.087405800819397,4.172152519226074,-7.728801250457764,-0.7365557551383972,2.0044872760772705,4.005298137664795,0.27258938550949097,-0.754097580909729,0.6287785172462463,0.7296102046966553
86,29918,29914,-0.017475886270403862,-0.0568980909883976,1.039339542388916,2.484640121459961,-10.781458854675293,-0.47315117716789246,2.0049490928649902,4.006051063537598,0.2729705274105072,-0.5810409784317017,0.725039541721344,0.7447428107261658
87,29928,29924,0.024546846747398376,-0.06650735437870026,0.9958323240280151,-0.06353994458913803,-11.322426795959473,0.232484370470047,2.003824472427368,4.005777835845947,0.2724563479423523,-0.46230030059814453,0.7819151878356934,0.7454666495323181
88,29938,29934,-0.021771403029561043,0.013993941247463226,1.0786821842193604,-2.6142706871032715,-12.01263427734375,0.7206229567527771,2.002673625946045,4.0051374435424805,0.2729238271713257,-0.48066678643226624,0.7887110114097595,0.7308133244514465
89,29948,29944,0.036606382578611374,-0.09794356673955917,1.0322291851043701,-2.6268863677978516,-12.25969409942627,0.7417598962783813,2.0035560131073,4.005213737487793,0.27336475253105164,-0.3980191946029663,0.7718053460121155,0.7313689589500427
90,29958,29954,0.0034250877797603607,0.0025191432796418667,1.0620219707489014,-2.2014050483703613,-12.230587005615234,1.258164405822754,2.0042107105255127,4.005501747131348,0.273893803358078,-0.22841045260429382,0.7513699531555176,0.7439099550247192
91,29968,29964,-0.0008844782714731991,-0.07747504860162735,1.0335044860839844,-2.449437379837036,-12.231710433959961,1.1106514930725098,2.0041892528533936,4.005687236785889,0.27447056770324707,-0.21434590220451355,0.7285703420639038,0.7381301522254944
92,29978,29974,0.0043405103497207165,-0.1504092663526535,0.9949046969413757,-2.3032379150390625,-10.870880126953125,1.3150981664657593,2.0057551860809326,4.00544548034668,0.27507227659225464,-0.12198001891374588,0.7772433161735535,0.760055661201477
93,29988,29984,-0.024699103087186813,-0.02088417485356331,1.0381327867507935,-1.2722318172454834,-12.545425415039062,1.6116076707839966,2.005803346633911,4.004567623138428,0.27546805143356323,0.1275119036436081,0.7494766712188721,0.7885666489601135
94,29998,29994,0.02176002785563469,-0.00487996730953455,1.0334852933883667,-1.765418291091919,-11.029994010925293,1.3516077995300293,2.004157304763794,4.003785133361816,0.27614957094192505,0.2092236876487732,0.7226899266242981,0.7957876920700073
95,30008,30004,-0.00014184950850903988,0.02450922690331936,1.068574070930481,-2.7488925457000732,-10.343704223632812,1.564571738243103,2.0049080848693848,4.003891944885254,0.2768627405166626,0.42903098464012146,0.6923218369483948,0.8196855187416077
96,30018,30014,0.0022049443796277046,-0.020799610763788223,1.011269211769104,-2.181488037109375,-10.48797607421875,1.6311286687850952,2.0037033557891846,4.004139423370361,0.27761897444725037,0.41217198967933655,0.6585685610771179,0.8133698105812073
97,30028,30024,-0.042078543454408646,0.027993524447083473,1.0291563272476196,-2.91495680809021,-7.03231143951416,1.3791536092758179,2.0050222873687744,4.004261493682861,0.2798860967159271,0.5364038348197937,0.6980568170547485,0.8394947648048401
98,30038,30034,-0.020272064954042435,0.07100994139909744,0.9929103255271912,-4.234158515930176,-3.260746479034424,1.4594193696975708,2.0051162242889404,4.003363132476807,0.28076431155204773,0.5307677984237671,0.7158020734786987,0.8461631536483765
99,30048,30044,-0.0033033275976777077,-0.00381087395362556,0.9661113023757935,-3.9344043731689453,-2.314931631088257,1.929936408996582,2.0060155391693115,4.002767562866211,0.2816339433193207,0.6340168118476868,0.7141761779785156,0.8728864192962646
100,30058,30054,0.0033181568142026663,-0.011703377589583397,1.0015534162521362,-4.728169918060303,-3.0075201988220215,1.6410692930221558,2.005444049835205,4.0026774406433105,0.28059864044189453,0.5724242925643921,0.6301915645599365,0.8751556873321533
101,30068,30064,0.029050283133983612,-0.09666354954242706,1.0198012590408325,-5.5588274002075195,-4.249536037445068,2.0377161502838135,2.006699562072754,4.002467155456543,0.2813524901866913,0.6746060252189636,0.6862595081329346,0.9102259874343872
102,30078,30074,0.030610062181949615,-0.17253144085407257,1.0675127506256104,-3.8676884174346924,-5.813132286071777,1.8435307741165161,2.0062038898468018,4.0013203620910645,0.2820848226547241,0.7145233750343323,0.585086464881897,0.9264376163482666
103,30088,30084,-0.02598688378930092,-0.07520332932472229,1.0196624994277954,-3.0768203735351562,-4.8769941329956055,1.6217654943466187,2.006148099899292,4.0013017654418945,0.2835802137851715,0.8292506337165833,0.5019522309303284,0.9504519104957581
104,30098,30094,0.01628994196653366,0.09286592155694962,0.9392871260643005,-5.4908366203308105,-5.598183631896973,1.564627766609192,2.005587100982666,4.0015177726745605,0.2844387888908386,0.8675945401191711,0.4902835488319397,0.968193769454956
105,30108,30104,0.015476936474442482,0.25759240984916687,0.968620240688324,-5.739023685455322,-3.31017804145813,1.8996624946594238,2.006067991256714,4.0018391609191895,0.28538694977760315,0.8310189247131348,0.459357351064682,0.9741470217704773
106,30118,30114,0.03159482032060623,0.14036810398101807,0.9849244952201843,-6.84512996673584,-4.374769687652588,2.0900795459747314,2.0069849491119385,4.001054763793945,0.2862010896205902,0.9246737360954285,0.48254457116127014,0.99854576587677
107,30128,30124,0.009066689759492874,-0.029055621474981308,0.9883902668952942,-8.8956937789917,-3.737842082977295,1.6301908493041992,2.0067660808563232,3.999631881713867,0.28586137294769287,0.9528969526290894,0.32567286491394043,1.0165467262268066
108,30138,30134,0.0062627592124044895,-0.013102062046527863,1.0185601711273193,-7.560796737670898,-3.3629403114318848,1.5000840425491333,2.0070371627807617,4.000321865081787,0.28661662340164185,0.9728448987007141,0.31691956520080566,1.0295270681381226
109,30148,30144,-0.011956371366977692,0.005627731326967478,0.968889594078064,-6.862381935119629,-1.8154982328414917,1.2316826581954956,2.007127523422241,3.999295234680176,0.2872963547706604,1.0447858572006226,0.3035467863082886,1.0450018644332886
110,30158,30154,-0.08050859719514847,0.10242307931184769,0.984093189239502,-6.631255626678467,-0.5211496353149414,2.1539318561553955,2.0063118934631348,3.9982223510742188,0.28749310970306396,1.0933586359024048,0.14845216274261475,1.0648051500320435
111,30168,30164,-0.038887374103069305,0.09098471701145172,0.9913281798362732,-7.3327956199646,1.8276090621948242,2.183867931365967,2.005551338195801,3.998293876647949,0.2881852984428406,1.1086400747299194,0.15197321772575378,1.0808143615722656
112,30178,30174,0.032420169562101364,-0.05291483551263809,0.9573507905006409,-6.681525707244873,2.466428279876709,1.7063802480697632,2.0051889419555664,3.99725341796875,0.28878459334373474,1.0918467044830322,0.06711702048778534,1.0993611812591553
113,30188,30184,-0.018951499834656715,0.0014353347942233086,1.031578779220581,-4.243520259857178,4.203601360321045,2.0318312644958496,2.0047597885131836,3.996515989303589,0.29064834117889404,1.0522452592849731,0.004486252088099718,1.1169315576553345
114,30198,30194,0.01892710104584694,0.018478810787200928,0.9461806416511536,-5.4019927978515625,0.25809919834136963,3.438377618789673,2.004554271697998,3.9956414699554443,0.29132896661758423,1.029793381690979,-0.044310636818408966,1.137243390083313
115,30208,30204,-0.0652693659067154,0.018770143389701843,1.0365906953811646,-5.087296962738037,2.5658528804779053,2.522888660430908,2.003910779953003,3.995417594909668,0.2919633090496063,1.0094870328903198,-0.0946846604347229,1.168254017829895
116,30218,30214,-0.04503358155488968,0.042384952306747437,0.9958468675613403,-3.7944486141204834,4.126980781555176,2.748652935028076,2.003237724304199,3.9946727752685547,0.293083131313324,0.8335368633270264,-0.21083728969097137,1.1930899620056152
117,30228,30224,0.003164703492075205,0.09207708388566971,0.9460008144378662,-2.5143496990203857,5.254064559936523,2.6865978240966797,2.0043163299560547,3.994328022003174,0.29376891255378723,0.8535943627357483,-0.22795477509498596,1.2199723720550537
118,30238,30234,0.041860971599817276,0.030471958220005035,0.9475648403167725,-2.752638816833496,7.6114349365234375,2.4858484268188477,2.004058837890625,3.993549108505249,0.2944340407848358,0.7670227289199829,-0.3087766468524933,1.2479557991027832
119,30248,30244,0.00316533911973238,-0.029063699766993523,1.010444164276123,-2.946185827255249,12.374725341796875,2.569410800933838,2.004338026046753,3.9928061962127686,0.29503974318504333,0.6343637108802795,-0.3138892352581024,1.2688844203948975
120,30258,30254,0.020885255187749863,-0.16020706295967102,1.0003337860107422,-2.557543992996216,15.472583770751953,1.8446913957595825,2.0055196285247803,3.991955280303955,0.296267032623291,0.5896652936935425,-0.39330431818962097,1.29917311668396
121,30268,30264,0.009061894379556179,-0.2081669270992279,1.0403918027877808,-2.1212756633758545,17.196922302246094,1.4273672103881836,2.004328489303589,3.991288185119629,0.29692986607551575,0.4930175542831421,-0.3851194679737091,1.3149923086166382
122,30278,30274,-0.025745950639247894,-0.05038820952177048,1.0686932802200317,-0.8039650917053223,20.436038970947266,1.5266242027282715,2.0040793418884277,3.9908204078674316,0.2976105511188507,0.2755509614944458,-0.43745705485343933,1.3259050846099854
123,30288,30284,0.02683088928461075,-0.055341094732284546,0.938184380531311,-0.7894372940063477,18.772899627685547,1.403763771057129,2.003941297531128,3.990029811859131,0.2988935112953186,0.04039310663938522,-0.4023361802101135,1.3369531631469727
124,30298,30294,0.025939716026186943,-0.0201290100812912,0.9311078786849976,-3.091747522354126,17.43567657470703,1.665748119354248,2.0041797161102295,3.988642930984497,0.29961097240448,-0.10570470988750458,-0.38430434465408325,1.3474845886230469
125,30308,30304,0.018260028213262558,-0.01773432455956936,0.9540940523147583,-1.9880038499832153,12.024212837219238,2.06103253364563,2.003873825073242,3.9889378547668457,0.3003122806549072,-0.3575470745563507,-0.37697163224220276,1.3616732358932495
126,30318,30314,0.024817463010549545,-0.022791340947151184,0.9700379371643066,-1.4449489116668701,7.606990337371826,1.9634158611297607,2.0052342414855957,3.9882447719573975,0.3012593686580658,-0.23326049745082855,-0.4407506287097931,1.369088888168335
127,30328,30324,0.0045740799978375435,-0.03609864041209221,1.0016390085220337,-2.996652126312256,3.749927043914795,1.8272989988327026,2.0027952194213867,3.988096237182617,0.30207398533821106,-0.28259482979774475,-0.43075501918792725,1.3880800008773804
128,30338,30334,-0.0031738874968141317,-0.10066986083984375,0.9441342353820801,-3.1110785007476807,2.804626703262329,1.6197071075439453,2.001533269882202,3.987415313720703,0.3027278482913971,-0.3638290762901306,-0.43683114647865295,1.4065698385238647
129,30348,30344,0.01573660410940647,-0.11660446226596832,0.897216260433197,-3.0177786350250244,4.268287181854248,2.2509074211120605,2.0021133422851562,3.9861273765563965,0.30330297350883484,-0.42781585454940796,-0.518609881401062,1.4226720333099365
130,30358,30354,-0.0015120416646823287,-0.047912150621414185,0.9575062394142151,-3.921515703201294,6.258792400360107,2.0308115482330322,2.0024094581604004,3.9863786697387695,0.3033365309238434,-0.5072972774505615,-0.5989248156547546,1.4426743984222412
131,30368,30364,0.0031946145463734865,-0.010904505848884583,0.9867722392082214,-4.693508625030518,8.507192611694336,1.8986430168151855,2.0031824111938477,3.9866812229156494,0.3037492334842682,-0.616753101348877,-0.6108615398406982,1.4678926467895508
132,30378,30374,0.028472524136304855,-0.05106747895479202,1.0340279340744019,-2.7487385272979736,10.185896873474121,1.9180806875228882,2.003959894180298,3.9859859943389893,0.30411726236343384,-0.6830534934997559,-0.6944419741630554,1.4830753803253174
133,30388,30384,0.09982024878263474,-0.19868198037147522,1.0094045400619507,-1.1929378509521484,10.979701042175293,1.7178648710250854,2.003411054611206,3.986248016357422,0.3044520318508148,-0.8474376201629639,-0.6790204644203186,1.5112755298614502
134,30398,30394,0.04921545833349228,-0.13603748381137848,0.9965672492980957,0.12375462055206299,10.910466194152832,1.3449475765228271,2.0042338371276855,3.9855539798736572,0.3048366606235504,-0.8678230047225952,-0.5693830251693726,1.534145712852478
135,30408,30404,-0.02092362567782402,-0.006709975656121969,1.0174647569656372,1.1694660186767578,9.21560001373291,1.3453987836837769,2.003565549850464,3.9839439392089844,0.30532145500183105,-1.0354443788528442,-0.5931545495986938,1.5471926927566528
136,30418,30414,0.016465244814753532,-0.024035044014453888,0.9785734415054321,1.6525534391403198,6.903633117675781,1.1887305974960327,2.0042879581451416,3.9838826656341553,0.3092828094959259,-1.1608412265777588,-0.595829427242279,1.5578557252883911
137,30428,30424,0.040139343589544296,-0.005387692712247372,0.9736635088920593,0.8360191583633423,6.7880473136901855,1.2829179763793945,2.0045878887176514,3.9836907386779785,0.3099110722541809,-1.1877591609954834,-0.5996411442756653,1.5621750354766846
138,30438,30434,0.10607931762933731,-0.04126664996147156,0.9586367607116699,-2.595710039138794,2.662898302078247,1.309740662574768,2.0035269260406494,3.9833426475524902,0.31059348583221436,-1.263916015625,-0.6241106986999512,1.5679399967193604
139,30448,30444,0.079475998878479,-0.12311237305402756,0.9935864210128784,-2.924945592880249,-1.1738433837890625,1.8545072078704834,2.003920316696167,3.9833836555480957,0.3111802041530609,-1.2728019952774048,-0.6031537055969238,1.5884729623794556
140,30458,30454,0.002472211141139269,-0.19613519310951233,1.0318392515182495,-2.178098440170288,-3.6716129779815674,1.8872029781341553,2.003783702850342,3.98313307762146,0.3141700327396393,-1.2980027198791504,-0.6662402749061584,1.6015591621398926
141,30468,30464,-0.05441998317837715,-0.12489935010671616,1.0476603507995605,-1.3271609544754028,-2.7819058895111084,2.020115852355957,2.0039825439453125,3.9826431274414062,0.31489455699920654,-1.22514009475708,-0.7144719362258911,1.611869215965271
142,30478,30474,0.004253666382282972,-0.08313953131437302,0.9434592723846436,-0.5049944519996643,-1.0618643760681152,1.5399123430252075,2.0040719509124756,3.982820749282837,0.3156891465187073,-1.239950180053711,-0.6702736616134644,1.648415446281433
143,30488,30484,0.0011490000179037452,-0.008921422064304352,0.9960002303123474,0.6865063309669495,0.5384114980697632,1.1157053709030151,2.0046496391296387,3.9823386669158936,0.31441134214401245,-1.204676628112793,-0.6861519813537598,1.6606502532958984
144,30498,30494,-0.020878946408629417,0.024934615939855576,1.0242712497711182,2.119468927383423,2.1180903911590576,1.0218889713287354,2.004622459411621,3.9819815158843994,0.3150419294834137,-1.198560357093811,-0.6805177927017212,1.6713207960128784
145,30508,30504,0.012097684666514397,-0.038514766842126846,0.9748091101646423,1.0333589315414429,4.285436630249023,0.765567421913147,2.0045361518859863,3.9811205863952637,0.31563764810562134,-1.2973612546920776,-0.594927966594696,1.7032831907272339
146,30518,30514,0.04827607795596123,-0.027375690639019012,0.9754773378372192,0.6325036287307739,2.1829774379730225,0.3493177890777588,2.00583553314209,3.9802613258361816,0.31608662009239197,-1.315657615661621,-0.5973747372627258,1.7074052095413208
147,30528,30524,0.0560552217066288,-0.06934888660907745,0.9756218791007996,-0.01000928319990635,2.29417085647583,0.4681384265422821,2.005322217941284,3.979640007019043,0.3167263865470886,-1.3233981132507324,-0.6080913543701172,1.7051950693130493
148,30538,30534,0.050840992480516434,-0.09737856686115265,0.9704024195671082,-0.6772651672363281,-1.7627527713775635,0.5250274538993835,2.005279064178467,3.979818820953369,0.3172767758369446,-1.3746665716171265,-0.6243805885314941,1.708141565322876
149,30548,30544,-0.0002791604201775044,-0.09124245494604111,0.9589211940765381,-0.9827796816825867,-3.4026308059692383,0.4010598063468933,2.005990982055664,3.979871988296509,0.3164498209953308,-1.4491664171218872,-0.6480908989906311,1.7157965898513794
150,30558,30554,-0.003404025686904788,-0.0974823385477066,0.9521541595458984,-0.5866593718528748,-4.964219570159912,0.12048056721687317,2.0065059661865234,3.979865074157715,0.31683361530303955,-1.3334290981292725,-0.6709557175636292,1.7089800834655762
151,30568,30564,0.07271715998649597,-0.07776482403278351,0.9315412044525146,0.010542553849518299,-5.213505744934082,0.538405179977417,2.006035089492798,3.979872465133667,0.3172525465488434,-1.3575795888900757,-0.6836000084877014,1.7184697389602661
152,30578,30574,0.08856151252985,-0.07766484469175339,0.938591480255127,0.9704160094261169,-6.058269023895264,0.24336852133274078,2.0073323249816895,3.9799396991729736,0.3174971342086792,-1.285386085510254,-0.6820985078811646,1.723842740058899
153,30588,30584,0.03630422055721283,-0.04536624625325203,0.992205023765564,2.268606185913086,-4.997720718383789,-0.20872452855110168,2.0067195892333984,3.978520631790161,0.31579917669296265,-1.2848607301712036,-0.6614452600479126,1.7257107496261597
154,30598,30594,0.021390993148088455,-0.07585545629262924,0.9678521752357483,2.7168490886688232,-3.9187490940093994,0.048451803624629974,2.0080790519714355,3.978264331817627,0.31585630774497986,-1.2926794290542603,-0.6264950037002563,1.727525234222412
155,30608,30604,0.0563347153365612,-0.19152452051639557,0.9525277018547058,2.524653911590576,-3.058817148208618,-0.37267550826072693,2.008904457092285,3.9777650833129883,0.31588923931121826,-1.2320687770843506,-0.5891431570053101,1.7301687002182007
156,30618,30614,0.013269223272800446,-0.10120610892772675,1.0085116624832153,2.3676068782806396,-3.0990872383117676,-0.5459927916526794,2.009251117706299,3.977088451385498,0.3159548044204712,-1.1040421724319458,-0.6264530420303345,1.704376459121704
157,30628,30624,0.006759914569556713,-0.03311045467853546,0.9666083455085754,2.115356683731079,-3.780913829803467,-0.9102755784988403,2.008877754211426,3.977623224258423,0.3160651624202728,-1.1354176998138428,-0.581632137298584,1.7087665796279907
158,30638,30634,0.005757585633546114,-0.07944249361753464,0.9164170622825623,1.950562834739685,-4.260690212249756,-0.1498812437057495,2.0095744132995605,3.9771318435668945,0.3160473704338074,-1.1476303339004517,-0.5439199805259705,1.700685739517212
159,30648,30644,0.02144988253712654,-0.09416243433952332,0.9260026216506958,2.0490245819091797,-4.750563144683838,-0.3035198450088501,2.011009454727173,3.9766674041748047,0.31560593843460083,-1.0674071311950684,-0.509789228439331,1.6986498832702637
160,30658,30654,0.02344604581594467,-0.07569597661495209,0.9900307655334473,1.9157274961471558,-4.6236796379089355,-0.7849924564361572,2.0114755630493164,3.976583957672119,0.31553781032562256,-1.1391584873199463,-0.5488881468772888,1.6921359300613403
161,30668,30664,0.009965918026864529,-0.03522970899939537,0.9948607683181763,2.421849012374878,-5.1249589920043945,-0.526854395866394,2.013456344604492,3.976517677307129,0.3152691423892975,-0.9618831276893616,-0.5032675862312317,1.6754156351089478
162,30678,30674,0.04791639745235443,-0.16840749979019165,0.9746853113174438,1.3369730710983276,-5.538790225982666,-0.5062413811683655,2.0128254890441895,3.9759697914123535,0.3152364492416382,-1.0226722955703735,-0.5394729375839233,1.664562702178955
163,30688,30684,-0.00016013419372029603,-0.10853540152311325,1.048613429069519,3.5536656379699707,-5.5498433113098145,-0.7789598703384399,2.0143380165100098,3.9761950969696045,0.3162907660007477,-0.9065243005752563,-0.481400728225708,1.6641120910644531
164,30698,30694,0.026045378297567368,-0.09829851239919662,0.9604176878929138,2.877319812774658,-5.64993953704834,-0.6277945041656494,2.0145421028137207,3.9754655361175537,0.3162490725517273,-0.7233084440231323,-0.4223649799823761,1.6497002840042114
165,30708,30704,-0.009482629597187042,-0.013879806734621525,1.0268012285232544,2.4416534900665283,-5.655485153198242,-1.293770432472229,2.0137014389038086,3.9754292964935303,0.316266804933548,-0.7831808924674988,-0.44143056869506836,1.6408061981201172
166,30718,30714,0.027078965678811073,-0.012743751518428326,1.0230387449264526,2.586038827896118,-5.112379550933838,-0.8300684690475464,2.0155751705169678,3.976078510284424,0.3156794607639313,-0.6032617688179016,-0.38733214139938354,1.6294721364974976
167,30728,30724,0.061395421624183655,-0.08554363250732422,1.050228476524353,3.321237564086914,-6.704644203186035,-0.8429232835769653,2.014354944229126,3.9753780364990234,0.31572678685188293,-0.6558900475502014,-0.3213418424129486,1.625895619392395
168,30738,30734,0.05377151817083359,-0.10756290704011917,1.0349249839782715,3.600835084915161,-4.708984375,-1.679299235343933,2.015288829803467,3.9741876125335693,0.31568285822868347,-0.7016714215278625,-0.2591607868671417,1.6282570362091064
169,30748,30744,-0.029599612578749657,-0.011303232051432133,1.040000557899475,4.445987701416016,-4.626617431640625,-1.3219045400619507,2.0173614025115967,3.9742305278778076,0.31748706102371216,-0.6696460247039795,-0.2662696838378906,1.6083170175552368
170,30758,30754,0.026195667684078217,-0.017924001440405846,0.9929294586181641,3.042325973510742,-1.343453049659729,-2.2461025714874268,2.0184719562530518,3.9750757217407227,0.3176381289958954,-0.5074464678764343,-0.2671509087085724,1.5802735090255737
171,30768,30764,0.009145325981080532,0.02427910454571247,0.9781317710876465,2.598909378051758,-3.805068254470825,-2.447721481323242,2.0184829235076904,3.975646734237671,0.3179193437099457,-0.5278946161270142,-0.20361746847629547,1.565175175666809
172,30778,30774,0.004536086693406105,-0.027920950204133987,0.9903918504714966,1.5439132452011108,-1.7383345365524292,-2.177462577819824,2.0195412635803223,3.9747915267944336,0.31804752349853516,-0.5414704084396362,-0.15833057463169098,1.5464227199554443
173,30788,30784,0.028504708781838417,-0.012533103115856647,1.0034071207046509,2.472738265991211,-4.766551971435547,-1.9309614896774292,2.020843505859375,3.9746687412261963,0.31636321544647217,-0.5368245840072632,-0.10910110920667648,1.5288197994232178
174,30798,30794,0.02639908902347088,-0.013806240633130074,1.0769695043563843,2.2085673809051514,-7.388643741607666,-2.316720962524414,2.0221381187438965,3.9744207859039307,0.31641829013824463,-0.4912104308605194,-0.2198505848646164,1.4930973052978516
175,30808,30804,-0.003001535078510642,0.033775247633457184,1.1003485918045044,1.2453961372375488,-6.338407516479492,-1.759341835975647,2.022726058959961,3.9760525226593018,0.3165449798107147,-0.2687785029411316,-0.17001335322856903,1.4723726511001587
176,30818,30814,-0.010786437429487705,-0.02329309470951557,1.0045944452285767,1.7839412689208984,-6.982676982879639,-2.091456174850464,2.0223631858825684,3.9759738445281982,0.319769024848938,-0.2124118059873581,-0.11858519166707993,1.4589252471923828
177,30828,30824,-0.046706993132829666,0.06928113847970963,1.0041581392288208,2.638889789581299,-5.50661563873291,-2.176713705062866,2.0232133865356445,3.975811719894409,0.32019323110580444,-0.16389167308807373,-0.0691676139831543,1.4356058835983276
178,30838,30834,-0.008626621216535568,-0.009925737045705318,0.9961015582084656,4.006669044494629,-3.565382957458496,-1.868409514427185,2.0243425369262695,3.974808931350708,0.32060015201568604,-0.21756379306316376,-0.07910753041505814,1.4116277694702148
179,30848,30844,0.012616798281669617,-0.06638973951339722,0.980707049369812,5.135098457336426,-0.7264926433563232,-2.1123576164245605,2.0265345573425293,3.9759557247161865,0.32097136974334717,-0.1454949527978897,-0.07319328188896179,1.3924434185028076
180,30858,30854,0.002310637617483735,-0.021205216646194458,0.976919412612915,3.6124870777130127,0.1632499396800995,-1.9458571672439575,2.0266823768615723,3.9761288166046143,0.32143837213516235,-0.10226937383413315,0.016773752868175507,1.3746188879013062
181,30868,30864,-0.0073320381343364716,-0.0033305843826383352,0.9896035194396973,2.537409782409668,-0.4144437313079834,-1.824536681175232,2.0273141860961914,3.977357864379883,0.32184624671936035,0.006429718341678381,0.08684287965297699,1.3735437393188477
182,30878,30874,-0.0257729385048151,-0.06984545290470123,1.02407705783844,2.451542377471924,-1.461424469947815,-2.4314773082733154,2.0272629261016846,3.9771945476531982,0.3223123550415039,-0.19585996866226196,-0.010309537872672081,1.348907232284546
183,30888,30884,-0.07627181708812714,-0.04923933371901512,1.0627003908157349,1.225734829902649,-1.392682671546936,-2.2723727226257324,2.03047776222229,3.9787309169769287,0.32534199953079224,-0.06355071067810059,0.04843192920088768,1.3277469873428345
184,30898,30894,-0.09819256514310837,-0.01595885120332241,1.0226019620895386,1.687285304069519,-2.857374429702759,-2.3606150150299072,2.029735803604126,3.97831130027771,0.32615000009536743,0.06937019526958466,0.0957908108830452,1.3072619438171387
185,30908,30904,-0.06635069102048874,-0.006606869399547577,0.9576849341392517,1.1902848482131958,-1.2589792013168335,-2.1923835277557373,2.0292160511016846,3.9786312580108643,0.3269413411617279,0.19005317986011505,0.0601528137922287,1.2914934158325195
186,30918,30914,-0.03430763632059097,0.010105090215802193,0.9900237917900085,1.4162243604660034,-2.2151906490325928,-1.7697573900222778,2.028977870941162,3.979330062866211,0.3259733319282532,0.14581947028636932,0.10511483252048492,1.2669028043746948
187,30928,30924,-0.04609307274222374,0.15398314595222473,0.9779227375984192,1.438497543334961,-0.10744171589612961,-1.8035997152328491,2.030332326889038,3.9800398349761963,0.32654109597206116,0.09973515570163727,0.14750011265277863,1.246385097503662
188,30938,30934,-0.0005068867467343807,0.1761748492717743,0.9230205416679382,2.0544075965881348,1.7251486778259277,-1.6433532238006592,2.0320684909820557,3.979688882827759,0.3270564079284668,0.18309085071086884,0.19073063135147095,1.2246145009994507
189,30948,30944,0.038399916142225266,0.12404321879148483,0.8829362392425537,1.9901264905929565,3.528128147125244,-1.6609307527542114,2.032104015350342,3.9790918827056885,0.3294713497161865,0.07214753329753876,0.23493845760822296,1.2037650346755981
190,30958,30954,0.03629736602306366,0.09247714281082153,0.9029906988143921,1.8966342210769653,3.3973259925842285,-2.2295422554016113,2.033933639526367,3.9789774417877197,0.32996249198913574,0.10516539216041565,0.2780989408493042,1.1964550018310547
191,30968,30964,0.0028509278781712055,0.10464277118444443,0.9695149660110474,0.9503249526023865,2.461883306503296,-1.8755695819854736,2.034059524536133,3.9791321754455566,0.33049362897872925,-0.016460467129945755,0.2350701540708542,1.1739702224731445
192,30978,30974,-0.02060633711516857,0.11183272302150726,1.0247217416763306,-0.8100318312644958,0.19572898745536804,-1.9784550666809082,2.0347745418548584,3.979832649230957,0.3299524486064911,-0.03458290174603462,0.2551915645599365,1.1438952684402466
193,30988,30984,-0.024419456720352173,0.08413652330636978,1.0364660024642944,-2.0467677116394043,-2.2318196296691895,-2.15730619430542,2.035557270050049,3.97910213470459,0.33031508326530457,0.058610282838344574,0.324110746383667,1.1270594596862793
194,30998,30994,-0.024866802617907524,0.04394451156258583,1.0155278444290161,-2.1940500736236572,-3.196692943572998,-1.9365439414978027,2.0349466800689697,3.9780185222625732,0.33077648282051086,-0.05133800208568573,0.2197163999080658,1.1023719310760498
195,31008,31004,-0.0225509125739336,0.013177735731005669,0.9839208126068115,-2.789344310760498,-2.6475305557250977,-1.9423569440841675,2.0368356704711914,3.9785962104797363,0.33110398054122925,0.010119332000613213,0.19163061678409576,1.0844407081604004
196,31018,31014,-0.07230645418167114,0.015234277583658695,0.9648650288581848,-2.892141819000244,-2.5226027965545654,-1.9403191804885864,2.037216901779175,3.9785168170928955,0.33081021904945374,0.062247052788734436,0.22787271440029144,1.0610787868499756
197,31028,31024,-0.07477814704179764,-0.022857176139950752,0.9388466477394104,-1.177808403968811,-1.7621959447860718,-1.3711785078048706,2.037209987640381,3.977505683898926,0.33116960525512695,0.10108397156000137,0.1935548037290573,1.0416769981384277
198,31038,31034,-0.025092968717217445,-0.05746345967054367,0.9224177002906799,0.39378583431243896,-1.9445743560791016,-1.3715476989746094,2.037882089614868,3.9776265621185303,0.33146393299102783,0.14033469557762146,0.18677332997322083,1.0254634618759155
199,31048,31044,-0.0015262742526829243,-0.06555100530385971,0.9442456364631653,1.5535213947296143,0.6548877954483032,-1.188684344291687,2.0382189750671387,3.977304220199585,0.3315960168838501,-0.0695667564868927,0.12665921449661255,1.0010852813720703
200,31058,31054,-0.002924751490354538,-0.0917864739894867,0.9363616704940796,2.151954174041748,2.046590566635132,-1.4130210876464844,2.0414340496063232,3.9776368141174316,0.3316193222999573,0.012657811865210533,0.1640094369649887,0.9859998822212219
201,31068,31064,0.008131119422614574,-0.0403018593788147,0.9571141600608826,2.262195110321045,0.9850061535835266,-1.0331745147705078,2.0417022705078125,3.977154493331909,0.3318343162536621,0.08189887553453445,0.20892998576164246,0.9771761298179626
202,31078,31074,-0.01662965677678585,-0.016285104677081108,1.0075119733810425,1.7494999170303345,0.1957700252532959,-1.2562540769577026,2.0415494441986084,3.976534605026245,0.3285386860370636,-0.07295670360326767,0.2513646185398102,0.9511879086494446
203,31088,31084,0.006919702515006065,-0.038582876324653625,0.9833424091339111,0.486896276473999,1.0677759647369385,-1.002676248550415,2.0442404747009277,3.9761006832122803,0.3282742202281952,0.0074617029167711735,0.27542439103126526,0.9450832009315491
204,31098,31094,0.08491640537977219,-0.06317024677991867,0.9595149159431458,-0.2597079277038574,-1.609402060508728,-0.8082929849624634,2.0442843437194824,3.9760613441467285,0.3281584680080414,0.09573342651128769,0.28029975295066833,0.9423883557319641
205,31108,31104,0.07603153586387634,-0.06731517612934113,1.0058274269104004,-2.1142115592956543,-2.4090487957000732,-0.9657614231109619,2.043987989425659,3.975651264190674,0.32802507281303406,0.13190573453903198,0.2659774422645569,0.9427900910377502
206,31118,31114,0.040286216884851456,-0.05536269396543503,1.0375244617462158,-2.425614833831787,-1.4049957990646362,-1.6424421072006226,2.0443482398986816,3.9753708839416504,0.32672592997550964,0.24446725845336914,0.23563505709171295,0.9275057911872864
207,31128,31124,0.03581719100475311,-0.058472320437431335,0.9709410071372986,-2.752227306365967,-0.07912705093622208,-1.3377257585525513,2.0432331562042236,3.9754340648651123,0.32652655243873596,0.2593757212162018,0.27258601784706116,0.9092606902122498
208,31138,31134,0.0630098357796669,-0.16413438320159912,0.9741674661636353,-3.069000482559204,2.7371914386749268,-1.1703112125396729,2.0440897941589355,3.974794387817383,0.32623791694641113,0.16884711384773254,0.22198839485645294,0.8918818235397339
209,31148,31144,0.010885974392294884,-0.15250232815742493,1.0243455171585083,-2.802497386932373,6.984520435333252,-1.2409636974334717,2.0457167625427246,3.9751672744750977,0.3251418471336365,0.10446806252002716,0.1710236519575119,0.87899249792099
210,31158,31154,-0.030361006036400795,-0.07213126122951508,1.0404902696609497,-2.606905221939087,7.509909152984619,-1.0042258501052856,2.047116279602051,3.9757089614868164,0.3248137831687927,0.06866417825222015,0.12449529021978378,0.8911556005477905
211,31168,31164,-0.010133744217455387,-0.09805578738451004,1.0020490884780884,-0.771820068359375,8.073412895202637,-1.0575063228607178,2.0475995540618896,3.976503372192383,0.324544757604599,0.002702707424759865,0.09603817015886307,0.8812623620033264
212,31178,31174,0.021244022995233536,-0.0380241721868515,0.988658607006073,0.04551843926310539,9.193861961364746,-1.4306193590164185,2.0480241775512695,3.976506471633911,0.32105013728141785,-0.08392813056707382,0.08385413140058517,0.8709920644760132
213,31188,31184,0.05534965172410011,-0.00557357631623745,0.9593349695205688,1.0927221775054932,7.515983581542969,-1.3205132484436035,2.048875331878662,3.976283550262451,0.32055360078811646,-0.14913076162338257,0.08868163824081421,0.8494197130203247
214,31198,31194,0.04566419497132301,-0.02733580768108368,0.977218508720398,2.8873136043548584,-2.1082754135131836,-0.6178696751594543,2.048672676086426,3.9753527641296387,0.31993162631988525,-0.13060249388217926,0.12265381962060928,0.8237610459327698
215,31208,31204,-0.07420610636472702,0.04894813895225525,1.0243500471115112,2.4136080741882324,-0.5892213582992554,-0.7038761973381042,2.047717571258545,3.973511219024658,0.31945404410362244,-0.17783445119857788,0.16809695959091187,0.803320050239563
216,31218,31214,0.06600228697061539,-0.046804558485746384,0.9437333941459656,0.6802189946174622,-1.466307520866394,-0.08205433934926987,2.049978256225586,3.9743452072143555,0.3197900354862213,-0.16107887029647827,0.19179166853427887,0.8166296482086182
217,31228,31224,0.009394933469593525,-0.09171824157238007,1.0622724294662476,-0.5354034900665283,-0.7600364685058594,-0.2743591070175171,2.050046682357788,3.9742465019226074,0.3192944824695587,-0.2239009588956833,0.1912916898727417,0.8173240423202515
218,31238,31234,0.027361709624528885,-0.018773052841424942,1.0160220861434937,-1.4958672523498535,-0.8285639882087708,-0.4031725823879242,2.0514233112335205,3.974348306655884,0.3187353312969208,-0.20568488538265228,0.17233704030513763,0.8092201948165894
219,31248,31244,-0.09532541781663895,0.04793450981378555,1.0619995594024658,-2.7778003215789795,2.010615825653076,-0.3361263871192932,2.0516974925994873,3.9739580154418945,0.31943121552467346,-0.12946546077728271,0.28735408186912537,0.7943053841590881
220,31258,31254,-0.08041860163211823,0.19430553913116455,1.0061513185501099,-3.988162040710449,4.538201332092285,-0.15282194316387177,2.051356554031372,3.971605062484741,0.3191297948360443,-0.17349043488502502,0.22027094662189484,0.7806065678596497
221,31268,31264,0.012445734813809395,0.1563045233488083,0.9714211821556091,-6.546204566955566,5.6029438972473145,-0.04324319586157799,2.052551507949829,3.973475933074951,0.3187635540962219,-0.17867831885814667,0.12434462457895279,0.8086073994636536
222,31278,31274,0.00838962197303772,0.086710624396801,1.0613596439361572,-6.455461502075195,3.574974536895752,-0.18775278329849243,2.053044080734253,3.9736528396606445,0.32062476873397827,-0.1846015304327011,0.08504700660705566,0.8031181693077087
223,31288,31284,0.011756706982851028,-0.033249758183956146,1.0440934896469116,-4.714493274688721,2.6836729049682617,-0.7452151775360107,2.053363561630249,3.9730606079101562,0.3204895853996277,-0.16982801258563995,0.05371880158782005,0.7935309410095215
224,31298,31294,-0.003713584505021572,-0.02613825723528862,1.0457446575164795,-3.442403793334961,1.603567123413086,-0.5524692535400391,2.0530333518981934,3.9719038009643555,0.3204178810119629,-0.29185739159584045,-0.03354542702436447,0.7655076384544373
225,31308,31304,-0.0059157381765544415,-0.03369149565696716,1.0137559175491333,-2.023411750793457,0.6650498509407043,-0.052279870957136154,2.0541322231292725,3.9706456661224365,0.32053714990615845,-0.31048744916915894,-0.014579281210899353,0.7643375396728516
226,31318,31314,0.018008587881922722,-0.050121158361434937,1.0086532831192017,-1.12184476852417,0.9969639182090759,0.08679033070802689,2.054983139038086,3.9709103107452393,0.32049688696861267,-0.3257581889629364,-0.052715666592121124,0.762961208820343
227,31328,31324,0.04954615607857704,-0.014105788432061672,1.0467005968093872,0.2991960346698761,0.44184941053390503,-0.5018559098243713,2.0554962158203125,3.9706075191497803,0.3204558491706848,-0.4157082438468933,-0.07103041559457779,0.7610213160514832
228,31338,31334,-0.005780593026429415,0.0074044885113835335,1.0164515972137451,-0.2836741805076599,-0.74371337890625,0.05247152969241142,2.057023048400879,3.969630718231201,0.3203791677951813,-0.32914379239082336,-0.0848960131406784,0.7350026369094849
229,31348,31344,-0.00753752188757062,0.007804532535374165,1.0415825843811035,0.29972612857818604,0.7361197471618652,-0.037266798317432404,2.056668758392334,3.969390869140625,0.3196166455745697,-0.47259730100631714,-0.0944303348660469,0.7219480276107788
230,31358,31354,0.017908524721860886,-0.04520395025610924,0.982748806476593,-0.9160261154174805,-1.590119481086731,0.06118329241871834,2.058709144592285,3.968214988708496,0.3195146918296814,-0.36672061681747437,-0.10711169242858887,0.7147043943405151
231,31368,31364,-0.013149906881153584,0.055424075573682785,0.9878512620925903,-1.6231577396392822,-2.1412713527679443,0.34339454770088196,2.058521270751953,3.967637300491333,0.31964343786239624,-0.3341623842716217,-0.05803972855210304,0.7038916349411011
232,31378,31374,-0.035980962216854095,0.0983361080288887,1.0263895988464355,-1.7156217098236084,-1.4441872835159302,-0.028008442372083664,2.0588958263397217,3.96640944480896,0.32086220383644104,-0.23528434336185455,-0.09851543605327606,0.6969098448753357
233,31388,31384,-0.0011146777542307973,0.05399900674819946,0.9643422961235046,-3.178762197494507,-0.4384270906448364,0.2401835322380066,2.058763265609741,3.9657208919525146,0.3210068643093109,-0.2982192933559418,-0.15005208551883698,0.6715376377105713
234,31398,31394,0.009975961409509182,0.03686728700995445,1.0146234035491943,-1.278030276298523,-2.048206329345703,0.5251023173332214,2.0602123737335205,3.965740203857422,0.32105863094329834,-0.2732686996459961,-0.11838629841804504,0.6742649674415588
235,31408,31404,0.0033263410441577435,0.03061472624540329,1.070976734161377,-0.2938317656517029,-0.6686975359916687,1.1046051979064941,2.061044216156006,3.9650192260742188,0.3179224729537964,-0.24928590655326843,-0.06683637946844101,0.6605574488639832
236,31418,31414,-0.032204411923885345,0.0025029501412063837,1.1022061109542847,-0.971714198589325,-1.20018470287323,0.5757234692573547,2.061046838760376,3.9631879329681396,0.3178752362728119,-0.2047511786222458,-0.08927412331104279,0.6637154221534729
237,31428,31424,-0.07942737638950348,0.02178974822163582,1.0811448097229004,-1.3357418775558472,0.5530807375907898,0.585496723651886,2.061612844467163,3.9622392654418945,0.3179728388786316,-0.1897290050983429,-0.12365955114364624,0.6725113391876221
238,31438,31434,-0.11446026712656021,0.1437724530696869,0.9969207048416138,-2.2131879329681396,3.196777820587158,0.2538028359413147,2.06253719329834,3.9626564979553223,0.31811606884002686,-0.2963934540748596,-0.16729098558425903,0.6780799627304077
239,31448,31444,-0.09175962209701538,0.18674728274345398,0.9634172320365906,-4.408730506896973,7.579071044921875,0.6990429162979126,2.064114570617676,3.9632716178894043,0.31598955392837524,-0.29333966970443726,-0.15537557005882263,0.6929434537887573
