,timestamp_start,timestamp_end,acc.x,acc.y,acc.z,gyro.x,gyro.y,gyro.z,stateEstimate.x,stateEstimate.y,stateEstimate.z,stabilizer.pitch,stabilizer.roll,stabilizer.yaw
0,20361,20356,0.0008896664367057383,0.06646785885095596,0.9709919691085815,-0.14816011488437653,26.060874938964844,5.832507610321045,2.0177395343780518,4.042361736297607,0.18915969133377075,-0.42874112725257874,0.4405173361301422,3.1149821281433105
1,20371,20366,0.03607458993792534,0.025728335604071617,1.0148729085922241,-5.830724716186523,11.555691719055176,6.306530475616455,2.017561912536621,4.042769908905029,0.1878175586462021,-0.8036494851112366,0.4088064432144165,3.1708552837371826
2,20381,20376,0.0995171070098877,-0.08994647115468979,1.041078805923462,-5.85103178024292,-1.65682852268219,5.205985069274902,2.0169448852539062,4.042923450469971,0.19050218164920807,-0.7777199745178223,0.4410392940044403,3.2368977069854736
3,20391,20386,0.0015902300365269184,0.03528498858213425,0.9529386162757874,-4.736290454864502,-6.65277624130249,5.304625511169434,2.016005277633667,4.0409016609191895,0.19300854206085205,-0.8588969707489014,0.6741573810577393,3.283618927001953
4,20401,20396,-0.004777352325618267,0.0710708275437355,0.903026282787323,-3.9789583683013916,-9.838045120239258,6.07008171081543,2.015913486480713,4.040640354156494,0.19235149025917053,-0.824411153793335,0.588493287563324,3.3335700035095215
5,20411,20406,0.02701016329228878,-0.03831028193235397,0.9785729050636292,-5.45777702331543,-13.174484252929688,6.846860885620117,2.016932964324951,4.038092136383057,0.19441623985767365,-0.8721654415130615,0.5894343256950378,3.382391929626465
6,20421,20416,0.01382235623896122,-0.14431805908679962,1.0628410577774048,-4.053595066070557,-11.272071838378906,6.93071985244751,2.0176820755004883,4.037748336791992,0.19646406173706055,-0.8626764416694641,0.5701932907104492,3.4389455318450928
7,20431,20426,0.01635444164276123,-0.14610810577869415,1.037911057472229,-4.665318012237549,-4.605506896972656,6.525643825531006,2.0183322429656982,4.03941535949707,0.19622792303562164,-0.8749292492866516,0.4882868826389313,3.491079807281494
8,20441,20436,0.0012862555449828506,-0.01559389103204012,0.981439471244812,-6.204935550689697,-1.2694441080093384,6.449659824371338,2.0174851417541504,4.042165756225586,0.1984902322292328,-0.8210437893867493,0.17162896692752838,3.5225131511688232
9,20451,20446,0.012183651328086853,-0.0006595951272174716,0.9937751293182373,-6.998297691345215,2.5976195335388184,6.746849536895752,2.022218942642212,4.047168731689453,0.1992465853691101,-1.4860072135925293,-0.5039175748825073,3.436762571334839
10,20461,20456,0.07102356106042862,-0.12132403254508972,0.9718098044395447,-3.5879523754119873,-3.3657381534576416,7.231995105743408,2.0184500217437744,4.039899826049805,0.20923426747322083,-0.9023866057395935,0.6247649788856506,3.7463550567626953
11,20471,20466,0.010701251216232777,-0.028337348252534866,0.9812275767326355,1.4732296466827393,-15.667394638061523,7.1772141456604,2.0306715965270996,4.050903797149658,0.20964418351650238,-2.6750354766845703,-0.8845039010047913,3.4117698669433594
12,20481,20476,0.024113846942782402,-0.21498002111911774,1.00141179561615,10.032662391662598,-19.53451156616211,7.552851676940918,2.0303096771240234,4.050888538360596,0.21504709124565125,-2.2598142623901367,-0.6819106340408325,3.5392096042633057
13,20491,20486,0.003915393725037575,-0.06074018403887749,0.9512017965316772,18.17641258239746,-30.51173973083496,6.808986186981201,2.027578115463257,4.049475193023682,0.22012513875961304,-1.6917129755020142,-0.50755774974823,3.6395719051361084
14,20501,20496,0.0514460951089859,-0.015889300033450127,0.8815164566040039,24.624963760375977,-43.89055252075195,5.8362135887146,2.0274698734283447,4.048276424407959,0.21993021667003632,-1.2877798080444336,-0.057443056255578995,3.777862310409546
15,20511,20506,0.04163922369480133,-0.0885259136557579,0.9403383135795593,24.79691505432129,-48.5666389465332,5.652414321899414,2.024275779724121,4.045558452606201,0.22362393140792847,-0.3975960910320282,0.43364304304122925,3.901467800140381
16,20521,20516,0.02849527820944786,-0.24694405496120453,1.0190216302871704,20.241350173950195,-45.44152069091797,5.984893798828125,2.0244343280792236,4.0449652671813965,0.22595207393169403,-0.00010618905071169138,0.6567673087120056,3.9480373859405518
17,20531,20526,0.02992071397602558,-0.10962770879268646,0.9433838129043579,12.049182891845703,-37.74679183959961,5.379245758056641,2.0223774909973145,4.04412317276001,0.22596098482608795,0.7876030802726746,0.9522703886032104,4.025587558746338
18,20541,20536,-0.06376124173402786,0.10571181029081345,0.9621344804763794,-0.11563429236412048,-23.098834991455078,5.015510082244873,2.020477294921875,4.04368257522583,0.22787752747535706,1.3142545223236084,1.1595458984375,4.096402645111084
19,20551,20546,-0.030570747330784798,0.16962523758411407,0.9390888214111328,-10.57097339630127,-4.735856056213379,4.237906455993652,2.021432638168335,4.042000770568848,0.2299812138080597,1.4130933284759521,1.302101492881775,4.157871723175049
20,20561,20556,0.01915297470986843,0.03767240047454834,0.9282457232475281,-18.818832397460938,8.62201976776123,3.5811970233917236,2.020627737045288,4.041885852813721,0.2321132868528366,1.4910629987716675,1.0847182273864746,4.191360950469971
21,20571,20566,0.002891166601330042,-0.020015526562929153,0.9590723514556885,-22.809345245361328,16.5908145904541,3.512324571609497,2.0205249786376953,4.0417160987854,0.2291196584701538,1.4586032629013062,0.9151696562767029,4.235524654388428
22,20581,20576,-0.009643565863370895,0.10725991427898407,0.933847188949585,-22.711862564086914,20.409650802612305,3.7849316596984863,2.0202627182006836,4.040791988372803,0.230829656124115,1.2031595706939697,0.7654138207435608,4.264405250549316
23,20591,20586,-0.010511448606848717,0.053556255996227264,0.9933393597602844,-20.15776252746582,17.033435821533203,3.1928696632385254,2.018240451812744,4.039275169372559,0.23209893703460693,1.1966009140014648,0.7497482299804688,4.31931209564209
24,20601,20596,0.0056110345758497715,0.003367123194038868,0.9801065921783447,-15.72879409790039,11.086881637573242,2.452204704284668,2.017087459564209,4.0382256507873535,0.23279525339603424,1.1041573286056519,0.5353697538375854,4.360964775085449
25,20611,20606,-0.007322056218981743,0.02879383973777294,0.9931592345237732,-10.670001983642578,4.358415126800537,2.2087085247039795,2.0144667625427246,4.034610271453857,0.23409800231456757,1.1017783880233765,0.47710901498794556,4.392946720123291
26,20621,20616,0.03874066472053528,-0.03642421215772629,0.9224366545677185,-7.324844837188721,0.7379060983657837,1.5235073566436768,2.011486291885376,4.032412528991699,0.23531962931156158,1.1895877122879028,0.4110003113746643,4.427611351013184
27,20631,20626,-0.059752415865659714,0.03152865916490555,1.039158582687378,-4.2215800285339355,-4.1887946128845215,1.3569812774658203,2.011779546737671,4.032365322113037,0.2377239614725113,1.1939623355865479,0.23177661001682281,4.4513421058654785
28,20641,20636,0.02617335505783558,0.04718867316842079,0.9653206467628479,-4.682864665985107,-1.389679193496704,1.0819505453109741,2.0086188316345215,4.030857086181641,0.23901891708374023,1.3781864643096924,0.25678154826164246,4.4680681228637695
29,20651,20646,0.03394996374845505,0.10701145976781845,0.9257824420928955,-5.714134216308594,3.414424419403076,0.9843661189079285,2.0087785720825195,4.030982494354248,0.24050898849964142,1.3405147790908813,0.19280001521110535,4.476125717163086
30,20661,20656,0.030961697921156883,0.09349853545427322,0.944973349571228,-8.571590423583984,6.25772762298584,0.4476819932460785,2.0080506801605225,4.03139591217041,0.24240507185459137,1.2013394832611084,0.10820965468883514,4.481463432312012
31,20671,20666,0.01650393009185791,-0.02938220649957657,0.9493555426597595,-11.559866905212402,9.753052711486816,0.22972305119037628,2.007524013519287,4.029237747192383,0.2436792552471161,1.1247342824935913,0.20955131947994232,4.459994316101074
32,20681,20676,0.013128826394677162,-0.045376282185316086,0.9568445086479187,-13.46735954284668,10.210994720458984,0.8037776947021484,2.00728702545166,4.027744293212891,0.24497811496257782,0.9926520586013794,0.08634372800588608,4.461833477020264
33,20691,20686,0.03202638030052185,-0.10585843026638031,1.0037716627120972,-15.522942543029785,13.142196655273438,0.013133971951901913,2.00702166557312,4.026899814605713,0.2463557869195938,0.8578423261642456,-0.07129702717065811,4.470609664916992
34,20701,20696,0.03849227726459503,-0.04166072979569435,0.9545854330062866,-15.804506301879883,12.601808547973633,-0.25418412685394287,2.0066497325897217,4.025716781616211,0.2481606900691986,0.7679727077484131,-0.1769658774137497,4.466651439666748
35,20711,20706,0.039103925228118896,-0.03888639807701111,0.9321455359458923,-15.882040023803711,9.934165954589844,0.3333338797092438,2.0048611164093018,4.0266900062561035,0.2495509833097458,0.658160388469696,-0.5257860422134399,4.490198135375977
36,20721,20716,0.006814206019043922,-0.0056871939450502396,1.0009552240371704,-13.837796211242676,5.412844657897949,0.09040951728820801,2.0027084350585938,4.024709701538086,0.2507193684577942,0.7596227526664734,-0.5377252697944641,4.4786529541015625
37,20731,20726,0.023239972069859505,-0.1415877640247345,1.0215200185775757,-8.00623893737793,5.7449870109558105,-0.2559373378753662,2.0027310848236084,4.026237964630127,0.25073522329330444,0.6296064853668213,-0.8252091407775879,4.49857234954834
38,20741,20736,-0.0057534328661859035,-0.023440545424818993,1.025632619857788,-4.59922981262207,4.73804235458374,-0.31576433777809143,2.0022530555725098,4.023270130157471,0.25193554162979126,0.5684226751327515,-0.7002807855606079,4.470507621765137
39,20751,20746,-0.01034985389560461,0.0884760320186615,0.913415253162384,-1.6340068578720093,7.396070957183838,-0.7119157314300537,2.001821994781494,4.023135185241699,0.2519039809703827,0.5589250922203064,-0.6904970407485962,4.459124565124512
40,20761,20756,-0.06455271691083908,0.24075476825237274,0.8680518865585327,-1.7219820022583008,8.40976333618164,0.7201232314109802,2.0009782314300537,4.0236735343933105,0.25286054611206055,0.4243493378162384,-0.8055130839347839,4.46863317489624
41,20771,20766,-0.03296373039484024,0.05628962069749832,1.0700759887695312,-1.3172192573547363,9.900835990905762,-0.6113751530647278,1.999657154083252,4.023746490478516,0.2539016306400299,0.3966634273529053,-0.9068823456764221,4.479332447052002
42,20781,20776,0.044956400990486145,-0.08137305080890656,1.0603784322738647,-1.919358730316162,9.935220718383789,-0.8634493350982666,1.998975396156311,4.023035049438477,0.254993200302124,0.19787529110908508,-0.840243399143219,4.4680495262146
43,20791,20786,-0.02086784690618515,0.06669844686985016,0.9441863894462585,-2.3165929317474365,10.257124900817871,-0.6469539403915405,1.9975652694702148,4.022512912750244,0.25599709153175354,0.21597829461097717,-0.9254338145256042,4.455869197845459
44,20801,20796,-0.06988918781280518,0.17565004527568817,0.9030154943466187,-3.6418018341064453,11.040632247924805,-0.9061055779457092,1.9983760118484497,4.023064613342285,0.2574397623538971,-0.04184401407837868,-1.0162097215652466,4.463146209716797
45,20811,20806,-0.03523702174425125,0.10384978353977203,1.0029269456863403,-3.3355464935302734,8.39223861694336,-1.5576449632644653,1.9953995943069458,4.021477222442627,0.25844618678092957,0.09557417780160904,-0.9771237373352051,4.425889492034912
46,20821,20816,0.011941120028495789,0.02927318774163723,1.0884648561477661,-1.272320032119751,7.099752426147461,-1.569427728652954,1.995497465133667,4.02180290222168,0.25949421525001526,-0.09733157604932785,-1.0841566324234009,4.426604270935059
47,20831,20826,0.009321274235844612,-0.002691269852221012,1.0424765348434448,0.7836731672286987,4.712915897369385,-2.1334798336029053,1.9940087795257568,4.0220136642456055,0.2632791996002197,-0.1254371553659439,-1.1363691091537476,4.406960964202881
48,20841,20836,-0.035606496036052704,0.1204332634806633,0.9521816372871399,1.18106210231781,4.91916561126709,-1.7978328466415405,1.9924372434616089,4.0205278396606445,0.2644919157028198,-0.154165118932724,-1.070908546447754,4.379986763000488
49,20851,20846,-0.01171624381095171,0.04531340301036835,0.9717308282852173,1.977841854095459,6.443610191345215,-1.8640446662902832,1.9919530153274536,4.020874977111816,0.2657591700553894,-0.24946542084217072,-1.0823512077331543,4.365149974822998
50,20861,20856,0.04943742975592613,-0.003911035601049662,1.0495960712432861,3.588986396789551,3.694612503051758,-2.20019268989563,1.992236852645874,4.020928859710693,0.2695910930633545,-0.41952964663505554,-1.0754482746124268,4.35931396484375
51,20871,20866,0.018089283257722855,0.01495550386607647,1.1049748659133911,2.8195416927337646,2.9127297401428223,-2.8021297454833984,1.990232229232788,4.02066707611084,0.27094244956970215,-0.29199862480163574,-1.0400831699371338,4.314508438110352
52,20881,20876,-0.033058155328035355,0.07782083749771118,0.990090548992157,1.8162899017333984,4.101929664611816,-2.6583497524261475,1.9902658462524414,4.019961833953857,0.2724013924598694,-0.41745832562446594,-1.016302227973938,4.299049377441406
53,20891,20886,-0.022380881011486053,0.0913175493478775,0.8968111872673035,1.4863141775131226,1.9654430150985718,-2.461838483810425,1.989927053451538,4.0198493003845215,0.273878276348114,-0.4965674877166748,-1.006136178970337,4.273777961730957
54,20901,20896,0.0044718412682414055,-0.005395225249230862,0.9407973885536194,1.9756255149841309,2.719534158706665,-2.428191661834717,1.9898308515548706,4.0199875831604,0.2744966149330139,-0.5921577215194702,-1.0685592889785767,4.25377893447876
55,20911,20906,0.05548422411084175,-0.059518348425626755,0.9887802600860596,2.981487512588501,1.4990723133087158,-2.411921739578247,1.988394021987915,4.019281387329102,0.2758464813232422,-0.5369591116905212,-1.0411968231201172,4.218418598175049
56,20921,20916,0.051207173615694046,-0.09907133132219315,1.0542826652526855,4.964391708374023,1.1136142015457153,-3.0933210849761963,1.9871160984039307,4.0196099281311035,0.27711594104766846,-0.5363884568214417,-1.0643426179885864,4.187119960784912
57,20931,20926,0.049149684607982635,-0.05551033094525337,0.9462814331054688,6.0009870529174805,1.0238372087478638,-2.672320604324341,1.9855072498321533,4.018300533294678,0.2772428095340729,-0.45891013741493225,-0.9749820232391357,4.147579669952393
58,20941,20936,0.011886021122336388,-0.04708335921168327,0.9425389766693115,8.152677536010742,2.1404025554656982,-3.4278922080993652,1.9848483800888062,4.017974853515625,0.27850282192230225,-0.5592126250267029,-0.9392032623291016,4.1277875900268555
59,20951,20946,0.015894491225481033,-0.10353023558855057,0.9073853492736816,9.066058158874512,2.9235007762908936,-3.284299373626709,1.9839568138122559,4.019181251525879,0.2796921730041504,-0.5914559364318848,-0.941457211971283,4.085879325866699
60,20961,20956,0.027915330603718758,-0.10645952075719833,0.8949987292289734,8.9478759765625,2.5435595512390137,-3.2395856380462646,1.9826045036315918,4.0187764167785645,0.27902084589004517,-0.6917362809181213,-0.77142333984375,4.072182655334473
61,20971,20966,0.04339436814188957,-0.08493192493915558,0.91656893491745,7.8253326416015625,3.1873350143432617,-4.0386576652526855,1.9818193912506104,4.01924991607666,0.2799389362335205,-0.6976268887519836,-0.7626355886459351,4.027305603027344
62,20981,20976,0.045700982213020325,-0.0173723753541708,0.9571133255958557,6.947054862976074,2.5280532836914062,-3.7482011318206787,1.9812980890274048,4.019836902618408,0.2807905375957489,-0.7783545851707458,-0.6911517977714539,3.9979143142700195
63,20991,20986,0.01564094051718712,0.058416977524757385,0.9730202555656433,6.7698540687561035,0.9327723383903503,-4.060730457305908,1.9801489114761353,4.0189900398254395,0.28267037868499756,-0.7135035991668701,-0.5489874482154846,3.9515552520751953
64,21001,20996,-0.04141800105571747,0.04256099835038185,0.9747986197471619,6.502307415008545,-1.1299864053726196,-4.014568328857422,1.9797358512878418,4.019486427307129,0.2835462987422943,-0.7567951679229736,-0.5689634680747986,3.9048807621002197
65,21011,21006,-0.024736130610108376,0.004865366034209728,0.9891437292098999,6.495080471038818,-2.280514717102051,-4.127277374267578,1.9789761304855347,4.019017219543457,0.2843228280544281,-0.6990829706192017,-0.43515872955322266,3.8686649799346924
66,21021,21016,-0.0881628543138504,0.04019135981798172,0.9422610402107239,5.727802276611328,-2.3697967529296875,-4.002968788146973,1.9784958362579346,4.0196380615234375,0.2850624918937683,-0.6868900656700134,-0.4536803960800171,3.8165793418884277
67,21031,21026,-0.031262800097465515,-0.007359696552157402,0.9690090417861938,5.656248569488525,-1.7272168397903442,-3.7164859771728516,1.977319598197937,4.01978063583374,0.2875986695289612,-0.6157605051994324,-0.330157607793808,3.780003547668457
68,21041,21036,0.012099608778953552,0.11675678938627243,0.9612622261047363,6.030666351318359,-0.5909679532051086,-3.8040294647216797,1.9764442443847656,4.020265102386475,0.28837552666664124,-0.6285157799720764,-0.3573112487792969,3.733064889907837
69,21051,21046,0.024804381653666496,0.17581254243850708,1.0092626810073853,5.975066184997559,1.050122618675232,-3.6348156929016113,1.976384162902832,4.021655559539795,0.2890806198120117,-0.6744993925094604,-0.44174879789352417,3.6784963607788086
70,21061,21056,0.04141676053404808,0.07481325417757034,1.0051052570343018,7.078199863433838,-0.5502941012382507,-3.5602667331695557,1.9757721424102783,4.020552158355713,0.28856319189071655,-0.7346950173377991,-0.28963595628738403,3.6579930782318115
71,21071,21066,0.018613411113619804,0.00027714911266230047,1.0024166107177734,8.465476036071777,-0.4132063686847687,-3.297104597091675,1.974671483039856,4.021853923797607,0.28915101289749146,-0.6846309900283813,-0.34635230898857117,3.6013362407684326
72,21081,21076,0.02971363626420498,-0.017907267436385155,0.9720110893249512,9.665139198303223,-0.8646387457847595,-2.9779815673828125,1.9737091064453125,4.021465301513672,0.28986549377441406,-0.6355018615722656,-0.14642231166362762,3.5832178592681885
73,21091,21086,-0.03806789219379425,0.0022480224724859,1.0177483558654785,11.396712303161621,-1.450405478477478,-2.7723188400268555,1.973717451095581,4.021543025970459,0.2926458418369293,-0.6461427211761475,-0.004818957298994064,3.560551404953003
74,21101,21096,-0.001953625353053212,0.050888076424598694,0.926522433757782,11.018827438354492,-1.527223825454712,-2.1624860763549805,1.9735504388809204,4.022484302520752,0.29340294003486633,-0.6621240377426147,0.08043216168880463,3.5306813716888428
75,21111,21106,0.007044552359730005,-0.01702803187072277,0.9553899168968201,9.4756498336792,-1.7543278932571411,-2.0425243377685547,1.9730831384658813,4.021685600280762,0.294129878282547,-0.6657097935676575,0.1569366157054901,3.5056772232055664
76,21121,21116,-0.014094522222876549,-0.012216801755130291,0.9898462891578674,7.554117679595947,0.07957731932401657,-2.0486292839050293,1.9719263315200806,4.022817611694336,0.29479047656059265,-0.5943797826766968,0.20657190680503845,3.4774231910705566
77,21131,21126,0.039146170020103455,-0.1444747895002365,0.9953469038009644,6.4520134925842285,-1.347486972808838,-1.6793949604034424,1.970906376838684,4.021792411804199,0.29280123114585876,-0.632275402545929,0.22332985699176788,3.4511501789093018
78,21141,21136,0.03153900429606438,-0.22248588502407074,1.0054397583007812,5.115821361541748,-1.4644666910171509,-1.54776132106781,1.970967173576355,4.021378040313721,0.2933136522769928,-0.63431715965271,0.3766981065273285,3.447408676147461
79,21151,21146,0.013993337750434875,-0.18992120027542114,1.0037246942520142,4.718647003173828,-1.647892951965332,-1.6146135330200195,1.9699363708496094,4.022839069366455,0.29381263256073,-0.625174343585968,0.28090718388557434,3.411735773086548
80,21161,21156,0.016156289726495743,-0.0498688630759716,0.9615979194641113,5.475498199462891,1.6498979330062866,-1.506630539894104,1.9689393043518066,4.021946430206299,0.29426443576812744,-0.6234959363937378,0.42806702852249146,3.4087328910827637
81,21171,21166,0.040075212717056274,-0.036913543939590454,0.9450945854187012,5.856054306030273,8.039435386657715,-1.1600011587142944,1.9688870906829834,4.0227131843566895,0.2947457432746887,-0.6927816271781921,0.49293604493141174,3.3959414958953857
82,21181,21176,0.08085852861404419,-0.029108360409736633,0.9418575763702393,5.425803184509277,13.828583717346191,-0.37255463004112244,1.9686214923858643,4.024625778198242,0.2951792776584625,-0.8223466277122498,0.4876388609409332,3.3781774044036865
83,21191,21186,0.10933895409107208,-0.15594889223575592,0.980306088924408,4.672563552856445,16.565004348754883,-0.39121752977371216,1.9690744876861572,4.024681091308594,0.2959898114204407,-1.0869550704956055,0.544070303440094,3.3731937408447266
84,21201,21196,0.01151578314602375,0.03292075917124748,0.942872941493988,5.250701427459717,18.08003044128418,-0.49314194917678833,1.968888282775879,4.024665832519531,0.2963627278804779,-1.3258618116378784,0.609653115272522,3.366975784301758
85,21211,21206,-0.016282737255096436,0.03768192231655121,0.9447685480117798,4.618819713592529,13.473623275756836,-0.07359357923269272,1.967358946800232,4.025476455688477,0.29682180285453796,-1.3185393810272217,0.6666334271430969,3.376957416534424
86,21221,21216,-0.022597843781113625,0.013064103201031685,1.0216273069381714,5.103617191314697,9.54808235168457,-0.27245327830314636,1.9676209688186646,4.02612829208374,0.29711660742759705,-1.4531266689300537,0.7154989838600159,3.376953363418579
87,21231,21226,0.032905831933021545,-0.009716976433992386,0.9155148267745972,4.366933345794678,6.383897304534912,-0.1698729395866394,1.9669842720031738,4.025310516357422,0.2980242371559143,-1.5292288064956665,0.8508521914482117,3.3890814781188965
88,21241,21236,0.08124424517154694,-0.07875773310661316,0.9213424921035767,3.5523900985717773,1.7993617057800293,0.23881345987319946,1.9676434993743896,4.026243686676025,0.29828476905822754,-1.6340141296386719,0.8028824329376221,3.3692476749420166
89,21251,21246,0.0420488640666008,-0.163300022482872,1.0599827766418457,1.7355542182922363,-1.8139915466308594,0.001090261503122747,1.965975046157837,4.025257587432861,0.29864761233329773,-1.486371636390686,0.8861082792282104,3.395874261856079
90,21261,21256,0.04617009684443474,-0.2665705382823944,1.0286849737167358,2.2684574127197266,-0.9521228671073914,-0.5400615334510803,1.9655189514160156,4.0260162353515625,0.29921191930770874,-1.4335278272628784,0.800555944442749,3.3784923553466797
91,21271,21266,-0.032167933881282806,-0.04685667157173157,1.055691123008728,2.006911277770996,1.4010810852050781,-0.14732342958450317,1.966448187828064,4.026042461395264,0.299450546503067,-1.5137890577316284,0.8834856748580933,3.377976894378662
92,21281,21276,0.019937967881560326,-0.005621789954602718,0.9273869395256042,1.3301578760147095,5.955017566680908,-0.5565928816795349,1.9666959047317505,4.0262131690979,0.29972243309020996,-1.5518666505813599,0.9663257002830505,3.387083053588867
93,21291,21286,0.048758722841739655,-0.008635923266410828,0.9125669002532959,-0.12462718039751053,7.166780948638916,-0.286528617143631,1.9672207832336426,4.028829097747803,0.30097049474716187,-1.6649583578109741,0.7201516032218933,3.32474946975708
94,21301,21296,0.0346912257373333,-0.11050211638212204,1.0398192405700684,-0.2507005035877228,5.332851886749268,-0.034404732286930084,1.9667060375213623,4.025997161865234,0.30129390954971313,-1.7611117362976074,0.8405793309211731,3.347402572631836
95,21311,21306,0.02223997563123703,-0.1910882443189621,1.0568886995315552,2.536278486251831,4.734523296356201,-0.7881946563720703,1.965332269668579,4.026175022125244,0.30166658759117126,-1.6428842544555664,0.8091932535171509,3.3589084148406982
96,21321,21316,-0.02353949099779129,-0.058808065950870514,1.0568158626556396,4.513424396514893,2.68046498298645,-1.0948621034622192,1.9663225412368774,4.025917053222656,0.3019266426563263,-1.781909465789795,0.8269807696342468,3.334737539291382
97,21331,21326,0.013201436027884483,0.037821583449840546,0.9119543433189392,5.246857643127441,2.455315113067627,-1.2166988849639893,1.9663403034210205,4.025545597076416,0.3018788993358612,-1.8026063442230225,0.9570690989494324,3.3434860706329346
98,21341,21336,0.040967781096696854,0.04042065516114235,0.9211819171905518,4.928410053253174,0.2791818082332611,-1.2776565551757812,1.9664133787155151,4.025822162628174,0.3022093176841736,-1.826641321182251,1.0098943710327148,3.332608222961426
99,21351,21346,0.027149563655257225,-0.06019636616110802,1.040108323097229,3.456167459487915,-3.283008337020874,-1.3495004177093506,1.9663532972335815,4.026463031768799,0.3024895191192627,-1.7884223461151123,1.0305309295654297,3.320589780807495
100,21361,21356,0.023266682401299477,-0.18295809626579285,1.0407692193984985,2.928868293762207,-4.900629043579102,-1.4536341428756714,1.9655368328094482,4.025320529937744,0.3028125762939453,-1.669732928276062,1.1138941049575806,3.3312835693359375
101,21371,21366,-0.04255842790007591,-0.03222721070051193,1.0490946769714355,0.7885851263999939,-2.728159189224243,-1.9913241863250732,1.9651838541030884,4.026066303253174,0.3031195402145386,-1.547876238822937,1.1094260215759277,3.317457914352417
102,21381,21376,-0.011293466202914715,0.10829676687717438,0.9545090198516846,-2.303790807723999,1.240774154663086,-1.8738235235214233,1.9650501012802124,4.025094985961914,0.30342406034469604,-1.572157859802246,1.1355618238449097,3.2982676029205322
103,21391,21386,0.014784492552280426,0.13997255265712738,0.9680637121200562,-4.371585369110107,3.381066083908081,-1.8682841062545776,1.966256022453308,4.0258893966674805,0.3044629693031311,-1.664063811302185,1.036971092224121,3.251450300216675
104,21401,21396,-0.003168730065226555,0.028255779296159744,1.0442479848861694,-5.930190563201904,2.555558204650879,-2.0706136226654053,1.9671114683151245,4.024661540985107,0.30478596687316895,-1.7604283094406128,1.052538275718689,3.2395031452178955
105,21411,21406,-0.05443872511386871,-0.03785860911011696,1.0995911359786987,-4.96910285949707,1.4800010919570923,-2.4102673530578613,1.966934323310852,4.024409770965576,0.3051854074001312,-1.7280027866363525,0.9716850519180298,3.22176194190979
106,21421,21416,-0.06986358761787415,0.008288631215691566,1.0669569969177246,-3.250420331954956,-1.7425525188446045,-2.2551910877227783,1.967382550239563,4.0244646072387695,0.3073568344116211,-1.7051259279251099,0.9129523634910583,3.198350429534912
107,21431,21426,-0.07424979656934738,0.1638420820236206,0.9852010011672974,-1.5907796621322632,-1.3141666650772095,-2.197362184524536,1.9678449630737305,4.022890090942383,0.30787935853004456,-1.782302975654602,0.9620546102523804,3.1818783283233643
108,21441,21436,-0.043071094900369644,0.2023605853319168,0.9884948134422302,-0.8890347480773926,-2.8933703899383545,-2.3229665756225586,1.9689383506774902,4.023049354553223,0.30847740173339844,-1.7862223386764526,0.9490602016448975,3.1553187370300293
109,21451,21446,0.03796306252479553,-0.014241005294024944,0.9383400082588196,-0.44130611419677734,-4.490485668182373,-1.950347661972046,1.9678843021392822,4.0221734046936035,0.30917060375213623,-1.6669487953186035,0.9415653347969055,3.1457576751708984
110,21461,21456,-0.06284673511981964,-0.004525266587734222,1.0778614282608032,-1.0712039470672607,-5.865121364593506,-2.1994054317474365,1.9695470333099365,4.022237300872803,0.3107883632183075,-1.732722520828247,0.9268253445625305,3.1034133434295654
111,21471,21466,-0.10475723445415497,-0.027874253690242767,1.038072109222412,-1.610573172569275,-6.583921909332275,-2.3999862670898438,1.9672420024871826,4.0199713706970215,0.3116312325000763,-1.4304431676864624,0.9105786681175232,3.111339569091797
112,21481,21476,-0.1282014548778534,0.1015804335474968,1.005471110343933,-2.5116190910339355,-6.192708969116211,-2.3248534202575684,1.9667562246322632,4.019103050231934,0.3123612701892853,-1.3160161972045898,0.8875441551208496,3.0906126499176025
113,21491,21486,-0.03317690268158913,0.08629656583070755,0.9622876644134521,-4.124043941497803,-4.334184169769287,-2.255077600479126,1.9688620567321777,4.019906520843506,0.30992230772972107,-1.4027129411697388,0.8376082181930542,3.0412466526031494
114,21501,21496,-0.015817543491721153,0.256634384393692,0.9805699586868286,-5.096926212310791,-2.361370325088501,-2.223607063293457,1.9694386720657349,4.019210338592529,0.3104005753993988,-1.46504807472229,0.7630605101585388,2.998223304748535
115,21511,21506,0.055612217634916306,0.12572252750396729,0.9587045311927795,-5.240329265594482,-2.798741579055786,-2.4940378665924072,1.971025824546814,4.019560813903809,0.31082308292388916,-1.549950122833252,0.6683725118637085,2.9508116245269775
116,21521,21516,0.024782679975032806,-0.029289409518241882,1.0270417928695679,-4.387447357177734,-5.314548969268799,-1.8302701711654663,1.9711601734161377,4.017330646514893,0.3108304440975189,-1.5047575235366821,0.7338195443153381,2.9540517330169678
117,21531,21526,-0.020153304561972618,-0.13399498164653778,1.0282886028289795,-3.388923168182373,-7.841867446899414,-2.0987846851348877,1.970007061958313,4.016311168670654,0.311373770236969,-1.312898874282837,0.6542419195175171,2.9434432983398438
118,21541,21536,-0.05691185221076012,-0.1496938169002533,1.0168476104736328,-3.000434398651123,-10.340572357177734,-2.3586268424987793,1.972633957862854,4.0168375968933105,0.3117007613182068,-1.3881340026855469,0.5947858691215515,2.8935680389404297
119,21551,21546,-0.04137956723570824,-0.0028537693433463573,1.0197559595108032,-1.8989423513412476,-11.28640365600586,-2.1190896034240723,1.9727517366409302,4.01716423034668,0.31221091747283936,-1.2628687620162964,0.5469855666160583,2.8682055473327637
120,21561,21556,0.06429345905780792,-0.014163725078105927,0.9034488797187805,-1.1000300645828247,-9.90943431854248,-2.270413637161255,1.9726970195770264,4.015961170196533,0.3124561011791229,-1.0755653381347656,0.6015028953552246,2.8666300773620605
121,21571,21566,0.017407869920134544,0.002275430364534259,0.9676823616027832,-0.9800673127174377,-10.359249114990234,-2.0101161003112793,1.9712969064712524,4.0159454345703125,0.3130161464214325,-0.8025206923484802,0.5695754885673523,2.858400821685791
122,21581,21576,0.10671545565128326,-0.07878001034259796,0.9455620646476746,-2.3414666652679443,-7.238860607147217,-2.0582895278930664,1.974907398223877,4.015383720397949,0.3132866322994232,-0.9938179850578308,0.6158449649810791,2.820618152618408
123,21591,21586,0.007553262636065483,-0.09964605420827866,1.0134674310684204,-4.117649078369141,-6.078383922576904,-2.0766777992248535,1.9751912355422974,4.013993740081787,0.3151099383831024,-0.8405284285545349,0.6293687224388123,2.813270330429077
124,21601,21596,-0.032781485468149185,-0.009719299152493477,1.0058135986328125,-5.6458048820495605,-4.762326717376709,-1.9203230142593384,1.9757283926010132,4.013504981994629,0.3155362010002136,-0.729904294013977,0.610701858997345,2.801586866378784
125,21611,21606,0.025021035224199295,-0.049497660249471664,0.9397098422050476,-7.272735118865967,-3.290905475616455,-2.811976671218872,1.9761866331100464,4.0130720138549805,0.31595057249069214,-0.6446115374565125,0.5592256188392639,2.784979820251465
126,21621,21616,-0.01292496733367443,-0.005549576599150896,1.0059325695037842,-7.820295810699463,-3.0164988040924072,-2.8075718879699707,1.977721929550171,4.012997627258301,0.3194977641105652,-0.6636624932289124,0.4029020369052887,2.7426066398620605
127,21631,21626,0.07207329571247101,-0.09565287828445435,0.9541857242584229,-7.56868839263916,-2.469268798828125,-2.44558048248291,1.9787150621414185,4.012784957885742,0.32005754113197327,-0.6220586895942688,0.32270756363868713,2.718334913253784
128,21641,21636,0.015247328206896782,-0.03437848016619682,1.0048702955245972,-6.009439945220947,-3.079026937484741,-2.5463764667510986,1.9809778928756714,4.0118303298950195,0.3205437660217285,-0.7137584090232849,0.3352108597755432,2.6917076110839844
129,21651,21646,0.013881509192287922,0.09248971194028854,0.9567800164222717,-4.122957706451416,-4.036685943603516,-2.3002867698669434,1.9816418886184692,4.012279510498047,0.3210834264755249,-0.646361768245697,0.21340425312519073,2.6636571884155273
130,21661,21656,0.003517970908433199,0.06645859032869339,0.9752934575080872,-1.999481201171875,-5.735371112823486,-2.442598342895508,1.9823994636535645,4.0122857093811035,0.32188090682029724,-0.5589057207107544,0.12408383935689926,2.639049530029297
131,21671,21666,-0.0644049122929573,0.025576582178473473,1.0686671733856201,-1.5171689987182617,-7.167542934417725,-2.2990453243255615,1.9818925857543945,4.012452602386475,0.32242467999458313,-0.4235709309577942,0.0682067945599556,2.6158180236816406
132,21681,21676,-0.0727347657084465,-0.03997856378555298,1.0515440702438354,0.41545364260673523,-7.533841609954834,-2.301121711730957,1.9830676317214966,4.012536525726318,0.3229130208492279,-0.33733609318733215,0.03461557626724243,2.590397596359253
133,21691,21686,-0.08715808391571045,0.0027021130081266165,1.0518040657043457,1.023151159286499,-5.379931449890137,-2.1489098072052,1.9860501289367676,4.010453224182129,0.3197370767593384,-0.4948819577693939,0.18831856548786163,2.563208818435669
134,21701,21696,-0.03436833247542381,0.051166776567697525,0.9778710007667542,1.2260702848434448,-2.9766249656677246,-2.171337127685547,1.986693263053894,4.009652137756348,0.32009807229042053,-0.4512518048286438,0.17653043568134308,2.5406503677368164
135,21711,21706,0.03140946850180626,0.16223102807998657,0.8622028231620789,-0.09366805106401443,-4.171843528747559,-2.029059648513794,1.9866127967834473,4.009653568267822,0.3206091821193695,-0.2993558943271637,0.16879472136497498,2.522010564804077
136,21721,21716,0.09071119129657745,0.07577371597290039,0.8872545957565308,-2.436070680618286,-4.175382614135742,-2.002462148666382,1.9869383573532104,4.009861469268799,0.318308562040329,-0.32912081480026245,0.13060779869556427,2.4990620613098145
137,21731,21726,0.13770274817943573,-0.001446219626814127,0.9320999979972839,-4.085058689117432,-3.7695651054382324,-1.766503930091858,1.987436056137085,4.010080814361572,0.31839391589164734,-0.2636575698852539,0.05085406079888344,2.478527307510376
138,21741,21736,0.018683243542909622,0.082194022834301,0.9284852147102356,-4.45635461807251,-4.351478099822998,-1.8633780479431152,1.9879117012023926,4.010229110717773,0.31843531131744385,-0.22600582242012024,-0.036898013204336166,2.4597244262695312
139,21751,21746,-0.03789594769477844,-0.04324387386441231,0.9899775385856628,-4.4794721603393555,-3.792850971221924,-1.8131656646728516,1.9891144037246704,4.009134292602539,0.3159591257572174,-0.20265334844589233,0.02319936640560627,2.4417829513549805
140,21761,21756,-0.011679629795253277,-0.2510189116001129,0.9927359223365784,-1.6269211769104004,-3.5652225017547607,-1.46696937084198,1.9902119636535645,4.009437561035156,0.3156956136226654,-0.1482575386762619,-0.06698574125766754,2.4277637004852295
141,21771,21766,0.003708693664520979,-0.08162858337163925,1.012264609336853,-0.5971617102622986,-3.250901222229004,-1.5848702192306519,1.9924119710922241,4.009702205657959,0.3152500092983246,-0.31947627663612366,-0.11108464002609253,2.4155914783477783
142,21781,21776,0.0635819360613823,0.02817627042531967,1.0091036558151245,0.17867639660835266,-3.036149740219116,-1.1477644443511963,1.991797924041748,4.007081508636475,0.31512144207954407,-0.18619753420352936,0.016746288165450096,2.391903877258301
143,21791,21786,0.10187052190303802,0.06740353256464005,0.8930994868278503,-0.08104371279478073,-4.510307788848877,-0.8246096968650818,1.9931691884994507,4.006968975067139,0.3183612823486328,-0.13637809455394745,-0.0007199826068244874,2.383002758026123
144,21801,21796,0.06303175538778305,0.08453899621963501,0.9525226354598999,-0.5790231823921204,-4.071506977081299,-0.676543653011322,1.9939883947372437,4.005615711212158,0.3182758092880249,-0.10322538018226624,-0.032564979046583176,2.3781111240386963
145,21811,21806,0.019282927736639977,0.0035548624582588673,1.0361868143081665,-1.923178791999817,-4.029974937438965,-0.9566875696182251,1.9954016208648682,4.005404949188232,0.31812578439712524,-0.06485718488693237,-0.08482838422060013,2.3689770698547363
146,21821,21816,0.0030642955098301172,0.04421961307525635,1.0034953355789185,-2.940692186355591,-6.3570756912231445,-1.3038076162338257,1.9943594932556152,4.005527019500732,0.3177821636199951,0.1353389173746109,-0.1395428329706192,2.3549656867980957
147,21831,21826,-0.026529068127274513,-0.010913281701505184,1.014296054840088,-1.9880584478378296,-4.67124080657959,-1.028769850730896,1.9954689741134644,4.004968166351318,0.31759539246559143,0.18435633182525635,-0.12165848165750504,2.3401451110839844
148,21841,21836,-0.046021927148103714,0.06332113593816757,1.008583664894104,-2.021528482437134,-2.0733518600463867,-1.03524649143219,1.9964172840118408,4.005039691925049,0.31742623448371887,0.23113089799880981,-0.16454605758190155,2.3335840702056885
149,21851,21846,-0.012929064221680164,0.10477254539728165,1.0087209939956665,-1.4388328790664673,1.206826090812683,-0.7417343258857727,1.9969987869262695,4.002540588378906,0.3181552290916443,0.2076684981584549,-0.1276213526725769,2.3183202743530273
150,21861,21856,0.034528542309999466,0.06358171254396439,1.0070223808288574,-1.3489623069763184,2.9668548107147217,-0.705527126789093,1.998172402381897,4.002128601074219,0.31810498237609863,0.20468588173389435,-0.1820726990699768,2.3143553733825684
151,21871,21866,-0.040895603597164154,-0.0066991145722568035,1.0761256217956543,-0.4302242398262024,2.9816091060638428,-0.7972061038017273,1.998416543006897,4.002190113067627,0.31809136271476746,0.2013220489025116,-0.22463783621788025,2.3085875511169434
152,21881,21876,-0.04885304719209671,-0.07416468113660812,1.0251061916351318,-0.06019527092576027,2.54476261138916,-1.081413984298706,1.9997859001159668,4.002241611480713,0.3180389702320099,0.1488194316625595,-0.24357840418815613,2.3029255867004395
153,21891,21886,-0.03436668589711189,-0.03294188529253006,1.0286904573440552,0.25376632809638977,2.7244551181793213,-1.0965298414230347,2.000330924987793,4.001441478729248,0.3177378177642822,0.13111130893230438,-0.18018224835395813,2.2840781211853027
154,21901,21896,0.00689940620213747,0.05960594117641449,1.008302927017212,0.9061588048934937,1.7030442953109741,-0.4556810259819031,1.9999973773956299,4.000321865081787,0.3179214298725128,0.216034933924675,-0.11267513036727905,2.265380859375
155,21911,21906,0.024623529985547066,-0.08688270300626755,1.0101526975631714,0.7793764472007751,0.57655930519104,-0.5421274900436401,2.0009164810180664,4.000673770904541,0.3180268108844757,0.20018161833286285,-0.12401775270700455,2.262295961380005
156,21921,21916,0.014146766625344753,-0.0899643748998642,0.9860227108001709,1.4348485469818115,-0.08201970160007477,-0.6256267428398132,2.001467704772949,4.000410556793213,0.31565460562705994,0.13697755336761475,-0.12842731177806854,2.2633750438690186
157,21931,21926,-0.050619736313819885,-0.008218826726078987,0.9920331835746765,0.9077277779579163,-0.6419823169708252,-0.6979964971542358,2.001094341278076,4.000176429748535,0.31571105122566223,0.26532089710235596,-0.12806235253810883,2.2493960857391357
158,21941,21936,-0.018831923604011536,-0.019342239946126938,0.9879299998283386,-0.7279465198516846,0.7331948280334473,-0.570991039276123,2.001713514328003,3.9994099140167236,0.3156575858592987,0.2781447172164917,-0.14057205617427826,2.2447896003723145
159,21951,21946,-0.007322679273784161,-0.005418373271822929,0.9951915740966797,-1.5472475290298462,2.8970847129821777,-0.8316391110420227,2.001222610473633,3.99810528755188,0.3154442310333252,0.3371346890926361,-0.17083166539669037,2.2325592041015625
160,21961,21956,0.015863170847296715,-0.03201739862561226,1.0061407089233398,-2.08341646194458,4.787789344787598,-0.5906672477722168,2.002960681915283,3.9984753131866455,0.31536224484443665,0.20465220510959625,-0.2175309807062149,2.235626220703125
161,21971,21966,-0.03305680304765701,0.031369104981422424,1.0406397581100464,-2.0142335891723633,6.590590476989746,-0.8384739756584167,2.003843307495117,3.9976248741149902,0.31529268622398376,0.0835607573390007,-0.18346954882144928,2.225113868713379
162,21981,21976,-0.010887157171964645,0.002664177445694804,1.0259274244308472,-0.9075585007667542,6.567689418792725,-0.6127274632453918,2.004868984222412,3.9976541996002197,0.3158157169818878,-0.010801133699715137,-0.22232379019260406,2.2232894897460938
163,21991,21986,0.036909401416778564,-0.08162674307823181,0.9872251749038696,-0.8231788873672485,4.994797706604004,-0.7170383930206299,2.005323886871338,3.997720241546631,0.3158709406852722,-0.01981380023062229,-0.25680267810821533,2.2153143882751465
164,22001,21996,-0.026756731793284416,-0.0017238928703591228,1.0429821014404297,0.3673546612262726,3.414886713027954,-1.1249061822891235,2.0064194202423096,3.997758626937866,0.3158904016017914,-0.07696915417909622,-0.27496859431266785,2.209540843963623
165,22011,22006,0.00439357478171587,-0.005565342027693987,1.0475611686706543,2.2487239837646484,0.7999939322471619,-1.0253231525421143,2.0074310302734375,3.997868061065674,0.31595686078071594,-0.1397978961467743,-0.26489099860191345,2.2066361904144287
166,22021,22016,-0.06650688499212265,0.03603223338723183,1.1316460371017456,3.703730583190918,-0.8392468094825745,-0.808018147945404,2.006932020187378,3.9968936443328857,0.3129759430885315,0.02216685190796852,-0.14450830221176147,2.1768078804016113
167,22031,22026,-0.0877208560705185,0.08610590547323227,1.0317155122756958,3.55176043510437,-1.2702550888061523,-0.5802278518676758,2.007969856262207,3.9971721172332764,0.3129258453845978,0.019194072112441063,-0.16122257709503174,2.177938461303711
168,22041,22036,-0.09383663535118103,0.14518387615680695,0.9344417452812195,3.2536673545837402,0.016487959772348404,-0.47764310240745544,2.0074665546417236,3.9964067935943604,0.3130524158477783,0.12091054767370224,-0.0937180370092392,2.1601145267486572
169,22051,22046,-0.07054731994867325,0.18955038487911224,0.949008047580719,0.2966848313808441,2.470155715942383,-0.5426856279373169,2.008570432662964,3.996274709701538,0.31642815470695496,0.08563593029975891,-0.0722656100988388,2.15497088432312
170,22061,22056,-0.017943060025572777,0.057197075337171555,1.015152931213379,-1.4835518598556519,4.6557297706604,-1.0612616539001465,2.0090367794036865,3.9964988231658936,0.31670013070106506,0.10856983065605164,-0.09581956267356873,2.1448938846588135
171,22071,22066,-0.06541460752487183,0.016801752150058746,1.1179618835449219,-3.173184394836426,5.200869083404541,-1.530440330505371,2.009861946105957,3.9982492923736572,0.3168993294239044,-0.01514536514878273,-0.30405205488204956,2.1599361896514893
172,22081,22076,-0.033047229051589966,-0.03197276592254639,1.0811612606048584,-3.008300304412842,3.02384352684021,-0.68919438123703,2.0111186504364014,3.9967751502990723,0.31380581855773926,-0.09277889877557755,-0.20522986352443695,2.1329727172851562
173,22091,22086,-0.09274882823228836,0.034783028066158295,1.0717395544052124,0.5111005306243896,5.794816970825195,-0.5070301294326782,2.01129412651062,3.9968245029449463,0.3139628469944,-0.07239855080842972,-0.22369152307510376,2.121701717376709
174,22101,22096,-0.07658863812685013,0.21841466426849365,1.0100665092468262,2.3592031002044678,7.53127384185791,-0.570685088634491,2.011624813079834,3.9951696395874023,0.31421688199043274,-0.12011002749204636,-0.12671300768852234,2.0997025966644287
175,22111,22106,0.027505358681082726,0.2627437114715576,0.897666335105896,3.1317481994628906,4.173388481140137,-0.5309498906135559,2.0124738216400146,3.994675397872925,0.3144983947277069,-0.18535977602005005,-0.08921432495117188,2.0849545001983643
176,22121,22116,0.04524916782975197,0.00905371643602848,0.9371311664581299,2.037660837173462,2.246109962463379,-0.39906033873558044,2.0140299797058105,3.994562864303589,0.31618738174438477,-0.3074495792388916,-0.05600248649716377,2.07905912399292
177,22131,22126,-0.018400046974420547,-0.013436177745461464,1.0286836624145508,1.7615047693252563,0.17745175957679749,-0.19193224608898163,2.014173746109009,3.9937314987182617,0.31650620698928833,-0.2460426688194275,-0.04838770627975464,2.0695481300354004
178,22141,22136,-0.05055217072367668,-0.01019444689154625,1.001846432685852,-0.8611201047897339,-0.9782459139823914,-0.16621679067611694,2.0168139934539795,3.994474411010742,0.3165207803249359,-0.4600619971752167,-0.04431912675499916,2.0788378715515137
179,22151,22146,-0.02112649194896221,0.0328621044754982,0.956635057926178,-1.91401207447052,-1.898884892463684,-0.10880369693040848,2.016592502593994,3.993551731109619,0.3183600902557373,-0.34376803040504456,-0.06816613674163818,2.0660529136657715
180,22161,22156,0.003409881377592683,0.023532599210739136,0.966776967048645,-1.537887454032898,-5.404499053955078,-0.3557296395301819,2.017730236053467,3.992577314376831,0.31859809160232544,-0.35230958461761475,-0.03534833341836929,2.0634605884552
181,22171,22166,-0.06364107877016068,0.03671794384717941,0.9875686764717102,-1.9806309938430786,-4.37977409362793,-0.018573934212327003,2.0191612243652344,3.992279291152954,0.3188399374485016,-0.3352128863334656,-0.08208789676427841,2.064511775970459
182,22181,22176,0.04807635024189949,-0.11483235657215118,0.9516765475273132,-1.8557770252227783,-3.7859644889831543,-0.24712705612182617,2.0195205211639404,3.992408514022827,0.3204934895038605,-0.19144079089164734,-0.12888595461845398,2.0533711910247803
183,22191,22186,0.00785878673195839,-0.040212664753198624,1.00777268409729,-1.0167598724365234,-3.4422245025634766,-0.3443584740161896,2.020315408706665,3.9918859004974365,0.32074782252311707,-0.19649825990200043,-0.16878584027290344,2.0529537200927734
184,22201,22196,-0.011826806701719761,0.0013101971708238125,0.9846152067184448,0.2302553951740265,-2.243453025817871,-0.10777413100004196,2.021592855453491,3.9919214248657227,0.3209773898124695,-0.18842248618602753,-0.18280339241027832,2.054598808288574
185,22211,22206,0.015681803226470947,-0.051910508424043655,0.9642916917800903,1.3688206672668457,-0.02678508684039116,-0.2655426859855652,2.0224671363830566,3.991886615753174,0.3212220370769501,-0.17995019257068634,-0.1840880960226059,2.0537407398223877
186,22221,22216,0.07777457684278488,-0.15124695003032684,0.9531956911087036,2.4407570362091064,-0.3724861145019531,-0.3145798146724701,2.0232961177825928,3.991785764694214,0.32033130526542664,-0.15225043892860413,-0.1617545783519745,2.0544214248657227
187,22231,22226,0.043356798589229584,-0.18040518462657928,1.003388524055481,2.6551120281219482,0.2949689030647278,-0.45391541719436646,2.02468204498291,3.991698980331421,0.3204280138015747,-0.17662058770656586,-0.125404953956604,2.055572748184204
188,22241,22236,-0.0065767704509198666,-0.11406605690717697,1.0418347120285034,1.7858080863952637,0.6045401096343994,-0.34331029653549194,2.0252692699432373,3.990888833999634,0.32055407762527466,-0.2004605382680893,-0.014039246365427971,2.057123899459839
189,22251,22246,0.025425603613257408,-0.06771238148212433,0.964221715927124,0.6563110947608948,0.39275580644607544,-0.1215178519487381,2.02523136138916,3.9907538890838623,0.3180234432220459,-0.11481135338544846,-0.0076049501076340675,2.050046443939209
190,22261,22256,-0.05385303124785423,0.09108532220125198,0.9451804161071777,-0.8493877649307251,-0.00662275729700923,-0.3291776478290558,2.025925874710083,3.990429162979126,0.3179844617843628,-0.08690312504768372,-0.006068346556276083,2.0439882278442383
191,22271,22266,-0.07684721052646637,0.17113928496837616,0.9119219779968262,-2.3945751190185547,-1.452396035194397,0.3584167957305908,2.0270731449127197,3.989767074584961,0.31788745522499084,-0.1525258868932724,-0.037716273218393326,2.0373568534851074
192,22281,22276,-0.014290510676801205,-0.10285922884941101,1.019177794456482,-2.768278121948242,-1.910609245300293,0.056002289056777954,2.0282833576202393,3.9900267124176025,0.3150964379310608,-0.14085152745246887,-0.10759734362363815,2.043891191482544
193,22291,22286,0.019826160743832588,-0.17428326606750488,1.0616512298583984,-2.4207162857055664,1.6839370727539062,-0.7998672723770142,2.0275652408599854,3.9900686740875244,0.31488037109375,-0.03984652832150459,-0.16850478947162628,2.037698268890381
194,22301,22296,-0.013350358232855797,-0.05196904018521309,1.0283308029174805,-2.193321704864502,0.5395813584327698,-0.4767589271068573,2.0285933017730713,3.9903500080108643,0.314603716135025,-0.013184769079089165,-0.2154133915901184,2.030818223953247
195,22311,22306,-0.059577763080596924,0.03693592548370361,1.0711926221847534,-1.1976865530014038,0.680759072303772,0.18725836277008057,2.0297739505767822,3.9902942180633545,0.31281763315200806,-0.051972001791000366,-0.2481003701686859,2.0292553901672363
196,22321,22316,-0.05935434624552727,0.10397836565971375,0.9901690483093262,1.0939080715179443,-0.5862900018692017,0.4969139099121094,2.0302209854125977,3.9895505905151367,0.3125171363353729,-0.04825626313686371,-0.23792077600955963,2.020481824874878
197,22331,22326,-0.012429769150912762,0.044101517647504807,0.97962486743927,3.84051775932312,-1.8818585872650146,0.7113456130027771,2.031489372253418,3.988699197769165,0.3122485876083374,-0.08695109188556671,-0.10412473976612091,2.018012046813965
198,22341,22336,0.019328169524669647,-0.0014470343012362719,0.9955567121505737,5.185476779937744,2.102159023284912,0.22714389860630035,2.0320708751678467,3.9883782863616943,0.31204819679260254,-0.06709641963243484,-0.03224323317408562,2.016230821609497
199,22351,22346,0.04585562273859978,-0.06613824516534805,1.0448426008224487,2.8644185066223145,1.995834469795227,0.6523267030715942,2.0330896377563477,3.9878969192504883,0.31068775057792664,-0.10393649339675903,0.011131102219223976,2.027653455734253
200,22361,22356,0.050196222960948944,-0.13215377926826477,1.0495704412460327,-0.822583019733429,0.1999640017747879,0.7852015495300293,2.0339245796203613,3.9894063472747803,0.31041014194488525,-0.10337190330028534,-0.05160798877477646,2.0404770374298096
201,22371,22366,-0.0009462046436965466,-0.09840302914381027,1.080147624015808,-1.5993198156356812,-0.009088756516575813,0.6291842460632324,2.0363690853118896,3.9893252849578857,0.31002572178840637,-0.235478475689888,-0.06753779947757721,2.0575592517852783
202,22381,22376,0.03891026973724365,-0.023372812196612358,0.9236401915550232,-2.446922540664673,0.7843687534332275,0.09411047399044037,2.0373334884643555,3.989816188812256,0.3114052414894104,-0.17107875645160675,-0.09482155740261078,2.0568511486053467
203,22391,22386,0.059713512659072876,0.06333713233470917,0.9486052989959717,-2.469053268432617,-0.8601909875869751,-0.37720274925231934,2.038973331451416,3.989637613296509,0.31119677424430847,-0.2918725609779358,-0.13811957836151123,2.0547995567321777
204,22401,22396,0.07837667316198349,-0.0887882262468338,1.02125883102417,-1.8878306150436401,-2.309149980545044,0.22951658070087433,2.0400919914245605,3.989081382751465,0.3110477030277252,-0.2683774530887604,-0.11615357547998428,2.045370578765869
205,22411,22406,0.030811553820967674,-0.07207797467708588,1.0276402235031128,0.153169184923172,-4.730837345123291,0.13384345173835754,2.040165901184082,3.9886505603790283,0.3130203187465668,-0.17595627903938293,-0.13650135695934296,2.045247793197632
206,22421,22416,-0.002927178982645273,-0.009863919578492641,1.0131361484527588,2.0914461612701416,-5.8139967918396,0.5464264750480652,2.04093599319458,3.987849473953247,0.31298962235450745,-0.12545336782932281,-0.11254103481769562,2.0311882495880127
207,22431,22426,0.01764703541994095,-0.028252411633729935,0.9854639172554016,2.664081573486328,-4.653681755065918,0.6980614066123962,2.0422542095184326,3.987360954284668,0.31295379996299744,-0.09730228781700134,-0.08038515597581863,2.0377538204193115
208,22441,22436,0.06130995228886604,-0.021447136998176575,1.0059760808944702,2.599351406097412,-3.2757060527801514,1.0836941003799438,2.0430796146392822,3.9869439601898193,0.31295856833457947,-0.054588280618190765,-0.047770291566848755,2.0453670024871826
209,22451,22446,0.025042185559868813,-0.03543059155344963,1.0142219066619873,1.262583613395691,-2.3505964279174805,1.0622144937515259,2.045175075531006,3.9866106510162354,0.31144630908966064,-0.1372946947813034,-0.022701416164636612,2.050837516784668
210,22461,22456,0.007663256488740444,-0.1183234453201294,1.0115845203399658,0.7856727242469788,-1.919299602508545,1.3518929481506348,2.045337677001953,3.986332654953003,0.31141987442970276,-0.06076129898428917,-0.011909526772797108,2.067145586013794
211,22471,22466,0.020320776849985123,-0.09301691502332687,0.9900050163269043,-0.32273179292678833,-1.8783963918685913,0.6343743205070496,2.0458779335021973,3.985687732696533,0.31141167879104614,-0.0004119071236345917,-0.009193867444992065,2.0681283473968506
212,22481,22476,0.0745898187160492,-0.05540831759572029,0.9628979563713074,-1.0254297256469727,-1.9828884601593018,0.6795384883880615,2.0457847118377686,3.9865241050720215,0.310240238904953,0.12213002145290375,-0.10631048679351807,2.0667431354522705
213,22491,22486,0.005375787615776062,0.008249573409557343,0.994290292263031,-1.3532401323318481,-1.1744883060455322,0.6395642161369324,2.0477774143218994,3.984231472015381,0.31004124879837036,-0.009343019686639309,0.028869744390249252,2.059203624725342
214,22501,22496,-0.006284978240728378,-0.11337712407112122,1.003884196281433,-1.6518105268478394,-0.22224053740501404,0.6314954161643982,2.0489814281463623,3.9843664169311523,0.3099195957183838,0.018154535442590714,-0.009279662743210793,2.066110134124756
215,22511,22506,0.0038735023699700832,-0.17674994468688965,0.9682271480560303,-1.5744798183441162,-0.15625940263271332,0.87031090259552,2.049604654312134,3.9844765663146973,0.3085101842880249,0.04902061074972153,-0.04799443110823631,2.0710179805755615
216,22521,22516,0.030416980385780334,-0.11982022225856781,0.9636644721031189,-1.1978678703308105,-0.8440568447113037,0.5642432570457458,2.0510263442993164,3.9845709800720215,0.30823805928230286,-0.0013341479934751987,-0.0772596001625061,2.0846750736236572
217,22531,22526,0.08115657418966293,-0.12610670924186707,1.0188075304031372,-0.8392772674560547,-1.0688050985336304,0.7092956900596619,2.051637649536133,3.984853506088257,0.3080134987831116,0.04849645495414734,-0.10931798815727234,2.094939947128296
218,22541,22536,0.09154487401247025,-0.16529422998428345,1.0166624784469604,0.07802458852529526,-0.8467950224876404,0.5454730987548828,2.052445888519287,3.984095811843872,0.3078016936779022,0.09998323768377304,-0.12078218907117844,2.0889992713928223
219,22551,22546,0.011857373639941216,-0.1500772386789322,1.018427848815918,1.044816255569458,-0.026109270751476288,0.187221959233284,2.053232192993164,3.9841270446777344,0.30974245071411133,0.1291344314813614,-0.11204729974269867,2.0822653770446777
220,22561,22556,0.016634777188301086,-0.07167030870914459,0.9806787371635437,1.6008033752441406,0.08439796417951584,-0.3010622262954712,2.053690195083618,3.984644889831543,0.3096781373023987,0.14546874165534973,-0.1763489544391632,2.0767364501953125
221,22571,22566,0.003496199380606413,0.0429169200360775,1.0433655977249146,2.430739402770996,1.7289689779281616,-1.116265892982483,2.0540287494659424,3.9833526611328125,0.30962681770324707,0.1468929648399353,-0.14144796133041382,2.050886392593384
222,22581,22576,-0.0641525462269783,0.13527023792266846,1.0255775451660156,2.0847151279449463,0.9573394060134888,0.19945505261421204,2.054778814315796,3.9829494953155518,0.3103523552417755,0.14124567806720734,-0.10268532484769821,2.049506425857544
223,22591,22586,0.03479038551449776,-0.029608700424432755,0.9645801782608032,2.341341972351074,0.5756930112838745,0.4652245342731476,2.0542643070220947,3.9810950756073,0.31039920449256897,0.22444576025009155,-0.06493521481752396,2.0271847248077393
224,22601,22596,-0.00466366671025753,-0.013332923874258995,1.0638827085494995,1.783625841140747,3.8239736557006836,0.3339283764362335,2.0565996170043945,3.981031894683838,0.3103097975254059,0.021634014323353767,-0.023142293095588684,2.0252223014831543
225,22611,22606,-0.0004872430581599474,0.013479922898113728,1.019726037979126,1.549256443977356,4.6036834716796875,-0.06305345892906189,2.0562784671783447,3.980522871017456,0.3092295527458191,0.04703667759895325,0.00728070130571723,2.029311418533325
226,22621,22616,0.03047308325767517,-0.005246717482805252,0.9487226009368896,0.19069276750087738,2.721215009689331,-0.391907274723053,2.0574235916137695,3.981168031692505,0.3091851770877838,0.000927426153793931,-0.0619572214782238,2.031951904296875
227,22631,22626,-0.017620785161852837,0.005432082340121269,1.0276833772659302,-0.06446734815835953,1.1956263780593872,-0.6201337575912476,2.0590145587921143,3.9809012413024902,0.30904778838157654,-0.10199353843927383,-0.05451567843556404,2.0253689289093018
228,22641,22636,0.01323090959340334,-0.03680930286645889,0.9852725267410278,0.9778052568435669,-0.18983811140060425,-0.7288402318954468,2.0600078105926514,3.9815592765808105,0.30898576974868774,-0.09521099925041199,-0.11800774931907654,2.021993637084961
229,22651,22646,-0.0004930530558340251,-0.0032271367963403463,1.019479513168335,1.123104453086853,0.3840107321739197,-0.4709443151950836,2.060812473297119,3.9812073707580566,0.3085959255695343,-0.07343623042106628,-0.08998969197273254,2.0164339542388916
230,22661,22656,0.05786804109811783,-0.12024734914302826,1.0128705501556396,3.0186071395874023,-2.0947961807250977,-0.8220856189727783,2.0604889392852783,3.9809305667877197,0.30860334634780884,-0.02319290302693844,-0.037736959755420685,1.9977947473526
231,22671,22666,0.004212285857647657,0.003002190962433815,1.031540870666504,4.059053421020508,-6.99935245513916,-0.03635890781879425,2.060406446456909,3.980264186859131,0.3086588382720947,0.12414990365505219,0.03633760288357735,1.9899526834487915
232,22681,22676,-0.003017400624230504,-0.15796487033367157,1.11299467086792,4.272548675537109,-0.47547686100006104,-0.8627040982246399,2.061316967010498,3.980137586593628,0.3090806305408478,0.18515953421592712,0.10646059364080429,1.9864400625228882
233,22691,22686,-0.021922621876001358,-0.07328055799007416,1.0594720840454102,2.7721669673919678,3.729755401611328,-0.6933503150939941,2.061800956726074,3.979335308074951,0.3091523349285126,0.15319539606571198,0.1693323701620102,1.9593137502670288
234,22701,22696,-0.016177210956811905,-0.00743092130869627,1.0150882005691528,0.7147203683853149,7.317591667175293,-0.742756187915802,2.062943935394287,3.978992462158203,0.30930304527282715,0.12485897541046143,0.18393006920814514,1.950191617012024
235,22711,22706,0.004866888280957937,0.018612943589687347,0.9899469614028931,-1.6388061046600342,9.068659782409668,-0.850029706954956,2.0631160736083984,3.9793894290924072,0.3076038956642151,0.07498688995838165,0.11401110887527466,1.9464415311813354
236,22721,22716,-0.058979347348213196,0.0625646635890007,1.1083413362503052,-2.9072680473327637,7.542730808258057,-0.843848466873169,2.0645828247070312,3.979597330093384,0.30765894055366516,-0.06811931729316711,0.08338316529989243,1.9465664625167847
237,22731,22726,-0.041918471455574036,-0.021600710228085518,1.1014341115951538,-2.3769829273223877,4.764556407928467,-1.2787994146347046,2.0648510456085205,3.9800832271575928,0.3078503906726837,-0.072945736348629,0.03545115888118744,1.93915593624115
238,22741,22736,-0.016820073127746582,-0.009250779636204243,1.0354317426681519,0.34388312697410583,2.9849605560302734,-0.6861044764518738,2.0667779445648193,3.980698347091675,0.30764487385749817,-0.21748489141464233,-0.07405650615692139,1.9378615617752075
239,22751,22746,-0.02398482896387577,0.14522907137870789,0.9977684020996094,2.8668339252471924,0.7413262724876404,-1.0076234340667725,2.0672390460968018,3.9808402061462402,0.3079594075679779,-0.18881456553936005,-0.054179612547159195,1.9291069507598877
