,timestamp_start,timestamp_end,acc.x,acc.y,acc.z,gyro.x,gyro.y,gyro.z,stateEstimate.x,stateEstimate.y,stateEstimate.z,stabilizer.pitch,stabilizer.roll,stabilizer.yaw
0,16625,16613,0.016571952030062675,0.02766057476401329,0.8413209915161133,17.317026138305664,-16.405597686767578,-10.628125190734863,0.5963665246963501,0.5258708596229553,0.19080355763435364,-3.3712754249572754,2.6980702877044678,5.674521446228027
1,16635,16623,-0.15790152549743652,0.08404841274023056,0.8630013465881348,2.168795585632324,-15.480644226074219,-10.219157218933105,0.5956326723098755,0.5245852470397949,0.184666708111763,-3.322218418121338,2.84122371673584,5.530141830444336
2,16645,16633,-0.04902772232890129,0.0017851239535957575,0.864429771900177,-11.785208702087402,-11.063504219055176,-9.473411560058594,0.5941279530525208,0.5257611870765686,0.18525910377502441,-3.433040142059326,2.807817220687866,5.329781532287598
3,16655,16643,0.026986422017216682,-0.012985642068088055,0.898480236530304,-23.562725067138672,-7.680670738220215,-9.325411796569824,0.5933700203895569,0.5259622931480408,0.1855950802564621,-3.3446898460388184,2.7148492336273193,5.247599124908447
4,16665,16653,-0.03629465028643608,0.09762125462293625,0.9051148295402527,-29.351015090942383,-3.932115316390991,-8.755242347717285,0.5949249863624573,0.5263270139694214,0.1797315925359726,-3.3770058155059814,2.3708715438842773,5.05416202545166
5,16675,16663,-0.010522120632231236,0.059498101472854614,1.0251466035842896,-28.16884422302246,-2.277468204498291,-8.989319801330566,0.5937792658805847,0.5261766314506531,0.17941264808177948,-3.352548122406006,1.9954646825790405,4.904465198516846
6,16685,16673,0.031001297757029533,0.016515981405973434,0.9765517711639404,-19.489547729492188,-3.1629488468170166,-8.56358814239502,0.5934647917747498,0.5269749760627747,0.17915549874305725,-3.25496244430542,1.8656054735183716,4.945101737976074
7,16695,16683,0.009482663124799728,0.05153055861592293,1.0749833583831787,-7.001140594482422,-5.879938125610352,-8.797645568847656,0.5929051637649536,0.52772456407547,0.17391929030418396,-3.3434720039367676,1.7283076047897339,4.857455253601074
8,16705,16693,-0.00386411021463573,0.027278074994683266,1.0820286273956299,4.548472881317139,-9.228506088256836,-7.998077392578125,0.5912392139434814,0.5267904996871948,0.1734568327665329,-3.3604700565338135,1.701310157775879,4.775047779083252
9,16715,16703,0.030420228838920593,0.11683977395296097,1.047415018081665,10.20997428894043,-14.354063987731934,-7.005012512207031,0.5914334058761597,0.5264836549758911,0.17301227152347565,-3.2927610874176025,1.8113185167312622,4.733224868774414
10,16725,16713,0.0029466780833899975,0.05534323677420616,1.148184061050415,9.870108604431152,-18.38752555847168,-6.257796287536621,0.5913282632827759,0.5261961221694946,0.1725538671016693,-3.1260197162628174,1.9527764320373535,4.695093631744385
11,16735,16723,0.009897323325276375,0.0051933228969573975,1.1325311660766602,2.5656256675720215,-22.0949649810791,-6.473042964935303,0.5910087823867798,0.5256873369216919,0.16940753161907196,-2.9582314491271973,2.0156404972076416,4.606687068939209
12,16745,16733,0.00479411194100976,0.002193911699578166,1.1385420560836792,-7.347601413726807,-24.139867782592773,-6.083392143249512,0.5902926325798035,0.525189995765686,0.16902495920658112,-2.9474685192108154,2.007154703140259,4.4779157638549805
13,16755,16743,-0.009361663833260536,0.01826203614473343,1.1620314121246338,-17.25434112548828,-23.187549591064453,-5.403176784515381,0.5899820327758789,0.5250868797302246,0.16884906589984894,-2.600287914276123,1.7580583095550537,4.3218994140625
14,16765,16753,0.021309232339262962,0.03416389599442482,1.137863278388977,-21.761486053466797,-21.981155395507812,-5.3453874588012695,0.5914339423179626,0.5250616073608398,0.16565556824207306,-2.71048903465271,1.6341227293014526,4.227118015289307
15,16775,16763,0.02846863865852356,-0.00424339110031724,1.1328437328338623,-22.10153579711914,-21.758953094482422,-4.903421401977539,0.5902794599533081,0.5259088277816772,0.16591744124889374,-2.5472636222839355,1.4473341703414917,4.183767795562744
16,16785,16773,-0.002329304814338684,0.0057974765077233315,1.175817847251892,-17.28882598876953,-20.97181510925293,-4.665429592132568,0.592858076095581,0.5254375338554382,0.16593530774116516,-2.303842782974243,1.1414740085601807,4.08142614364624
17,16795,16783,-0.028289858251810074,0.061280932277441025,1.241288185119629,-9.59804916381836,-21.542421340942383,-4.284623622894287,0.5934484601020813,0.525036633014679,0.16420124471187592,-2.2794251441955566,1.171736240386963,4.1195549964904785
18,16805,16793,0.028720255941152573,0.026286425068974495,1.2747960090637207,-1.550847053527832,-24.345243453979492,-2.945794105529785,0.5934662222862244,0.5253881216049194,0.16465628147125244,-2.0379478931427,1.073828101158142,4.072739601135254
19,16815,16803,0.021145498380064964,-0.002768657635897398,1.216689944267273,4.085872650146484,-28.015722274780273,-2.6987879276275635,0.595197319984436,0.5238872170448303,0.16496895253658295,-1.6817594766616821,1.0289705991744995,4.023333549499512
20,16825,16813,-0.010946533642709255,0.11147694289684296,1.1461477279663086,5.097995758056641,-33.3466796875,-1.8023760318756104,0.5955367088317871,0.5235830545425415,0.16520245373249054,-1.6835569143295288,1.1813654899597168,4.017374515533447
21,16835,16823,0.009977389127016068,0.034470587968826294,1.1483078002929688,2.7590389251708984,-33.86359786987305,-1.7323825359344482,0.5951720476150513,0.5234628319740295,0.16640588641166687,-1.2261080741882324,1.1565001010894775,3.9704031944274902
22,16845,16833,0.0062483218498528,0.02633294276893139,1.177303671836853,-4.26667594909668,-33.3270263671875,-1.5405292510986328,0.5978280901908875,0.5224359035491943,0.16715526580810547,-0.8547815084457397,1.136396050453186,3.9348855018615723
23,16855,16843,-0.01788349635899067,0.02394511178135872,1.1731094121932983,-10.859294891357422,-30.232954025268555,-2.0128650665283203,0.5976927876472473,0.5223758816719055,0.16890768706798553,-0.9426352381706238,1.1572890281677246,3.907008409500122
24,16865,16853,-0.014745497144758701,0.010082689113914967,1.1614218950271606,-17.002506256103516,-24.124425888061523,-2.2260332107543945,0.5980597138404846,0.5221998691558838,0.16940686106681824,-0.5304164290428162,1.0527421236038208,3.8947551250457764
25,16875,16863,0.03429924324154854,-0.018401777371764183,1.0790389776229858,-19.74608612060547,-19.548599243164062,-1.7083065509796143,0.601784348487854,0.5214547514915466,0.1706065684556961,-0.5157977938652039,0.8720939755439758,3.855281352996826
26,16885,16873,0.02301124483346939,0.07799667119979858,1.1821706295013428,-19.93183135986328,-19.67188835144043,-1.682841420173645,0.6020557880401611,0.5207894444465637,0.17263656854629517,-0.2133762389421463,0.5961847305297852,3.815279483795166
27,16895,16883,-0.01633325219154358,0.04959941282868385,1.1364856958389282,-18.266559600830078,-22.410551071166992,-2.601652145385742,0.604495644569397,0.5204707384109497,0.17284299433231354,0.08996488153934479,0.3396954834461212,3.785876750946045
28,16905,16893,0.015754086896777153,0.07709021866321564,1.1167782545089722,-16.339332580566406,-29.064292907714844,-2.5949134826660156,0.6049355864524841,0.5204665660858154,0.175094872713089,0.033614885061979294,0.1869536191225052,3.7632462978363037
29,16915,16903,0.04507444053888321,0.017389468848705292,1.1278218030929565,-12.333335876464844,-31.044130325317383,-2.9936394691467285,0.605266809463501,0.5203749537467957,0.17734457552433014,0.37444111704826355,0.08064004778862,3.743077039718628
30,16925,16913,-0.02024904638528824,0.028973659500479698,1.1508408784866333,-7.41682243347168,-31.666196823120117,-3.3406004905700684,0.6082271337509155,0.5199636816978455,0.17735344171524048,0.872085452079773,-0.02946365997195244,3.7082788944244385
31,16935,16923,-0.025356262922286987,0.014669563621282578,1.1107182502746582,-4.745402812957764,-31.46880531311035,-2.906020164489746,0.6091775298118591,0.519127368927002,0.17959342896938324,0.8451529145240784,-0.21740427613258362,3.684401035308838
32,16945,16933,0.005406948272138834,0.0024168596137315035,1.0663634538650513,-3.1505239009857178,-26.243846893310547,-2.5666286945343018,0.6090763807296753,0.5185041427612305,0.18219855427742004,1.323243498802185,-0.2837175130844116,3.645782232284546
33,16955,16943,0.023390520364046097,0.03388925641775131,1.0679805278778076,0.14486025273799896,-19.010530471801758,-2.645601511001587,0.6125628352165222,0.5190958976745605,0.18449142575263977,1.3147716522216797,-0.30900275707244873,3.6444180011749268
34,16965,16953,-0.018427714705467224,0.05892084911465645,1.0685447454452515,3.9730465412139893,-10.548465728759766,-2.5462262630462646,0.6126264929771423,0.5188077092170715,0.18669426441192627,1.427228569984436,-0.27340781688690186,3.6248819828033447
35,16975,16963,-0.045088183134794235,0.12045548856258392,1.0991798639297485,7.317910671234131,-4.2788567543029785,-3.199246406555176,0.6156800985336304,0.5185885429382324,0.18896517157554626,1.7056115865707397,-0.17775242030620575,3.5743775367736816
36,16985,16973,0.005538182333111763,0.05952318385243416,1.0392869710922241,9.775256156921387,-2.3075051307678223,-3.2596933841705322,0.6175631284713745,0.518073320388794,0.19134484231472015,1.7397923469543457,0.10257961601018906,3.520169496536255
37,16995,16983,-0.014613269828259945,0.04707929491996765,1.0784857273101807,10.140800476074219,-2.9941344261169434,-3.238402843475342,0.6178210973739624,0.5171507596969604,0.19584724307060242,1.6103357076644897,0.16675488650798798,3.5107784271240234
38,17005,16993,0.004017057828605175,-0.013164011761546135,1.005164623260498,5.4481024742126465,-6.13189697265625,-2.612420082092285,0.6191861629486084,0.5151392817497253,0.19846415519714355,1.6707078218460083,0.2765587270259857,3.4739274978637695
39,17015,17003,0.039671920239925385,-0.009617962874472141,0.9327894449234009,-1.0598288774490356,-11.888054847717285,-2.103213310241699,0.6215174794197083,0.5149034857749939,0.20112401247024536,1.9354119300842285,0.22682976722717285,3.444427967071533
40,17025,17013,0.013572726398706436,0.05448994040489197,1.0031869411468506,-7.5334954261779785,-17.264577865600586,-1.5829954147338867,0.62276691198349,0.5141552090644836,0.20527903735637665,1.978136420249939,0.23293550312519073,3.432539939880371
41,17035,17023,-0.047231532633304596,0.06636602431535721,1.003510594367981,-11.483206748962402,-17.664213180541992,-0.8350631594657898,0.6224991679191589,0.5142526626586914,0.20847955346107483,2.1448450088500977,-0.0011493336642161012,3.4535765647888184
42,17045,17033,0.018999429419636726,-0.013827662914991379,0.95234614610672,-8.830913543701172,-13.004888534545898,0.3171141743659973,0.6242497563362122,0.5136617422103882,0.21125975251197815,2.19905161857605,-0.16264474391937256,3.4701640605926514
43,17055,17043,0.007070707157254219,0.034041162580251694,0.9402744770050049,-2.176039934158325,-7.720869064331055,1.172594666481018,0.6253374218940735,0.514456033706665,0.21423138678073883,2.401866912841797,-0.2473229467868805,3.464561939239502
44,17065,17053,-0.016853906214237213,0.1258564442396164,1.0266988277435303,3.692249059677124,-3.8949921131134033,1.859848141670227,0.6271364688873291,0.5146441459655762,0.21433202922344208,2.5096724033355713,-0.22435101866722107,3.461711883544922
45,17075,17063,-0.011895528063178062,0.052859753370285034,0.9717665910720825,4.47460412979126,-3.9206438064575195,1.9172707796096802,0.627652108669281,0.514248251914978,0.21700632572174072,2.569302558898926,-0.1461169421672821,3.4636144638061523
46,17085,17073,-0.08250598609447479,0.11041110008955002,0.9121371507644653,2.843313694000244,-2.192014694213867,1.3882241249084473,0.628412127494812,0.5135283470153809,0.21961842477321625,2.5972702503204346,-0.14416341483592987,3.4934613704681396
47,17095,17083,-0.052988260984420776,0.014189456589519978,0.9038144946098328,1.3611987829208374,0.5455761551856995,1.0738872289657593,0.6292338371276855,0.5127367377281189,0.22288621962070465,2.6571547985076904,-0.09026345610618591,3.490839958190918
48,17105,17093,0.023208508267998695,-0.03858554735779762,0.8530795574188232,0.0046439506113529205,3.6209616661071777,1.5329278707504272,0.6300806999206543,0.5127294659614563,0.22538740932941437,2.659590005874634,-0.06416285783052444,3.4957215785980225
49,17115,17103,-0.007846718654036522,0.001541081233881414,0.9414333701133728,-0.6034613847732544,5.393192291259766,2.3376810550689697,0.6305214166641235,0.512090802192688,0.22775983810424805,2.6178369522094727,-0.12744051218032837,3.536423683166504
50,17125,17113,-0.03295652195811272,-0.0816548764705658,0.9060285687446594,-0.9937577843666077,5.859377861022949,2.9174134731292725,0.6311713457107544,0.5115335583686829,0.2306271642446518,2.62334942817688,-0.1910320669412613,3.574876546859741
51,17135,17123,0.04094374179840088,-0.04076981544494629,0.8655852675437927,-0.38128554821014404,6.211474418640137,3.49202036857605,0.6318713426589966,0.5117241144180298,0.23289643228054047,2.4595611095428467,-0.17381513118743896,3.6087422370910645
52,17145,17133,0.001915428088977933,0.05468987300992012,0.9613791704177856,0.30612608790397644,6.21160364151001,4.392003536224365,0.6319712400436401,0.5118817687034607,0.2350645363330841,2.437814474105835,-0.22490611672401428,3.653836488723755
53,17155,17143,0.017640462145209312,0.012429792433977127,1.0362836122512817,0.6838464140892029,5.831537246704102,5.486419677734375,0.633460283279419,0.5114197134971619,0.236033633351326,2.4096102714538574,-0.11597101390361786,3.6529767513275146
54,17165,17153,-0.064345583319664,0.2018873393535614,0.9789966940879822,-0.5589451789855957,5.297309398651123,7.016369342803955,0.6336075067520142,0.5114995837211609,0.23804229497909546,2.325960874557495,-0.16835926473140717,3.7348527908325195
55,17175,17163,-0.004274322651326656,-0.12678034603595734,0.8832159042358398,-3.9644277095794678,5.212488651275635,7.588506698608398,0.6338625550270081,0.5100970268249512,0.24001003801822662,2.31253719329834,-0.24656663835048676,3.8275809288024902
56,17185,17173,0.11116041243076324,-0.04004652053117752,0.9002826809883118,-6.130889415740967,-0.07830099016427994,7.7041239738464355,0.6346651315689087,0.51030433177948,0.241947740316391,2.174379825592041,-0.3631618320941925,3.9403176307678223
57,17195,17183,0.04930540546774864,0.018154794350266457,0.914347231388092,-5.912291049957275,-2.254790782928467,7.761101245880127,0.6347898244857788,0.510622501373291,0.2464560866355896,2.3224034309387207,-0.4196545481681824,3.9951870441436768
58,17205,17193,0.017974786460399628,-0.0071978154592216015,0.9119282960891724,-3.680950164794922,-0.6600944399833679,7.381207466125488,0.6359599828720093,0.5112048387527466,0.248337522149086,2.386711359024048,-0.5324040651321411,4.083710670471191
59,17215,17203,0.0486886091530323,0.0833001434803009,0.9396049976348877,-0.2687554359436035,0.2773773670196533,7.120854377746582,0.6349878311157227,0.5108219981193542,0.2501915991306305,2.2048630714416504,-0.5914197564125061,4.1901655197143555
60,17225,17213,0.038482606410980225,0.05688388645648956,0.9415269494056702,3.115405321121216,5.470548629760742,6.685692310333252,0.6347871422767639,0.5111203789710999,0.2515164315700531,2.428689956665039,-0.5903405547142029,4.226652145385742
61,17235,17223,-0.007241213694214821,-0.06456033140420914,0.9680529832839966,5.993255615234375,8.478714942932129,5.290746212005615,0.636786937713623,0.5113858580589294,0.2532373368740082,2.3364124298095703,-0.5411379933357239,4.290032386779785
62,17245,17233,0.0029405478853732347,-0.15116330981254578,0.9617502093315125,7.904933929443359,12.528183937072754,3.8407375812530518,0.6348755955696106,0.511031985282898,0.25487959384918213,1.8927412033081055,-0.45173367857933044,4.384981632232666
63,17255,17243,0.0071401880122721195,0.015299692749977112,1.0062379837036133,7.402032375335693,13.032291412353516,1.6912086009979248,0.6353678703308105,0.5107222199440002,0.2552770674228668,1.7299644947052002,-0.34746018052101135,4.417079448699951
64,17265,17253,-0.010804853402078152,0.0499269925057888,0.9793500900268555,6.666999340057373,8.084213256835938,0.4774809777736664,0.6390189528465271,0.5105899572372437,0.256893515586853,1.5969147682189941,-0.6123495101928711,4.533303260803223
65,17275,17263,-0.03032478503882885,-0.018047288060188293,0.982295572757721,3.9929847717285156,5.921835422515869,-1.3583788871765137,0.6397737860679626,0.5101927518844604,0.2583378553390503,1.8840060234069824,-0.5027929544448853,4.468648910522461
66,17285,17273,-0.0016333434032276273,0.024343188852071762,0.9702640771865845,4.404130935668945,1.476972222328186,-2.543383836746216,0.6398897171020508,0.51371830701828,0.2598695456981659,1.4591165781021118,-0.20516330003738403,4.443218231201172
67,17295,17283,-0.012477691285312176,0.11568590253591537,0.9732953310012817,6.934053421020508,1.1430174112319946,-3.018470048904419,0.6364704370498657,0.5130602121353149,0.26258859038352966,1.7570226192474365,-0.2731168270111084,4.399130821228027
68,17305,17293,0.030376123264431953,0.07034218311309814,0.9848830103874207,7.596874237060547,0.4134446978569031,-3.4303834438323975,0.6404173374176025,0.5107694268226624,0.2643430829048157,1.1715445518493652,-0.08476502448320389,4.425971508026123
69,17315,17303,0.038728032261133194,-0.017783768475055695,0.9479082822799683,5.4750895500183105,2.1751315593719482,-3.4774417877197266,0.6373051404953003,0.5115793943405151,0.2660694122314453,1.1462005376815796,0.013229929842054844,4.391112327575684
70,17325,17313,0.04665230214595795,-0.10733262449502945,0.9195000529289246,3.1385140419006348,2.6926193237304688,-4.0434980392456055,0.6434476375579834,0.5108555555343628,0.2653123438358307,1.1730819940567017,0.07182131707668304,4.348053932189941
71,17335,17323,0.03499462828040123,-0.012426936067640781,0.9291578531265259,-0.5824477672576904,1.8026589155197144,-4.247302055358887,0.6442516446113586,0.5105589628219604,0.26650136709213257,1.2639586925506592,0.15229125320911407,4.28328800201416
72,17345,17333,-0.01255878433585167,0.05508628860116005,1.0073636770248413,-3.0096194744110107,-0.5955114364624023,-4.426028728485107,0.6443157196044922,0.5103604197502136,0.2677072286605835,1.2906469106674194,0.1039443388581276,4.243199825286865
73,17355,17343,0.014795856550335884,-0.01836198940873146,0.9354300498962402,-4.152169227600098,-3.4380245208740234,-4.496945381164551,0.6436325311660767,0.5095471143722534,0.26790502667427063,1.4202165603637695,0.09992685914039612,4.1817626953125
74,17365,17353,0.03441602364182472,0.0012270886218175292,0.9363529682159424,-4.728926658630371,-4.864406108856201,-4.859111785888672,0.6434710025787354,0.5097895264625549,0.2689706087112427,1.4944252967834473,0.005706502124667168,4.138906955718994
75,17375,17363,0.00880290288478136,0.06744308024644852,0.9877724051475525,-4.142891883850098,-3.25233793258667,-5.107943534851074,0.6424008011817932,0.5092132687568665,0.2699660658836365,1.5611294507980347,0.05978592857718468,4.072555065155029
76,17385,17373,0.028316238895058632,0.0014166603796184063,0.9832599759101868,-2.5136096477508545,-0.32660990953445435,-4.743445873260498,0.6419713497161865,0.5095615983009338,0.27093154191970825,1.5908433198928833,0.0506378710269928,4.0185866355896
77,17395,17383,0.021027689799666405,0.016972344368696213,0.9571084380149841,-1.6324785947799683,3.453608512878418,-4.775731086730957,0.6418069005012512,0.5082446336746216,0.27113860845565796,1.6365634202957153,-0.01393248699605465,3.9735488891601562
78,17405,17393,0.002553708152845502,0.013550722040235996,0.9766444563865662,-1.3851256370544434,8.20876407623291,-4.4747443199157715,0.641785740852356,0.5076649785041809,0.27198177576065063,1.6043691635131836,0.007810702547430992,3.9205472469329834
79,17415,17403,0.003996728919446468,-5.878715091967024e-05,0.9816823601722717,-0.8697652220726013,11.07414436340332,-4.797152519226074,0.6411945223808289,0.507800817489624,0.27280092239379883,1.4974201917648315,-0.03918664529919624,3.8760697841644287
80,17425,17413,-0.015356247313320637,-0.08704403787851334,0.9714871048927307,-0.5695650577545166,13.451889991760254,-4.232483386993408,0.640939474105835,0.507090151309967,0.2754403054714203,1.348218560218811,-0.07282798737287521,3.8354408740997314
81,17435,17423,0.025378363206982613,-0.06573990732431412,0.9283266067504883,-0.28130093216896057,13.260645866394043,-4.030587196350098,0.6409114003181458,0.507218062877655,0.2763480842113495,1.3253750801086426,-0.10051297396421432,3.7878873348236084
82,17445,17433,0.009183340705931187,0.02510826103389263,0.9933319687843323,-0.5471088886260986,13.349822998046875,-3.9049646854400635,0.6411086916923523,0.507331371307373,0.27722108364105225,1.2921736240386963,0.018082505092024803,3.726651668548584
83,17455,17443,0.02840605191886425,0.03434569388628006,0.9780868291854858,0.07595919817686081,11.96978759765625,-3.765608310699463,0.6397119164466858,0.5072936415672302,0.2772372364997864,1.1838691234588623,-0.01674019917845726,3.6893696784973145
84,17465,17453,0.016323762014508247,-0.00044835623702965677,0.9679638147354126,-0.12265957146883011,10.575128555297852,-3.660149335861206,0.6383894085884094,0.5056043267250061,0.2779441773891449,1.0164999961853027,-0.04266251623630524,3.657897710800171
85,17475,17463,0.02403324656188488,0.012275372631847858,0.9637068510055542,-1.8090142011642456,9.042593955993652,-3.4102256298065186,0.6377009153366089,0.5056074857711792,0.2786833941936493,0.9462167620658875,-0.08283290266990662,3.622542142868042
86,17485,17473,-0.013822117820382118,0.020720181986689568,1.0192731618881226,-3.028069019317627,8.141229629516602,-3.2405548095703125,0.6376761794090271,0.5056560039520264,0.2820526957511902,0.8205002546310425,-0.1430906057357788,3.5935373306274414
87,17495,17483,0.019053293392062187,-0.017125476151704788,0.9809070825576782,-2.895841360092163,8.173582077026367,-2.9531185626983643,0.6368191242218018,0.5057781338691711,0.28291964530944824,0.7783565521240234,-0.06064628064632416,3.551764965057373
88,17505,17493,0.008341141976416111,0.022185301408171654,0.998856782913208,-2.0084481239318848,7.907013416290283,-2.6610183715820312,0.6366751790046692,0.5060335993766785,0.2838091254234314,0.6571601629257202,-0.12863792479038239,3.526341199874878
89,17515,17503,0.039559055119752884,0.02608429826796055,0.9710458517074585,-1.3563287258148193,7.723320960998535,-2.4411163330078125,0.6358174085617065,0.5045457482337952,0.28463760018348694,0.4674471318721771,-0.17855818569660187,3.5071046352386475
90,17525,17513,-0.006669593974947929,0.03567928820848465,1.029189109802246,-0.8076783418655396,7.569819927215576,-2.5304534435272217,0.6356974244117737,0.5047438144683838,0.28526678681373596,0.5128753185272217,-0.07168527692556381,3.471623182296753
91,17535,17523,0.02637312188744545,-0.016397463157773018,0.966141939163208,-0.09803999960422516,8.68881607055664,-2.5923848152160645,0.6363815069198608,0.5049538612365723,0.2861327826976776,0.3935434818267822,-0.1113876923918724,3.4480090141296387
92,17545,17533,-0.0035354646388441324,0.005637399386614561,0.9986034631729126,0.4671976566314697,8.946172714233398,-2.2381181716918945,0.6346533894538879,0.5032806396484375,0.2869233787059784,0.341076523065567,-0.13462164998054504,3.419912815093994
93,17555,17543,0.019934222102165222,0.011065411381423473,0.9714177250862122,1.6012078523635864,8.27258586883545,-1.9340728521347046,0.6345993876457214,0.5033519864082336,0.2860417664051056,0.2834816575050354,-0.14423510432243347,3.3951148986816406
94,17565,17553,-0.006343228276818991,0.02939579077064991,1.0181232690811157,1.3023221492767334,7.6982574462890625,-2.2195491790771484,0.6337085962295532,0.5033066272735596,0.2867177724838257,0.0855296179652214,-0.0713946595788002,3.3822078704833984
95,17575,17563,0.04759516566991806,-0.018064886331558228,0.9311028718948364,0.7520006895065308,7.1619720458984375,-2.02750563621521,0.6328084468841553,0.5031987428665161,0.2873826324939728,-0.017381863668560982,-0.011285175569355488,3.3631107807159424
96,17585,17573,-0.009102794341742992,0.028226066380739212,1.009885549545288,-0.8156981468200684,6.404681205749512,-1.8993767499923706,0.6336122751235962,0.5023889541625977,0.2859918773174286,-0.10640888661146164,-0.04462816193699837,3.3412203788757324
97,17595,17583,0.0058389585465192795,-0.015353699214756489,0.966968834400177,-1.521134376525879,4.011213302612305,-1.8406665325164795,0.6334487795829773,0.501539409160614,0.2864910662174225,-0.24573858082294464,-0.092799611389637,3.3233025074005127
98,17605,17593,-0.014048097655177116,0.007636494468897581,1.0104560852050781,-2.668227195739746,1.4419240951538086,-1.7456002235412598,0.6331806778907776,0.5016325116157532,0.2870192527770996,-0.11258106678724289,-0.15361879765987396,3.291658878326416
99,17615,17603,0.042398851364851,-0.0032856184989213943,0.9399874806404114,-3.3548495769500732,-0.5598252415657043,-1.6649359464645386,0.6336096525192261,0.5018311738967896,0.2875381112098694,-0.1733362227678299,-0.07992446422576904,3.2866508960723877
100,17625,17613,0.004991707392036915,0.04492070525884628,1.0092806816101074,-2.589629888534546,-0.11431180685758591,-1.7350895404815674,0.6312976479530334,0.5019274353981018,0.28751638531684875,-0.2168242335319519,-0.16343441605567932,3.266008138656616
101,17635,17623,0.018176985904574394,0.014031540602445602,0.9780195951461792,-1.8669512271881104,0.36561453342437744,-1.2804417610168457,0.6314127445220947,0.5005633234977722,0.2879727780818939,-0.18981817364692688,-0.1560145616531372,3.2517948150634766
102,17645,17633,-0.012838697992265224,0.025491751730442047,1.0321874618530273,-0.2999250888824463,1.1061105728149414,-1.247550129890442,0.631478488445282,0.5008299946784973,0.288455992937088,-0.1726866364479065,-0.1324925273656845,3.24275541305542
103,17655,17643,0.03426049277186394,-0.00043777815881185234,0.9640069007873535,-0.2941667437553406,1.5652927160263062,-1.3408536911010742,0.6307958960533142,0.5001606941223145,0.2887500524520874,-0.17072232067584991,-0.17146821320056915,3.2246711254119873
104,17665,17653,0.014087660238146782,0.05037209019064903,1.0134263038635254,-1.3540147542953491,3.8938941955566406,-1.3950867652893066,0.6301307678222656,0.49938368797302246,0.2891698181629181,-0.2707933783531189,-0.21505533158779144,3.2078073024749756
105,17675,17663,0.00831694807857275,0.017547622323036194,1.0099762678146362,-2.043672800064087,6.069059371948242,-0.8802120089530945,0.6294960975646973,0.49942734837532043,0.2896069288253784,-0.32194435596466064,-0.26775628328323364,3.1878960132598877
106,17685,17673,-0.007872847840189934,0.031020306050777435,1.0179511308670044,-1.5561424493789673,5.487082004547119,-0.7171919941902161,0.6298403143882751,0.49959734082221985,0.29142656922340393,-0.4546877443790436,-0.31487804651260376,3.1781246662139893
107,17695,17683,0.0017728970851749182,-0.002822463633492589,1.016308307647705,-0.28638955950737,5.201476097106934,-1.0451422929763794,0.6295223236083984,0.49977344274520874,0.29196879267692566,-0.5041454434394836,-0.27408644556999207,3.178439140319824
108,17705,17693,0.043562907725572586,-0.005728935357183218,0.9517718553543091,0.20417189598083496,4.304052352905273,-1.494946837425232,0.62999427318573,0.4999580383300781,0.29252204298973083,-0.6130759716033936,-0.2973032295703888,3.1669390201568604
109,17715,17703,-0.021455995738506317,0.03919712081551552,1.0369209051132202,-0.07857644557952881,1.5980236530303955,-1.4671950340270996,0.6296467185020447,0.49916571378707886,0.293050080537796,-0.6063348054885864,-0.31549134850502014,3.1449689865112305
110,17725,17713,0.014529254287481308,0.006229126360267401,1.0006868839263916,0.5194787979125977,-1.3959834575653076,-1.4655908346176147,0.6300625801086426,0.4992298185825348,0.2914521098136902,-0.5580270290374756,-0.32656359672546387,3.1244473457336426
111,17735,17723,-0.004787162411957979,0.06406009197235107,1.048916220664978,1.86971914768219,-3.3663835525512695,-1.514406442642212,0.6293933391571045,0.49922844767570496,0.2918786108493805,-0.6184739470481873,-0.24926768243312836,3.128314971923828
112,17745,17733,0.014880471862852573,-0.01743180677294731,1.0075932741165161,1.954893946647644,-4.284830570220947,-1.9458539485931396,0.6285083889961243,0.49916526675224304,0.2923232614994049,-0.5722883939743042,-0.2398383915424347,3.11004638671875
113,17755,17743,0.0406353585422039,-0.0014513732166960835,0.9579272270202637,1.2723617553710938,-5.3589982986450195,-1.888460397720337,0.6292051672935486,0.49828168749809265,0.2923210561275482,-0.5090970396995544,-0.2330748587846756,3.0882527828216553
114,17765,17753,-0.0025727443862706423,0.03126762807369232,1.0225614309310913,1.2823880910873413,-5.0774664878845215,-1.1874488592147827,0.6289359927177429,0.49815794825553894,0.29272669553756714,-0.4427521526813507,-0.23018616437911987,3.0687999725341797
115,17775,17763,0.014993473887443542,0.0020883160177618265,0.986243486404419,0.8230729699134827,-3.570314645767212,-1.357569932937622,0.628582775592804,0.49807634949684143,0.29313772916793823,-0.535391092300415,-0.0873558521270752,3.093416213989258
116,17785,17773,-0.0026973590720444918,0.06731603294610977,1.0614386796951294,-0.5446161031723022,-2.5093629360198975,-1.8489294052124023,0.6282371282577515,0.497984379529953,0.29588040709495544,-0.415905624628067,-0.11789100617170334,3.0668387413024902
117,17795,17783,0.02848893404006958,-0.03516709804534912,0.9818103909492493,-2.5465028285980225,-3.0915796756744385,-1.969655156135559,0.6297513842582703,0.4964190721511841,0.2964695394039154,-0.3787859380245209,-0.17160512506961823,3.0386881828308105
118,17805,17793,0.023061387240886688,0.01789604313671589,0.9909108281135559,-4.3956780433654785,-3.656062364578247,-1.3017828464508057,0.6287517547607422,0.4964354336261749,0.2970995306968689,-0.33723020553588867,-0.25180482864379883,3.0091521739959717
119,17815,17803,0.02467436157166958,0.02508459985256195,1.015958547592163,-4.0425944328308105,-3.016592264175415,-0.35972344875335693,0.6285390853881836,0.49664071202278137,0.2984936237335205,-0.2964023947715759,-0.34003782272338867,2.990363359451294
120,17825,17813,-0.011165015399456024,0.02778119221329689,1.0149164199829102,-1.5463223457336426,-1.714047908782959,-0.5552417039871216,0.628277599811554,0.4969739019870758,0.29914233088493347,-0.2693823575973511,-0.39560624957084656,2.984008550643921
121,17835,17823,0.02008366398513317,0.004064721055328846,1.0019360780715942,0.9220426678657532,-0.29556804895401,-0.6850566267967224,0.6280640363693237,0.4972802698612213,0.29979854822158813,-0.2673400342464447,-0.33615145087242126,2.9934961795806885
122,17845,17833,0.005174000281840563,0.024063555523753166,1.0252877473831177,3.2598683834075928,2.3883888721466064,-0.3711659610271454,0.62795490026474,0.4974076449871063,0.3004661500453949,-0.4459206461906433,-0.3143519163131714,2.999109983444214
123,17855,17843,0.018404006958007812,-0.009050657972693443,0.9740261435508728,4.009906768798828,2.9473345279693604,-0.23338232934474945,0.627996027469635,0.49654796719551086,0.29957205057144165,-0.48520663380622864,-0.2691897749900818,2.998901844024658
124,17865,17853,-0.02438725158572197,0.00853392668068409,1.0162817239761353,3.6839263439178467,1.2018893957138062,-0.5002351999282837,0.6298734545707703,0.49644941091537476,0.30018162727355957,-0.5100217461585999,-0.22207114100456238,2.998140335083008
125,17875,17863,0.035646144300699234,-0.025534700602293015,0.9430806636810303,1.9145158529281616,-1.6446658372879028,-0.9415304064750671,0.630105197429657,0.49619224667549133,0.3007626235485077,-0.49719366431236267,-0.1932779997587204,2.990302324295044
126,17885,17873,-0.02908986248075962,0.05215618759393692,1.0585637092590332,1.7939423322677612,-4.23634672164917,-1.5335205793380737,0.6301971673965454,0.4959507882595062,0.30003121495246887,-0.5161135792732239,-0.03363928943872452,3.007783889770508
127,17895,17883,0.018622446805238724,-0.042113855481147766,0.9485729932785034,0.12866394221782684,-7.182821750640869,-2.2409164905548096,0.6300751566886902,0.49582481384277344,0.30054745078086853,-0.4092857241630554,-0.12073145806789398,2.9697277545928955
128,17905,17893,-0.0017531424527987838,0.03244216740131378,1.0129399299621582,-2.285146713256836,-9.728610038757324,-2.3008551597595215,0.6306779980659485,0.49410396814346313,0.3010224401950836,-0.26013386249542236,-0.15913455188274384,2.9379007816314697
129,17915,17903,0.03658100217580795,0.0014818088384345174,0.9571616053581238,-3.460878849029541,-10.361896514892578,-3.1242642402648926,0.6300727725028992,0.49491798877716064,0.2996516227722168,-0.16845174133777618,-0.2213493436574936,2.905211925506592
130,17925,17913,-0.029580039903521538,0.050895094871520996,1.052567481994629,-3.9971883296966553,-7.892872333526611,-3.407958745956421,0.6293274164199829,0.4950687885284424,0.30003637075424194,-0.23881946504116058,-0.294901579618454,2.873023271560669
131,17935,17923,0.024359924718737602,-0.03491794317960739,0.9435770511627197,-3.7413079738616943,-5.511622905731201,-3.7612264156341553,0.629378080368042,0.49534913897514343,0.30042049288749695,-0.18478424847126007,-0.29273778200149536,2.8459153175354004
132,17945,17933,0.01109860185533762,0.04230492189526558,1.018081545829773,-2.2087512016296387,-0.20838582515716553,-4.009079456329346,0.6312847137451172,0.49577096104621887,0.3008285462856293,0.022731533274054527,-0.2812730371952057,2.809075117111206
133,17955,17943,0.006822630297392607,0.043745774775743484,1.007124423980713,0.19065526127815247,8.259278297424316,-4.48360013961792,0.6317144632339478,0.49525752663612366,0.30161094665527344,-0.19374875724315643,-0.16336041688919067,2.7974634170532227
134,17965,17953,-0.005553600378334522,0.009187147952616215,1.0201982259750366,1.1406047344207764,15.691155433654785,-5.368927955627441,0.630032479763031,0.49451717734336853,0.3020547032356262,-0.37640511989593506,-0.17827074229717255,2.7502548694610596
135,17975,17963,-0.007114888168871403,0.002078354125842452,1.0091511011123657,1.5322844982147217,19.55377197265625,-6.076566696166992,0.6323883533477783,0.49300816655158997,0.30249765515327454,-0.4960585832595825,-0.18177561461925507,2.6896753311157227
136,17985,17973,0.03179187700152397,0.03272068873047829,0.9740114808082581,1.0675468444824219,20.282695770263672,-6.390851974487305,0.6335333585739136,0.4930204153060913,0.3030627369880676,-0.8021085262298584,-0.18408307433128357,2.628936529159546
137,17995,17983,-0.013046798296272755,0.03857893496751785,1.054744839668274,-0.913151741027832,17.682109832763672,-6.921767711639404,0.6332922577857971,0.49292439222335815,0.3035229444503784,-1.0818994045257568,-0.28019243478775024,2.5487887859344482
138,18005,17993,0.02897665835916996,-0.005960916168987751,0.97189861536026,-2.4360671043395996,11.798807144165039,-7.727959156036377,0.6347771286964417,0.49295052886009216,0.30387556552886963,-1.1305475234985352,-0.1762508749961853,2.4908828735351562
139,18015,18003,-0.0052709560841321945,0.00640611257404089,1.0048844814300537,-2.9476423263549805,3.7684099674224854,-7.371152400970459,0.6360263824462891,0.49392572045326233,0.3048209249973297,-1.2136439085006714,-0.17270447313785553,2.418667793273926
140,18025,18013,0.025312256067991257,0.03576895594596863,1.0164591073989868,-2.7380664348602295,-3.697024345397949,-7.17600679397583,0.635263979434967,0.4924403131008148,0.30541402101516724,-1.1657836437225342,-0.24596339464187622,2.3345999717712402
141,18035,18023,0.03233618661761284,0.032052721828222275,0.9886327385902405,-3.35626220703125,-9.109460830688477,-6.634800434112549,0.6355419754981995,0.4918741285800934,0.305878609418869,-1.087761402130127,-0.31983891129493713,2.2547824382781982
142,18045,18033,0.02495330385863781,0.029696717858314514,1.0018821954727173,-2.8230199813842773,-9.89838695526123,-5.3278489112854,0.635235071182251,0.4920840561389923,0.30642351508140564,-1.0368324518203735,-0.39020785689353943,2.1867523193359375
143,18055,18043,-0.002190581988543272,-0.008221653290092945,1.0003520250320435,-0.1489393562078476,-5.862359046936035,-4.874347686767578,0.6353716254234314,0.4923543632030487,0.3074505627155304,-0.8658649921417236,-0.4279976487159729,2.1300747394561768
144,18065,18053,0.034637872129678726,0.022971978411078453,0.985550582408905,3.3877546787261963,-0.23480704426765442,-5.0156779289245605,0.6362693309783936,0.4926169216632843,0.3079257905483246,-0.9283605217933655,-0.40905994176864624,2.088221788406372
145,18075,18063,-0.006314086727797985,0.04390978813171387,1.0436174869537354,6.783577919006348,5.486116409301758,-5.248571395874023,0.6358058452606201,0.4926210939884186,0.30848613381385803,-0.9283806085586548,-0.3317376375198364,2.0445234775543213
146,18085,18073,0.03552877530455589,-0.016206538304686546,0.9571775794029236,8.730074882507324,9.403528213500977,-5.125815391540527,0.6374322175979614,0.492458313703537,0.3087722957134247,-1.0097423791885376,-0.28769052028656006,1.9850311279296875
147,18095,18083,0.000507552467752248,0.02683490514755249,1.0221604108810425,8.649088859558105,11.17609977722168,-5.186245918273926,0.6378223896026611,0.4919922351837158,0.3092777132987976,-1.1353628635406494,-0.22781305015087128,1.9277251958847046
148,18105,18093,0.020947109907865524,0.026154421269893646,0.9860615134239197,7.58128547668457,9.377403259277344,-5.212441921234131,0.6384817361831665,0.49221089482307434,0.3097650110721588,-1.2518588304519653,-0.17429348826408386,1.8678654432296753
149,18115,18103,0.034796092659235,0.023962579667568207,0.9753997325897217,6.149313449859619,6.705881118774414,-4.810066223144531,0.6393230557441711,0.4924394190311432,0.3120063245296478,-1.3265914916992188,-0.0648350790143013,1.8231861591339111
150,18125,18113,-0.013379691168665886,0.02236935868859291,1.0108320713043213,4.910430431365967,1.9073235988616943,-4.533029556274414,0.639982283115387,0.49273064732551575,0.312578022480011,-1.3356157541275024,0.018670953810214996,1.7787753343582153
151,18135,18123,0.014839833602309227,-0.0031975763849914074,0.9642128348350525,3.748831033706665,-2.8405168056488037,-4.73784065246582,0.6404661536216736,0.4923025965690613,0.31315287947654724,-1.416485071182251,0.08024366199970245,1.7379039525985718
152,18145,18133,0.0048897829838097095,0.008433321490883827,0.9830701351165771,2.504366874694824,-6.343696594238281,-5.020497798919678,0.6406047344207764,0.49195215106010437,0.3141547441482544,-1.418493628501892,0.11975599825382233,1.6923662424087524
153,18155,18143,0.01286135334521532,0.036855071783065796,0.9879827499389648,1.1958842277526855,-7.761446952819824,-4.685737609863281,0.6420416235923767,0.4917324483394623,0.3146447539329529,-1.2265275716781616,0.06275036185979843,1.6209973096847534
154,18165,18153,0.016862964257597923,0.016468368470668793,0.9836760759353638,0.26621660590171814,-8.802055358886719,-4.211540222167969,0.6432086825370789,0.4915914237499237,0.31512439250946045,-1.0992451906204224,0.06972477585077286,1.5744974613189697
155,18175,18163,0.029058031737804413,-0.009713460691273212,0.9593562483787537,-0.7595492005348206,-7.023221015930176,-3.9873125553131104,0.6425728797912598,0.4922986924648285,0.3158094882965088,-1.2776875495910645,-0.0861319899559021,1.5009419918060303
156,18185,18173,-0.008159232325851917,0.04863065481185913,0.9948272705078125,-1.378341555595398,-4.394473552703857,-3.5998997688293457,0.6427068710327148,0.49228158593177795,0.3160238564014435,-1.0935797691345215,-0.09400347620248795,1.461856722831726
157,18195,18183,0.03399061784148216,-0.046153195202350616,0.9377982020378113,-1.72512948513031,-2.580434560775757,-3.2583932876586914,0.6462944149971008,0.4940767288208008,0.3163459300994873,-1.0269595384597778,-0.10940790176391602,1.4266153573989868
158,18205,18193,-0.031019039452075958,0.04501895606517792,1.0355770587921143,0.8177542090415955,-1.5038875341415405,-2.78164005279541,0.6459059119224548,0.4941568374633789,0.31692156195640564,-1.20685613155365,-0.10146134346723557,1.401272177696228
159,18215,18203,0.027376282960176468,-0.028182324022054672,0.9289580583572388,3.0475127696990967,-1.0744037628173828,-2.704463481903076,0.6464419960975647,0.49428725242614746,0.3159770667552948,-1.0833450555801392,0.01561702974140644,1.3951871395111084
160,18225,18213,0.006308740004897118,0.04834173619747162,1.024894118309021,5.404029846191406,-2.632689952850342,-2.6315484046936035,0.6496461033821106,0.49430641531944275,0.3161395192146301,-1.185563087463379,0.08569853007793427,1.377284049987793
161,18235,18223,0.02485978975892067,0.004073649179190397,0.9486898183822632,6.577331066131592,-4.144285202026367,-2.367098331451416,0.6495122313499451,0.49324682354927063,0.31659528613090515,-1.1016550064086914,0.18091203272342682,1.3598114252090454
162,18245,18233,-0.0030199966859072447,0.00886809453368187,0.9910628199577332,5.919578552246094,-5.997211456298828,-2.9178287982940674,0.6516930460929871,0.4928991496562958,0.3147115409374237,-0.9184737205505371,0.12651702761650085,1.3101848363876343
163,18255,18243,0.023010272532701492,0.04100566357374191,0.9918009042739868,4.95620059967041,-7.7048492431640625,-3.230342149734497,0.6521408557891846,0.49242526292800903,0.3148971498012543,-1.0152143239974976,0.2212754487991333,1.2882652282714844
164,18265,18253,0.021679459139704704,0.011464923620223999,0.9630506634712219,3.824899911880493,-7.943891525268555,-3.051415205001831,0.6515727639198303,0.4936254918575287,0.3152052164077759,-0.8529918193817139,0.2955527603626251,1.2605592012405396
165,18275,18263,-0.021332986652851105,-0.0012264735996723175,0.9835703372955322,2.0907037258148193,-8.03024959564209,-4.106203079223633,0.6542961597442627,0.49331948161125183,0.31516844034194946,-0.771687924861908,0.3437748849391937,1.2287431955337524
166,18285,18273,0.022616131231188774,0.01611342839896679,0.9921845197677612,0.5305017232894897,-6.0075483322143555,-4.525988578796387,0.6544671058654785,0.49304041266441345,0.3156062364578247,-0.7817447185516357,0.36160314083099365,1.1836918592453003
167,18295,18283,0.002660953439772129,0.033969901502132416,0.9917013049125671,-0.8722037672996521,-3.2713518142700195,-4.823877811431885,0.655464231967926,0.4929073452949524,0.31568682193756104,-0.7455211877822876,0.3518114984035492,1.1357871294021606
168,18305,18293,0.01884203590452671,-0.004999847617000341,0.9925050735473633,-1.3058754205703735,-1.6901496648788452,-5.008631229400635,0.657448947429657,0.49290725588798523,0.31567636132240295,-0.5866350531578064,0.32758960127830505,1.088287115097046
169,18315,18303,0.01855478249490261,0.02645483799278736,0.9739753007888794,-0.20039130747318268,-2.0609536170959473,-5.601851463317871,0.6588100790977478,0.49299725890159607,0.3161572217941284,-0.7510361671447754,0.3111848533153534,1.031791090965271
170,18325,18313,-0.004640005528926849,0.003851312678307295,1.0043516159057617,1.2979623079299927,-2.7588846683502197,-4.960451126098633,0.6585915684700012,0.49309268593788147,0.3163466453552246,-0.6604316830635071,0.315116286277771,0.9796490669250488
171,18335,18323,0.012200878001749516,0.003740674816071987,0.991454005241394,2.6707534790039062,-5.092777729034424,-4.386585235595703,0.6617034673690796,0.4931545853614807,0.31625229120254517,-0.5543018579483032,0.34374818205833435,0.9349725842475891
172,18345,18333,0.03739575296640396,0.029461609199643135,0.9870229959487915,2.41699481010437,-7.35888147354126,-3.728344202041626,0.6621674299240112,0.4930725693702698,0.3148706555366516,-0.6460087299346924,0.37928804755210876,0.8881157636642456
173,18355,18343,-0.011309530586004257,0.011136225424706936,1.0017069578170776,1.530132532119751,-7.979984283447266,-3.1714859008789062,0.6625256538391113,0.49288710951805115,0.31489861011505127,-0.39331576228141785,0.4039660692214966,0.8595564961433411
174,18365,18353,0.010392793454229832,0.006090010982006788,1.000455379486084,0.28746676445007324,-9.694074630737305,-3.009359836578369,0.665232241153717,0.4927445352077484,0.31472715735435486,-0.4428548812866211,0.41207095980644226,0.820667564868927
175,18375,18363,0.023211702704429626,0.042276304215192795,1.0116825103759766,-1.496208667755127,-10.51820182800293,-2.5327799320220947,0.6645342111587524,0.4926362931728363,0.31491619348526,-0.3037903904914856,0.4694240987300873,0.7986325025558472
176,18385,18373,-0.0028836289420723915,-0.0060985395684838295,0.987791121006012,-2.531616449356079,-10.611666679382324,-2.1772279739379883,0.667111337184906,0.49264079332351685,0.31587278842926025,-0.16007889807224274,0.34586137533187866,0.764922559261322
177,18395,18383,0.011595114134252071,0.03749484941363335,1.033128023147583,-3.948260545730591,-10.321451187133789,-1.8236050605773926,0.6679096221923828,0.4919474124908447,0.31592702865600586,-0.17267954349517822,0.28683486580848694,0.7345257997512817
178,18405,18393,0.012418198399245739,-0.0020165543537586927,0.9900947213172913,-4.150160312652588,-9.588114738464355,-1.3848202228546143,0.6686816215515137,0.4929708242416382,0.3160335123538971,-0.02961048297584057,0.2914734184741974,0.7232620120048523
179,18415,18403,0.010684213601052761,0.005884687416255474,1.0017359256744385,-3.4185190200805664,-8.872178077697754,-1.3845539093017578,0.6710805296897888,0.49328741431236267,0.31464239954948425,0.17373822629451752,0.2185038924217224,0.7136997580528259
180,18425,18413,0.003687407588586211,0.03966674953699112,1.0438382625579834,-2.342003583908081,-7.615115165710449,-1.2223562002182007,0.6719335317611694,0.4927833676338196,0.31465017795562744,0.12151775509119034,0.31616294384002686,0.7000173330307007
181,18435,18423,0.024578779935836792,-0.006453435402363539,0.9978826642036438,-1.9708722829818726,-6.39116096496582,-2.2216455936431885,0.6720016002655029,0.49304887652397156,0.31474217772483826,0.21218563616275787,0.2613094747066498,0.6870160102844238
182,18445,18433,-0.005640706047415733,0.011649837717413902,0.9994943141937256,-2.0185399055480957,-4.899259567260742,-2.9460043907165527,0.6746882796287537,0.4915938377380371,0.3147765100002289,0.27693548798561096,0.2140227109193802,0.6624780893325806
183,18455,18443,0.0017946764128282666,0.04771074280142784,1.063620686531067,-3.1087982654571533,-3.677877902984619,-3.4695568084716797,0.67577064037323,0.49176400899887085,0.31482094526290894,0.3168288469314575,0.15958571434020996,0.6310097575187683
184,18465,18453,0.031555429100990295,-0.013654442504048347,0.9701807498931885,-3.399402618408203,-3.2009921073913574,-4.2865681648254395,0.6769642233848572,0.49193596839904785,0.3148846924304962,0.49329373240470886,0.17110587656497955,0.601643979549408
185,18475,18463,-0.003996386658400297,0.04899981990456581,1.0335286855697632,-3.379446029663086,-2.4143505096435547,-4.387348651885986,0.6782476305961609,0.49218660593032837,0.3149499297142029,0.4960584044456482,0.10177556425333023,0.5592027902603149
186,18485,18473,0.016642922535538673,0.006104521453380585,1.0221551656723022,-3.0920886993408203,-0.8319216966629028,-4.5891804695129395,0.6779904961585999,0.49161839485168457,0.3165203332901001,0.4829063415527344,0.1864452064037323,0.5103188157081604
187,18495,18483,0.01379549689590931,0.02436288632452488,1.0095837116241455,-3.3095505237579346,1.3340150117874146,-4.789024829864502,0.6793797612190247,0.49188655614852905,0.3166952431201935,0.4412497878074646,0.11162516474723816,0.46424025297164917
188,18505,18493,-0.00236724060960114,0.010550267994403839,1.0261372327804565,-3.06948184967041,2.472430467605591,-5.22224760055542,0.6809002161026001,0.4904784858226776,0.3168661892414093,0.3765595257282257,0.11672904342412949,0.41100552678108215
189,18515,18503,0.00011454924970166758,0.05826964229345322,1.0430573225021362,-1.6152580976486206,2.368792772293091,-5.499636173248291,0.6826176643371582,0.4907364249229431,0.3184371292591095,0.4489518404006958,0.132131889462471,0.3582971394062042
190,18525,18513,0.03222498297691345,0.08087935298681259,1.0281113386154175,-0.4645061194896698,-0.8162738680839539,-5.464933395385742,0.6843723058700562,0.49015533924102783,0.31870734691619873,0.3913266062736511,0.09062200784683228,0.3048228323459625
191,18535,18523,0.0077933273278176785,0.03102264739573002,1.022865653038025,-1.2382081747055054,-2.7999141216278076,-5.034891128540039,0.6844805479049683,0.48946598172187805,0.3191524147987366,0.3793032765388489,0.053694333881139755,0.2519713342189789
192,18545,18533,0.030748505145311356,0.016541702672839165,0.9928650856018066,-2.7267751693725586,-4.204663276672363,-4.769711971282959,0.6859592795372009,0.489530473947525,0.31846752762794495,0.47024792432785034,0.001981669571250677,0.20561476051807404
193,18555,18543,-0.017012836411595345,0.014441072940826416,1.0242516994476318,-3.9999732971191406,-4.674740314483643,-3.7982170581817627,0.6873268485069275,0.4896432161331177,0.31877976655960083,0.4983758330345154,0.005640128627419472,0.15567833185195923
194,18565,18553,0.02448306605219841,0.022557560354471207,0.9928424954414368,-5.0313801765441895,-4.221651554107666,-3.53800368309021,0.6877698302268982,0.4898654520511627,0.3191741704940796,0.5295229554176331,0.05902000889182091,0.10825081169605255
195,18575,18563,0.0005644335178658366,0.022562973201274872,1.012136697769165,-4.9336934089660645,-2.544018268585205,-3.357095956802368,0.6889305114746094,0.4893650710582733,0.31698909401893616,0.6920682787895203,-0.05372998118400574,0.08226965367794037
196,18585,18573,-0.004574490711092949,0.012349016033113003,0.9966196417808533,-5.012190341949463,-1.3493462800979614,-3.4823100566864014,0.6901955008506775,0.4880802631378174,0.31715625524520874,0.6720168590545654,-0.15826594829559326,0.0546896867454052
197,18595,18583,0.03568006679415703,0.018657635897397995,0.9942996501922607,-5.015294551849365,0.6645175814628601,-2.7264223098754883,0.6899299621582031,0.48847970366477966,0.317451536655426,0.554618239402771,-0.11077836900949478,0.009119446389377117
198,18605,18593,-0.002830006880685687,0.02041902206838131,0.9949334859848022,-4.485455513000488,1.8197201490402222,-2.160926103591919,0.6914098262786865,0.4888768196105957,0.31761860847473145,0.638554573059082,-0.21540454030036926,-0.009101346135139465
199,18615,18603,0.004924762528389692,-0.002539083594456315,1.0005528926849365,-3.7314863204956055,1.9744822978973389,-1.856227993965149,0.6938925981521606,0.48757612705230713,0.3188781142234802,0.5545684099197388,-0.15734753012657166,-0.04347873851656914
200,18625,18613,0.03365429863333702,0.04355142265558243,0.9845759868621826,-2.0946264266967773,2.3115947246551514,-1.217442512512207,0.6939600706100464,0.48793575167655945,0.31920096278190613,0.47249969840049744,-0.23396067321300507,-0.05642266198992729
201,18635,18623,-0.012690214440226555,-0.0017795029561966658,1.0053975582122803,-0.4640847146511078,2.3758187294006348,-0.8563040494918823,0.6956841945648193,0.4865546226501465,0.3193817138671875,0.46777454018592834,-0.20605528354644775,-0.07466287165880203
202,18645,18633,0.013987917453050613,0.021202513948082924,0.9867074489593506,1.0208158493041992,1.228723406791687,-0.5655151605606079,0.6974697113037109,0.4867246448993683,0.3211033046245575,0.5400113463401794,-0.22982080280780792,-0.08089517056941986
203,18655,18643,0.02678893879055977,0.02844981476664543,0.9911641478538513,2.4228434562683105,0.6333367228507996,-0.7532961964607239,0.6984065175056458,0.4859415590763092,0.32141345739364624,0.5453951954841614,-0.2278432548046112,-0.08516662567853928
204,18665,18653,-0.009764808230102062,0.01923281140625477,0.997735321521759,3.4931046962738037,1.5333421230316162,-0.649761438369751,0.6984455585479736,0.48588502407073975,0.32180851697921753,0.5483821630477905,-0.20602409541606903,-0.09109777957201004
205,18675,18663,0.029691284522414207,0.006588133051991463,0.9737992882728577,3.7004077434539795,3.1222174167633057,-0.7860023975372314,0.699241042137146,0.4857311546802521,0.32106322050094604,0.4582836329936981,-0.17226442694664001,-0.09434094280004501
206,18685,18673,-4.192175401840359e-05,0.04555052891373634,1.0184162855148315,3.3728153705596924,5.25026798248291,-1.3646196126937866,0.7000955939292908,0.4855075180530548,0.32129278779029846,0.41637319326400757,-0.13706500828266144,-0.10191561281681061
207,18695,18683,0.0233036857098341,-0.011645693331956863,0.9555155038833618,1.2922455072402954,5.732041835784912,-2.562110424041748,0.7018749117851257,0.4852584898471832,0.3214467763900757,0.4220412075519562,-0.118718221783638,-0.11648421734571457
208,18705,18693,0.0021258199121803045,0.01603674329817295,0.9953176975250244,-1.2073943614959717,5.751977920532227,-2.9397826194763184,0.7029979825019836,0.4850134253501892,0.32162901759147644,0.33920711278915405,-0.0636441633105278,-0.146983802318573
209,18715,18703,0.010790159925818443,0.010220365598797798,0.9818806052207947,-3.297680616378784,5.240877151489258,-3.5173840522766113,0.7033620476722717,0.4849071502685547,0.3212883770465851,0.33356842398643494,-0.04916464909911156,-0.18175217509269714
210,18725,18713,0.02564113587141037,0.02634192816913128,0.9807488918304443,-4.909814357757568,4.603076457977295,-4.322636604309082,0.7046017646789551,0.48414263129234314,0.32138577103614807,0.18836311995983124,-0.14229123294353485,-0.20909470319747925
211,18735,18723,0.011986813507974148,-0.005912302061915398,0.9767791032791138,-4.694788932800293,4.567479610443115,-4.857203483581543,0.7049703001976013,0.4835328161716461,0.3215405344963074,0.2041408270597458,-0.1707126647233963,-0.2560396194458008
212,18745,18733,0.043896593153476715,-0.04976585507392883,1.0193336009979248,-2.823676586151123,3.575050115585327,-5.709854602813721,0.7069920301437378,0.48388803005218506,0.3247503638267517,0.2220943719148636,-0.26273584365844727,-0.3015593886375427
213,18755,18743,0.05912051722407341,-0.08470489084720612,0.9932479858398438,-0.6047199368476868,3.0828330516815186,-6.684528350830078,0.7072912454605103,0.48341304063796997,0.325070321559906,0.10291338711977005,-0.3135763108730316,-0.35600271821022034
214,18765,18753,-0.0022860567551106215,-0.04693979769945145,0.9926009774208069,2.537466526031494,2.6051554679870605,-7.545816421508789,0.707521915435791,0.4836816191673279,0.32541942596435547,0.14447058737277985,-0.31828412413597107,-0.4252852499485016
215,18775,18763,0.014288594014942646,0.052144281566143036,1.0062683820724487,4.688782215118408,3.193248987197876,-7.7937164306640625,0.7093415260314941,0.48378056287765503,0.3248511254787445,0.11017366498708725,-0.2780369222164154,-0.5007126927375793
216,18785,18773,0.023524709045886993,0.0015842814464122057,0.9651173949241638,5.542620658874512,3.2021753787994385,-7.500914573669434,0.7094624638557434,0.48363015055656433,0.3251332640647888,0.07173661142587662,-0.20939816534519196,-0.5777381062507629
217,18795,18783,0.0006038094870746136,-0.014439621940255165,0.9692004323005676,5.1429762840271,3.0891897678375244,-7.084163665771484,0.7104424238204956,0.4832983613014221,0.3253331780433655,-0.03770242631435394,-0.13625022768974304,-0.6500514149665833
218,18805,18793,0.029304884374141693,0.012540318071842194,1.0107295513153076,3.7093923091888428,3.735074758529663,-7.296003818511963,0.7113845348358154,0.48289403319358826,0.3216688632965088,-0.003964198753237724,-0.07956618070602417,-0.7239469885826111
219,18815,18803,-0.020718609914183617,0.03946502506732941,1.0096558332443237,2.0775487422943115,3.6191537380218506,-6.728640556335449,0.7132178544998169,0.48248833417892456,0.3215416669845581,0.01889973320066929,-0.048807527869939804,-0.7968477010726929
220,18825,18813,0.02896668016910553,-0.001072431798093021,0.9478991031646729,0.7084817886352539,4.31743049621582,-5.902220726013184,0.7134354710578918,0.48218420147895813,0.3215312361717224,-0.03849059343338013,-0.04301374778151512,-0.861565113067627
221,18835,18823,0.01669815368950367,0.019154338166117668,0.9780182838439941,-0.6101598143577576,4.929044246673584,-5.279464244842529,0.713650643825531,0.4820190966129303,0.3215102255344391,-0.03156142309308052,-0.060540344566106796,-0.9204040169715881
222,18845,18833,0.012460902333259583,-0.012550046667456627,0.9940038919448853,-1.800955891609192,5.876253604888916,-4.951244354248047,0.7147437334060669,0.48196738958358765,0.32156914472579956,-0.11332233250141144,-0.09818039834499359,-0.9700610041618347
223,18855,18843,0.0024731263983994722,0.054987285286188126,1.0140997171401978,-1.9851313829421997,5.955469131469727,-4.620645523071289,0.7150334119796753,0.48202386498451233,0.321512371301651,-0.12939390540122986,-0.14364002645015717,-1.0183331966400146
224,18865,18853,0.04609774053096771,-0.08190442621707916,0.9582571387290955,-0.31401005387306213,4.614881992340088,-4.189696788787842,0.7162501811981201,0.48216158151626587,0.32138288021087646,-0.2946057617664337,-0.09728596359491348,-1.0656498670578003
225,18875,18863,0.02171465940773487,0.005691562779247761,0.9240644574165344,0.528739869594574,3.3455169200897217,-3.540473699569702,0.7166943550109863,0.4823142886161804,0.32216575741767883,-0.3572557270526886,-0.10886097699403763,-1.1062871217727661
226,18885,18873,0.017641503363847733,0.0056545021943748,0.9704211354255676,1.4219369888305664,1.7435106039047241,-3.464716672897339,0.7187249064445496,0.48146092891693115,0.32195043563842773,-0.32406625151634216,-0.10792043060064316,-1.1447794437408447
227,18895,18883,0.0002328899863641709,0.05541127547621727,1.0132713317871094,0.2982129454612732,-0.09148935973644257,-3.4075918197631836,0.7198187708854675,0.4814079999923706,0.32175275683403015,-0.39995142817497253,-0.10583455115556717,-1.1788660287857056
228,18905,18893,0.039734236896038055,-0.039767127484083176,0.9565045237541199,-0.30149781703948975,-1.3240610361099243,-2.7968716621398926,0.7199516296386719,0.48132026195526123,0.32212138175964355,-0.37333279848098755,-0.11538823693990707,-1.2114739418029785
229,18915,18903,0.004350201692432165,0.03697258234024048,1.0436679124832153,-1.9466845989227295,-2.1537086963653564,-2.1868934631347656,0.7215505242347717,0.48128798604011536,0.32193219661712646,-0.3337984085083008,-0.006075282581150532,-1.2379218339920044
230,18925,18913,0.007532409857958555,0.0064604878425598145,1.0169168710708618,-2.5759754180908203,-2.8096158504486084,-1.2693684101104736,0.722223699092865,0.48128971457481384,0.3218196928501129,-0.3530615270137787,-0.06077476590871811,-1.2580254077911377
231,18935,18923,0.025981687009334564,0.0068468027748167515,0.9771950244903564,-3.408414840698242,-3.5708348751068115,-0.7991079092025757,0.7228364944458008,0.47975629568099976,0.32171571254730225,-0.35442662239074707,-0.1244092509150505,-1.2711753845214844
232,18945,18933,-0.005448312498629093,0.014652261510491371,1.0507618188858032,-4.762629508972168,-3.530473232269287,-0.5186538696289062,0.7243012189865112,0.4799031913280487,0.3237670660018921,-0.2721351087093353,-0.20362886786460876,-1.2801722288131714
233,18955,18943,0.029452092945575714,0.02129068598151207,0.9793421626091003,-3.6143367290496826,-2.873972177505493,-0.2559853792190552,0.7256322503089905,0.48012495040893555,0.323765367269516,-0.26820674538612366,-0.07824389636516571,-1.2784522771835327
234,18965,18953,0.005965123418718576,-0.0030291208531707525,1.0396792888641357,-0.9424024224281311,-3.255190849304199,-0.4033823311328888,0.7261093854904175,0.48046836256980896,0.3238578736782074,-0.1966727375984192,-0.14659510552883148,-1.2815665006637573
235,18975,18963,0.002813564846292138,0.02237148955464363,1.0151581764221191,0.7329220175743103,-3.2098872661590576,-0.5677744746208191,0.7274574041366577,0.4782800078392029,0.32530707120895386,-0.12998832762241364,-0.23803675174713135,-1.2888659238815308
236,18985,18973,0.024955272674560547,0.0025739376433193684,1.0132302045822144,1.1447416543960571,-3.0636024475097656,-0.5305919051170349,0.7280089259147644,0.47836288809776306,0.3255002796649933,-0.21048122644424438,-0.23223340511322021,-1.29287850856781
237,18995,18983,-0.003119357395917177,-0.002990956883877516,0.9897047877311707,0.6236559748649597,-2.0415947437286377,-0.41032925248146057,0.7286169528961182,0.4791018068790436,0.3257180452346802,-0.15237586200237274,-0.2286246418952942,-1.2999072074890137
238,19005,18993,0.018230343237519264,0.03222918137907982,1.0349364280700684,0.7907425761222839,-1.778309941291809,-0.40926393866539,0.7308129668235779,0.47896113991737366,0.3234449326992035,-0.10574296116828918,-0.22931671142578125,-1.3046687841415405
