,timestamp_start,timestamp_end,acc.x,acc.y,acc.z,gyro.x,gyro.y,gyro.z,stateEstimate.x,stateEstimate.y,stateEstimate.z,stabilizer.pitch,stabilizer.roll,stabilizer.yaw
0,81824,81821,-0.021307719871401787,0.008182607591152191,1.001132607460022,0.36487051844596863,-1.426127552986145,-1.4537662267684937,2.028841495513916,4.077703952789307,0.1808963119983673,1.7726030349731445,-0.10594998300075531,3.6249818801879883
1,81834,81831,-0.032303839921951294,0.08830034732818604,0.9767197370529175,0.8320691585540771,6.0720534324646,-1.6120083332061768,2.0260727405548096,4.07474946975708,0.18316887319087982,1.7408086061477661,0.14725102484226227,3.552780866622925
2,81844,81841,-0.07095331698656082,0.17513883113861084,1.0190229415893555,0.3767320215702057,12.375909805297852,-1.2199102640151978,2.0263631343841553,4.076447486877441,0.18558207154273987,1.518161416053772,0.14329566061496735,3.5434324741363525
3,81854,81851,0.014982117339968681,0.02106311172246933,0.9865281581878662,-0.9185011386871338,14.276180267333984,-1.4034087657928467,2.024928092956543,4.076427936553955,0.1865314096212387,1.301537036895752,-0.018296774476766586,3.5644125938415527
4,81864,81861,-0.017072604969143867,-0.006291617173701525,0.9879022240638733,-2.44933819770813,17.09230613708496,-1.576450228691101,2.0230658054351807,4.077632904052734,0.18859374523162842,1.2769668102264404,-0.1774420589208603,3.5777125358581543
5,81874,81871,-0.03384539857506752,0.07643710821866989,0.9611465334892273,-0.649931013584137,14.416632652282715,-0.9128447771072388,2.0140748023986816,4.072283744812012,0.19043894112110138,2.33206844329834,0.34297770261764526,3.4657962322235107
6,81884,81881,-0.047748032957315445,0.14290718734264374,0.9684361815452576,-1.7818154096603394,19.4152889251709,0.7408499121665955,2.0145864486694336,4.069533348083496,0.19134381413459778,1.882913589477539,0.4374978840351105,3.4332075119018555
7,81894,81891,0.006815405562520027,0.005763759836554527,0.9536391496658325,-5.478810787200928,25.44196319580078,0.21243655681610107,2.0123167037963867,4.066826820373535,0.19312207400798798,1.736010193824768,0.3265151083469391,3.46079421043396
8,81904,81901,-0.035074543207883835,-0.011912803165614605,1.1004269123077393,-10.525347709655762,31.048595428466797,-0.7378867268562317,2.01157283782959,4.068373680114746,0.19598856568336487,1.2649331092834473,0.15549001097679138,3.4739627838134766
9,81914,81911,-0.01917683146893978,-0.15531745553016663,1.039899468421936,-11.291810035705566,32.65768051147461,-1.0987406969070435,2.0093116760253906,4.067540645599365,0.19762371480464935,0.8319254517555237,-0.06442756205797195,3.4836058616638184
10,81924,81921,-0.03303728997707367,0.005221632309257984,1.0718375444412231,-10.145591735839844,30.39726448059082,-1.6217052936553955,2.006317377090454,4.066384315490723,0.19926127791404724,0.8336226344108582,-0.04818281531333923,3.4585227966308594
11,81934,81931,0.07294879108667374,-0.07240655273199081,1.0037541389465332,-6.91951847076416,26.002750396728516,-1.3961180448532104,2.0043933391571045,4.065685749053955,0.2023123800754547,0.15455995500087738,-0.2518347501754761,3.4450793266296387
12,81944,81941,-0.018122438341379166,0.024143511429429054,1.0097767114639282,-2.535796642303467,17.336442947387695,-1.115118384361267,2.002234697341919,4.065934181213379,0.20449259877204895,-0.061871036887168884,-0.3019081652164459,3.4325153827667236
13,81954,81951,0.06683991849422455,-0.06354477256536484,1.0338655710220337,0.4832875430583954,9.719157218933105,-0.6895503997802734,1.998435139656067,4.06195068359375,0.20606975257396698,-0.07996886223554611,-0.28149285912513733,3.4237308502197266
14,81964,81961,0.07670319080352783,-0.04314400255680084,1.006199836730957,3.1080260276794434,5.373978614807129,-1.1824743747711182,1.994460940361023,4.0602850914001465,0.20825320482254028,-0.2242712527513504,-0.2869762182235718,3.412644147872925
15,81974,81971,0.021311236545443535,0.10337386280298233,1.0590243339538574,4.78670072555542,2.43316912651062,-1.4666035175323486,1.9929933547973633,4.059746742248535,0.2104015350341797,-0.37337353825569153,-0.24853283166885376,3.394779920578003
16,81984,81981,0.03147989511489868,-0.029831990599632263,0.9290623664855957,3.792694568634033,3.4486429691314697,-1.482764720916748,1.990415334701538,4.058586120605469,0.2128322422504425,-0.4031126797199249,-0.20434120297431946,3.3802895545959473
17,81994,81991,0.011296001262962818,-0.05366897210478783,0.9848818182945251,1.207871675491333,4.836213111877441,-1.01089346408844,1.9877464771270752,4.054396629333496,0.21507491171360016,-0.5794175267219543,-0.1783938705921173,3.36746883392334
18,82004,82001,-0.02331872656941414,-0.0170176662504673,1.026036024093628,-1.3879996538162231,5.977462291717529,-1.3571622371673584,1.9863801002502441,4.052171230316162,0.21728619933128357,-0.5437438488006592,-0.193507581949234,3.3558170795440674
19,82014,82011,0.02487211301922798,-0.04905176907777786,0.9548557996749878,-3.147855520248413,7.634670734405518,-1.3124570846557617,1.9871361255645752,4.053332328796387,0.21869277954101562,-0.8354474902153015,-0.39757275581359863,3.3325610160827637
20,82024,82021,-0.025455573573708534,0.06087995693087578,1.0551650524139404,-1.9114590883255005,6.976853847503662,-1.7033987045288086,1.9870541095733643,4.052938938140869,0.22084632515907288,-0.9736536741256714,-0.36520880460739136,3.3216748237609863
21,82034,82031,0.05512133985757828,0.02138611674308777,0.9361650347709656,-0.18549291789531708,4.47111177444458,-1.6290090084075928,1.9855785369873047,4.0519795417785645,0.22300419211387634,-0.9567193984985352,-0.5412965416908264,3.2819509506225586
22,82044,82041,0.010217997245490551,0.024512771517038345,0.9939415454864502,3.5094478130340576,0.8305491209030151,-1.5581899881362915,1.9814033508300781,4.049656867980957,0.2251768559217453,-0.9208675026893616,-0.46916624903678894,3.2752525806427
23,82054,82051,0.005463529843837023,-0.0071958089247345924,0.9737902879714966,7.235910892486572,0.4536811113357544,-1.7077006101608276,1.9819926023483276,4.0478363037109375,0.2263803631067276,-0.9276500940322876,-0.41673240065574646,3.2588560581207275
24,82064,82061,0.023591144010424614,-0.0489596463739872,0.9341503381729126,8.565628051757812,-0.5086306929588318,-2.2456936836242676,1.9815410375595093,4.047445774078369,0.22847880423069,-0.9447486400604248,-0.27278828620910645,3.247917413711548
25,82074,82071,-0.014146797358989716,0.10618917644023895,0.9940260052680969,7.648446559906006,-0.44978010654449463,-1.7995518445968628,1.9810357093811035,4.0469889640808105,0.23052765429019928,-0.948578953742981,-0.1302226036787033,3.2400426864624023
26,82084,82081,0.01410882268100977,0.10182289779186249,0.9659388661384583,5.245666027069092,0.11874942481517792,-1.947536587715149,1.9798789024353027,4.048865795135498,0.23061542212963104,-1.024823546409607,-0.01488250121474266,3.2353382110595703
27,82094,82091,0.01347113586962223,0.06478006392717361,1.021616816520691,2.2887473106384277,-0.2182539701461792,-1.8171199560165405,1.9793696403503418,4.051651477813721,0.23254677653312683,-0.9262655973434448,-0.07255765050649643,3.1952733993530273
28,82104,82101,-0.005027825478464365,0.03585851937532425,1.0161665678024292,-1.0298887491226196,-0.39072415232658386,-1.3278024196624756,1.9778735637664795,4.049767017364502,0.23440669476985931,-0.9852209091186523,0.009613639675080776,3.196324348449707
29,82114,82111,-0.022948233410716057,0.008240685798227787,0.9875780344009399,-2.6418442726135254,-0.3715274930000305,-1.5488938093185425,1.976320743560791,4.0485358238220215,0.23626616597175598,-0.9841927289962769,-0.009090223349630833,3.1821951866149902
30,82124,82121,0.044450655579566956,0.08554725348949432,0.9085075855255127,-2.926755666732788,0.0825851708650589,-1.840735673904419,1.9761303663253784,4.049419403076172,0.23818400502204895,-1.0525462627410889,-0.061787161976099014,3.1599318981170654
31,82134,82131,0.07209678739309311,0.20808425545692444,0.93548983335495,-2.211597204208374,-0.474739134311676,-2.002230167388916,1.9760465621948242,4.047971725463867,0.2400539666414261,-1.123305320739746,-0.11193959414958954,3.1356122493743896
32,82144,82141,0.08299486339092255,0.13215209543704987,0.9052285552024841,-1.4630100727081299,1.5978610515594482,-1.6722769737243652,1.973912239074707,4.045547008514404,0.241242915391922,-1.1632652282714844,-0.15305528044700623,3.1113390922546387
33,82154,82151,0.033551834523677826,0.022814542055130005,0.9551618695259094,1.7226423025131226,-5.812979698181152,-1.4585421085357666,1.9744940996170044,4.045194149017334,0.24308690428733826,-1.1362310647964478,-0.1312626600265503,3.1016595363616943
34,82164,82161,0.007537648547440767,-0.08158604055643082,0.9885310530662537,2.637803792953491,-6.8668599128723145,-1.3888931274414062,1.9740118980407715,4.045053005218506,0.2446727156639099,-1.228326439857483,-0.31596481800079346,3.037177324295044
35,82174,82171,-0.009411253966391087,-0.09357284009456635,0.9634121060371399,3.1311724185943604,-7.803489685058594,-1.069815993309021,1.9742239713668823,4.047706604003906,0.24619849026203156,-0.9816480875015259,-0.09019973874092102,3.0713701248168945
36,82184,82181,0.012522194534540176,-0.035608939826488495,0.92463618516922,4.206599235534668,-9.162096977233887,-0.9084111452102661,1.9714457988739014,4.0461297035217285,0.24519577622413635,-1.016326665878296,-0.170505091547966,3.0354342460632324
37,82194,82191,0.024592502042651176,0.0021528901997953653,0.9649976491928101,3.831216812133789,-8.634956359863281,-1.2165545225143433,1.9719635248184204,4.0478668212890625,0.24654194712638855,-0.9283320307731628,-0.12972527742385864,3.023968458175659
38,82204,82201,0.031372129917144775,-0.04139087721705437,0.970779538154602,4.33275842666626,-7.26396369934082,-1.0939704179763794,1.9744993448257446,4.046787261962891,0.24773924052715302,0.24141502380371094,-0.006102193612605333,3.029871702194214
39,82214,82211,0.023263966664671898,-0.005301698110997677,0.9860813021659851,3.102768659591675,-9.016618728637695,-0.6241284012794495,1.960820198059082,4.044414043426514,0.25236082077026367,0.1698782742023468,0.06090152636170387,3.027060031890869
40,82224,82221,0.0965672954916954,-0.2051999270915985,1.002261996269226,0.5572906136512756,-1.9129499197006226,-0.867851972579956,1.9607899188995361,4.044565677642822,0.25421440601348877,0.12294913828372955,0.08447050303220749,3.023122549057007
41,82234,82231,0.041358109563589096,-0.05304497107863426,1.0066874027252197,-2.819797992706299,8.99709415435791,-1.365776777267456,1.959362268447876,4.04102897644043,0.2558712065219879,0.08091259747743607,0.07055505365133286,3.012582540512085
42,82244,82241,0.0435955636203289,-0.003690706565976143,0.9594132900238037,-4.388279438018799,19.7386417388916,-1.7993156909942627,1.960265874862671,4.04099702835083,0.2579253315925598,-0.4555577039718628,0.06572221964597702,2.9998435974121094
43,82254,82251,0.05518340319395065,-0.04171787574887276,0.9269232749938965,-4.968989849090576,24.418174743652344,-1.5254994630813599,1.9592325687408447,4.038063049316406,0.2594970762729645,-0.75960773229599,-0.015208708122372627,2.9765663146972656
44,82264,82261,0.0008526468300260603,-0.00020245804626028985,0.9807319045066833,-4.3791937828063965,21.187761306762695,-1.3277029991149902,1.9585952758789062,4.036046504974365,0.2609175145626068,-1.0407357215881348,-0.08987762033939362,2.9576990604400635
45,82274,82271,0.04835381731390953,-0.11559028923511505,1.004338264465332,-2.87304425239563,13.050115585327148,-1.0276565551757812,1.958794116973877,4.037487030029297,0.26228946447372437,-1.3472927808761597,-0.06909839063882828,2.9571540355682373
46,82284,82281,0.05628633871674538,-0.2365168035030365,0.980640172958374,-1.0248216390609741,2.346024751663208,-0.9984636902809143,1.9589205980300903,4.035641193389893,0.2638338804244995,-1.3845242261886597,-0.09551096707582474,2.9469332695007324
47,82294,82291,-0.014255830086767673,-0.16517885029315948,1.047091007232666,1.6865458488464355,-8.074837684631348,-1.2843462228775024,1.9585586786270142,4.0360331535339355,0.26521509885787964,-1.3198354244232178,-0.07816809415817261,2.9380857944488525
48,82304,82301,-0.015350522473454475,-0.08817889541387558,0.9613646864891052,3.873723268508911,-15.523555755615234,-1.6759252548217773,1.9574153423309326,4.035054683685303,0.26658204197883606,-1.1985914707183838,-0.024767950177192688,2.9286768436431885
49,82314,82311,-0.013359211385250092,0.010208088904619217,0.9782955050468445,3.942502021789551,-19.372865676879883,-1.825026273727417,1.9571963548660278,4.034823894500732,0.26622703671455383,-1.2824212312698364,0.03781084343791008,2.914114475250244
50,82324,82321,0.07099404186010361,-0.049471285194158554,0.9829418063163757,2.1163063049316406,-18.52098846435547,-1.411131739616394,1.9594897031784058,4.034677028656006,0.26742061972618103,-1.0428988933563232,0.00023162933939602226,2.888873338699341
51,82334,82331,0.02735612541437149,-0.033529505133628845,0.9646333456039429,-1.044944405555725,-16.104511260986328,-1.4816882610321045,1.958954095840454,4.035208225250244,0.26868680119514465,-0.90716552734375,-0.07508450746536255,2.8586316108703613
52,82344,82341,-0.014918073080480099,0.09113842248916626,0.9478732347488403,-3.1201272010803223,-11.728285789489746,-1.5543522834777832,1.9591025114059448,4.03543758392334,0.27121588587760925,-0.6929262280464172,0.10712354630231857,2.883388042449951
53,82354,82351,-0.043514054268598557,0.11119203269481659,1.0199072360992432,-3.587191581726074,-7.506922721862793,-1.5569082498550415,1.958404541015625,4.0335307121276855,0.2725274860858917,-0.5480302572250366,0.03180040791630745,2.86297869682312
54,82364,82361,0.07374303042888641,-0.03865526616573334,0.8974367380142212,-3.480287551879883,-3.2029449939727783,-1.7103222608566284,1.9575591087341309,4.033231258392334,0.27376437187194824,-0.4930102229118347,-0.18278183043003082,2.8141188621520996
55,82374,82371,0.11215723305940628,-0.06211084872484207,0.8901782631874084,-2.7402398586273193,-0.960064172744751,-1.4267157316207886,1.95708167552948,4.033764362335205,0.27433693408966064,-0.4865761995315552,-0.08060692250728607,2.8219382762908936
56,82384,82381,0.037818118929862976,-0.018582528457045555,0.9517324566841125,-0.38568103313446045,0.539709746837616,-1.2255024909973145,1.9570311307907104,4.030978202819824,0.2754272520542145,-0.49290701746940613,-0.029620571061968803,2.8205981254577637
57,82394,82391,0.04072016105055809,-0.13552775979042053,1.0004092454910278,1.2634663581848145,0.5080680847167969,-1.5718281269073486,1.9572381973266602,4.03180456161499,0.27640894055366516,-0.49909597635269165,-0.09949839860200882,2.7985641956329346
58,82404,82401,-0.0004149651504121721,-0.05879221111536026,0.9756852984428406,1.2428666353225708,-0.2098875641822815,-1.719171404838562,1.9560920000076294,4.031598091125488,0.27733683586120605,-0.7164416313171387,-0.0066582015715539455,2.791649580001831
59,82414,82411,0.03309788182377815,-0.0446954220533371,0.9259706139564514,1.5154905319213867,-1.9824104309082031,-1.9040801525115967,1.9578932523727417,4.030632972717285,0.27674931287765503,-1.1733523607254028,-0.510357141494751,2.692417860031128
60,82424,82421,-0.051341135054826736,0.03159792348742485,1.048545241355896,1.6954313516616821,-7.377384662628174,-1.5174272060394287,1.9611173868179321,4.034040451049805,0.27740004658699036,-1.0615566968917847,-0.433122456073761,2.683539867401123
61,82434,82431,0.0197480209171772,-0.018903415650129318,0.9565998911857605,2.5362367630004883,-9.281508445739746,-1.6039263010025024,1.959532618522644,4.032328128814697,0.2783096432685852,-0.98555988073349,-0.358736515045166,2.6813409328460693
62,82444,82441,0.05664451792836189,-0.009084845893085003,0.9689770936965942,5.055449962615967,-13.44898796081543,-1.8422446250915527,1.959505319595337,4.032227993011475,0.28142842650413513,-0.6983509659767151,-0.2536844313144684,2.6735999584198
63,82454,82451,0.16393418610095978,-0.11672554165124893,0.9663811922073364,8.84388542175293,-22.299762725830078,-1.2440879344940186,1.9576945304870605,4.031582832336426,0.28254199028015137,-0.5926246047019958,-0.09789848327636719,2.6745638847351074
64,82464,82461,0.03323281183838844,0.0027910235803574324,0.9585329294204712,10.568574905395508,-26.450252532958984,-1.258083462715149,1.957232117652893,4.031045913696289,0.28345680236816406,-0.31500884890556335,-0.12718987464904785,2.644871473312378
65,82474,82471,0.005174822639673948,-0.04753848537802696,0.9936584234237671,8.323651313781738,-23.578447341918945,-1.0952421426773071,1.9580860137939453,4.033288478851318,0.28323182463645935,0.006652855314314365,0.05653734877705574,2.6423561573028564
66,82484,82481,-0.0068111419677734375,-0.010972786694765091,1.0090241432189941,7.156881809234619,-19.32733154296875,-1.1673325300216675,1.9569603204727173,4.031896114349365,0.284037709236145,0.2209935337305069,0.13334448635578156,2.6307120323181152
67,82494,82491,0.04409361258149147,-0.06221506744623184,0.94572514295578,4.325970649719238,-13.529641151428223,-1.285773515701294,1.956619143486023,4.0333251953125,0.28477171063423157,0.3562762141227722,0.1649293750524521,2.616795301437378
68,82504,82501,0.03700984641909599,-0.045865945518016815,0.9435835480690002,1.0713553428649902,-7.962765216827393,-1.4904447793960571,1.955633282661438,4.03318452835083,0.2854447364807129,0.35860475897789,0.22497646510601044,2.6047191619873047
69,82514,82511,0.008267744444310665,0.00010437716991873458,1.0029853582382202,-0.9616163372993469,-3.1615147590637207,-1.6999707221984863,1.9556145668029785,4.0319342613220215,0.286600261926651,0.4361793100833893,0.2394840270280838,2.590331792831421
70,82524,82521,-0.030757056549191475,0.01610018126666546,1.0096014738082886,-2.6785671710968018,-1.9762206077575684,-1.5755525827407837,1.9558409452438354,4.030555725097656,0.2872680425643921,0.5486788153648376,0.2224738448858261,2.5739223957061768
71,82534,82531,0.01966739445924759,-0.047873806208372116,0.9540411829948425,-1.9854129552841187,-1.9789998531341553,-1.7515226602554321,1.9552170038223267,4.029941082000732,0.2879365086555481,0.6458223462104797,0.20492669939994812,2.5596559047698975
72,82544,82541,-0.020794082432985306,-0.013559739105403423,0.9906669855117798,-0.11948420852422714,-4.741082668304443,-1.7879667282104492,1.9545239210128784,4.029454708099365,0.2876819968223572,0.6919823884963989,0.2146681845188141,2.5407285690307617
73,82554,82551,-0.01415614690631628,0.004892032127827406,1.0151604413986206,1.9549912214279175,-6.334001541137695,-1.1993473768234253,1.9549031257629395,4.028606414794922,0.28824105858802795,0.8410981297492981,0.32620930671691895,2.5254266262054443
74,82564,82561,0.07397045195102692,-0.05457422137260437,0.9255377054214478,2.9605140686035156,-6.91826057434082,-0.9374403953552246,1.9540480375289917,4.027693748474121,0.2887926995754242,0.909231960773468,0.3021608591079712,2.5175323486328125
75,82574,82571,0.05372120067477226,-0.10880081355571747,0.9880894422531128,3.4536314010620117,-6.333471775054932,-1.0876853466033936,1.952493667602539,4.0267486572265625,0.29052290320396423,0.9779770374298096,0.37199026346206665,2.5054197311401367
76,82584,82581,0.007682022172957659,-0.2311902642250061,0.9858134984970093,1.3707053661346436,-4.074007034301758,-1.277871012687683,1.951905608177185,4.02543830871582,0.2910494804382324,1.0262477397918701,0.40803977847099304,2.4934241771698
77,82594,82591,0.05708431452512741,-0.06705305725336075,0.9540067911148071,-0.6643863320350647,-0.19046254456043243,-0.8008285164833069,1.952771544456482,4.026279926300049,0.291576087474823,1.0787197351455688,0.40898367762565613,2.4843690395355225
78,82604,82601,0.008794550783932209,0.0583496019244194,1.0061651468276978,-2.9820563793182373,0.719672679901123,-1.3733643293380737,1.9520107507705688,4.026949405670166,0.2920614182949066,0.9550261497497559,0.3735412657260895,2.4693217277526855
79,82614,82611,0.03877462074160576,0.013302025385200977,0.9697062373161316,-5.271708011627197,1.643662691116333,-0.9738432765007019,1.9535353183746338,4.028295516967773,0.29603147506713867,0.9822468757629395,0.3037799596786499,2.464266061782837
80,82624,82621,0.01992800459265709,-0.004716402851045132,0.9967094659805298,-5.298659324645996,1.5659496784210205,-1.631604552268982,1.952269196510315,4.028229236602783,0.2967075705528259,0.9895452857017517,0.2938291132450104,2.4468793869018555
81,82634,82631,0.007199812680482864,-0.04910988360643387,0.951589047908783,-3.766019582748413,0.45469745993614197,-1.2927237749099731,1.9510574340820312,4.025265693664551,0.2973281741142273,1.0019118785858154,0.22418448328971863,2.43634033203125
82,82644,82641,0.029738308861851692,-0.05392226576805115,0.948978841304779,-1.9300893545150757,-1.558681607246399,-0.885806679725647,1.950630784034729,4.02763557434082,0.29935508966445923,1.047139048576355,0.18703199923038483,2.42863130569458
83,82654,82651,0.010423016734421253,-0.012995857745409012,0.9715942740440369,0.8697498440742493,-1.986419439315796,-0.9246379137039185,1.9505207538604736,4.027756690979004,0.30003297328948975,0.7269600629806519,0.19565744698047638,2.400700807571411
84,82664,82661,0.05321403592824936,-0.04688932001590729,0.9166417121887207,2.5458316802978516,-2.0914371013641357,-0.6263465285301208,1.9540666341781616,4.027838706970215,0.30072930455207825,0.8114542365074158,0.23194138705730438,2.3914685249328613
85,82674,82671,0.021688105538487434,-0.012669081799685955,0.9647610187530518,2.8547797203063965,-4.409542560577393,-0.7693500518798828,1.953415870666504,4.02833890914917,0.3022378087043762,0.9199079871177673,0.2777514159679413,2.386099100112915
86,82684,82681,-0.007928434759378433,0.11028197407722473,0.9644659757614136,1.51351797580719,-4.619717121124268,-1.0300110578536987,1.953318476676941,4.028234004974365,0.30284383893013,1.0290541648864746,0.3810470998287201,2.367631435394287
87,82694,82691,-0.014989045448601246,0.0670083612203598,0.9371014833450317,-1.1895519495010376,-4.806806564331055,-0.3655979037284851,1.9532511234283447,4.027486801147461,0.3033895492553711,1.0696555376052856,0.43634939193725586,2.3533935546875
88,82704,82701,-0.010804292745888233,-0.10713754594326019,1.0088868141174316,-3.6523332595825195,-3.2975375652313232,-0.4422384798526764,1.95348060131073,4.027160167694092,0.3003052771091461,1.1113885641098022,0.37172266840934753,2.3564083576202393
89,82714,82711,-0.04182782769203186,-0.012148210778832436,1.042772650718689,-6.681369304656982,1.2060651779174805,-0.54344642162323,1.953999400138855,4.027434825897217,0.300582617521286,1.2174428701400757,0.2583825886249542,2.3670389652252197
90,82724,82721,-0.003856280352920294,-0.049581464380025864,0.9556294679641724,-7.561611175537109,2.9864025115966797,-0.8137894868850708,1.953296422958374,4.0278639793396,0.3008725643157959,1.199731707572937,0.18574334681034088,2.3600518703460693
91,82734,82731,0.030749129131436348,0.03435809910297394,0.9597928524017334,-7.216693878173828,5.697746276855469,-0.45023858547210693,1.9531481266021729,4.027099609375,0.3011327087879181,1.0605320930480957,-0.00022108205303084105,2.367277145385742
92,82744,82741,0.042060479521751404,-0.011140388436615467,0.9545789957046509,-4.765488147735596,5.974010467529297,-0.568755567073822,1.9532471895217896,4.026220798492432,0.2980591654777527,1.1330856084823608,0.058367252349853516,2.349409818649292
93,82754,82751,-0.007566489279270172,0.005795814096927643,1.0299527645111084,-1.609891653060913,4.308446407318115,-0.30025339126586914,1.9511175155639648,4.022876262664795,0.2980802655220032,1.057747483253479,0.07932325452566147,2.334209442138672
94,82764,82761,0.02366757020354271,-0.11785443872213364,1.0061053037643433,1.4041402339935303,3.574460744857788,-0.17229096591472626,1.9510929584503174,4.022990703582764,0.2980906367301941,1.0186673402786255,0.08407597988843918,2.3329355716705322
95,82774,82771,-0.03271132707595825,-0.09941273182630539,0.9969751834869385,2.700934886932373,3.1006085872650146,-0.26821020245552063,1.9503750801086426,4.022640705108643,0.2966759502887726,0.9729662537574768,0.1025778204202652,2.3307976722717285
96,82784,82781,-0.002439616248011589,-0.026913318783044815,1.0049922466278076,0.19997693598270416,4.081480979919434,-0.7615859508514404,1.9489758014678955,4.022603511810303,0.2965954542160034,1.0367017984390259,0.09950896352529526,2.336557149887085
97,82794,82791,0.03592296689748764,-0.0010538173373788595,0.9979022145271301,-3.5570499897003174,7.2488484382629395,-0.37035030126571655,1.9478240013122559,4.02365779876709,0.2965078353881836,0.9302470684051514,0.043589431792497635,2.336833953857422
98,82804,82801,0.03551305830478668,-0.09824825078248978,1.0319323539733887,-6.339686393737793,14.198775291442871,-0.2434142529964447,1.9479295015335083,4.024381160736084,0.2999073565006256,0.8297592401504517,-0.004031778313219547,2.334653615951538
99,82814,82811,0.07167208939790726,-0.16687199473381042,1.0141386985778809,-8.021081924438477,23.14592933654785,-0.7739446759223938,1.9469996690750122,4.024913787841797,0.30004754662513733,0.6646952033042908,0.03208017721772194,2.312220811843872
100,82824,82821,0.019531583413481712,-0.07055706530809402,0.9969030618667603,-6.134812355041504,28.30944061279297,-1.1283270120620728,1.9465011358261108,4.024145126342773,0.30021795630455017,0.400387704372406,-0.1111828088760376,2.3120806217193604
101,82834,82831,0.010156744159758091,-0.0642586275935173,0.9818751215934753,-3.3691277503967285,29.215747833251953,-1.0109338760375977,1.9457460641860962,4.0235161781311035,0.30039680004119873,0.400387704372406,-0.1111828088760376,2.3120806217193604
102,82844,82841,-0.020759616047143936,0.06598170101642609,1.0425535440444946,0.40311864018440247,26.306163787841797,-0.890466034412384,1.9454463720321655,4.024085521697998,0.3014250695705414,0.0234137661755085,-0.128713920712471,2.2957990169525146
103,82854,82851,0.007795865181833506,0.036993302404880524,1.0152708292007446,1.114707589149475,21.71331214904785,-0.39152732491493225,1.9461297988891602,4.0240302085876465,0.30166736245155334,-0.07190851867198944,-0.14519339799880981,2.288104772567749
104,82864,82861,-0.019338617101311684,0.05698629468679428,1.0029593706130981,1.2406868934631348,14.373000144958496,-0.8626626133918762,1.9437147378921509,4.0238566398620605,0.30205637216567993,-0.28236517310142517,-0.14192692935466766,2.2838385105133057
105,82874,82871,0.033281464129686356,0.1589238941669464,0.9757627248764038,0.45623382925987244,10.557721138000488,-0.35019704699516296,1.9429620504379272,4.022165298461914,0.3011528551578522,-0.47629159688949585,0.0027014019433408976,2.2650482654571533
106,82884,82881,0.026377832517027855,0.01451705489307642,0.9370882511138916,-0.09161832183599472,8.458423614501953,-0.7645012140274048,1.9426430463790894,4.02048921585083,0.30132609605789185,-0.5461345911026001,-0.018023690208792686,2.2586114406585693
107,82894,82891,-0.022248387336730957,0.01929721236228943,1.0710999965667725,-2.770831823348999,8.482072830200195,-0.6565251350402832,1.9410834312438965,4.020460605621338,0.30150315165519714,-0.6393218040466309,-0.016555793583393097,2.252103567123413
108,82904,82901,0.0508328452706337,-0.015893710777163506,0.9832989573478699,-5.5022969245910645,10.37112808227539,-0.5641636252403259,1.9407957792282104,4.018884181976318,0.3051714301109314,-0.907896101474762,-0.14033222198486328,2.2477920055389404
109,82914,82911,-0.006477478425949812,0.029708294197916985,1.0164031982421875,-6.287449836730957,12.549516677856445,-0.261802613735199,1.9409407377243042,4.019830703735352,0.30555030703544617,-1.0090628862380981,-0.18637359142303467,2.2417566776275635
110,82924,82921,-0.017391463741660118,-0.020028291270136833,0.9935625195503235,-5.926408767700195,13.38752555847168,-0.2103986144065857,1.9396036863327026,4.017634868621826,0.3059610426425934,-1.1836782693862915,-0.22371704876422882,2.2384796142578125
111,82934,82931,0.018614264205098152,-0.09278224408626556,1.0201549530029297,-4.0314435958862305,12.531067848205566,-0.9584577083587646,1.94071364402771,4.019135475158691,0.306315153837204,-1.3185017108917236,-0.28715208172798157,2.235546827316284
112,82944,82941,0.007832998409867287,-0.13073937594890594,0.9713853597640991,-1.4380245208740234,8.985932350158691,-0.8671005964279175,1.939232349395752,4.019766330718994,0.3052210807800293,-1.3847442865371704,-0.3769538700580597,2.2245748043060303
113,82954,82951,-0.04575010761618614,-0.028269171714782715,1.0048273801803589,0.9641485214233398,6.806271076202393,-0.29540935158729553,1.9367159605026245,4.01805305480957,0.305698424577713,-1.2489532232284546,-0.2717461585998535,2.2231948375701904
114,82964,82961,-0.006975846365094185,-0.02897568978369236,0.9522719979286194,2.184345245361328,5.059882640838623,0.32321497797966003,1.937185287475586,4.018004894256592,0.3060099482536316,-1.3915472030639648,-0.28476259112358093,2.2168216705322266
115,82974,82971,0.03831982985138893,-0.11330783367156982,0.951988697052002,0.74578458070755,6.3097662925720215,0.2783105671405792,1.9377681016921997,4.018405914306641,0.3050976097583771,-1.49748957157135,-0.2736514210700989,2.216827392578125
116,82984,82981,-0.018549956381320953,-0.040698129683732986,1.038540005683899,-0.6004101037979126,5.115164756774902,-0.20740118622779846,1.9353609085083008,4.017877578735352,0.305370569229126,-1.4640796184539795,-0.28183621168136597,2.2146999835968018
117,82994,82991,0.023369304835796356,-0.21339505910873413,1.0260220766067505,-2.337803840637207,8.54170036315918,-1.0175557136535645,1.9361199140548706,4.017827033996582,0.3055259883403778,-1.5867844820022583,-0.23677268624305725,2.220548152923584
118,83004,83001,0.0035556412767618895,-0.09472508728504181,1.0399768352508545,-3.570920467376709,10.495752334594727,-1.4294734001159668,1.9344723224639893,4.017955780029297,0.30551230907440186,-1.5032318830490112,-0.2979019284248352,2.2016944885253906
119,83014,83011,0.0726257711648941,-0.07966804504394531,0.9726125001907349,-3.9118106365203857,12.362211227416992,-1.618479609489441,1.934818983078003,4.018222808837891,0.30573007464408875,-1.6869126558303833,-0.3750198483467102,2.183274269104004
120,83024,83021,0.1149342879652977,-0.09825543314218521,0.9402573108673096,-2.1672937870025635,9.738933563232422,-1.451223373413086,1.9343500137329102,4.017359256744385,0.3059602379798889,-1.820302128791809,-0.45390915870666504,2.160254955291748
121,83034,83031,0.08753974735736847,-0.155022531747818,0.9868915677070618,0.20090726017951965,6.842295169830322,-1.0700446367263794,1.9349592924118042,4.017517566680908,0.306102991104126,-1.9956861734390259,-0.5029640197753906,2.141862630844116
122,83044,83041,0.061320845037698746,-0.11178441345691681,0.9468565583229065,2.49746036529541,3.3380908966064453,-1.0078256130218506,1.9348851442337036,4.016620635986328,0.30890530347824097,-2.1159756183624268,-0.4360387325286865,2.148221492767334
123,83054,83051,-0.009141506627202034,0.02908182702958584,1.0402079820632935,4.666504859924316,0.535178542137146,-1.3576475381851196,1.9350930452346802,4.016140460968018,0.3091697096824646,-2.1671721935272217,-0.4860045313835144,2.1196036338806152
124,83064,83061,0.05741479620337486,-0.039498310536146164,0.9237067699432373,4.820443153381348,-1.415750503540039,-1.4774547815322876,1.9347647428512573,4.017507553100586,0.3094475269317627,-2.1625354290008545,-0.41827693581581116,2.1126248836517334
125,83074,83071,0.013812458142638206,0.005729718133807182,0.9928693771362305,4.142359256744385,-3.5456056594848633,-1.5749021768569946,1.9351389408111572,4.0174455642700195,0.3097928464412689,-2.1934540271759033,-0.26627275347709656,2.129560708999634
126,83084,83081,0.01999383419752121,0.014541344717144966,1.0023036003112793,2.0522563457489014,-5.5310378074646,-2.0816962718963623,1.9348682165145874,4.01714563369751,0.31005552411079407,-2.1040868759155273,-0.2094721794128418,2.115297794342041
127,83094,83091,-0.044479794800281525,0.07389222830533981,0.9909241199493408,-1.5275675058364868,-5.991429328918457,-2.122112274169922,1.9356390237808228,4.017106533050537,0.3102039098739624,-2.1370370388031006,-0.1851554661989212,2.0978524684906006
128,83104,83101,-0.0675414577126503,0.063850998878479,0.9963793158531189,-4.252727031707764,-4.5446882247924805,-1.696141242980957,1.9347959756851196,4.018431186676025,0.3133985102176666,-1.9982925653457642,-0.3740963339805603,2.0162441730499268
129,83114,83111,0.02557888627052307,-0.024517744779586792,0.9866533875465393,-4.3468170166015625,-3.460564613342285,-1.2327452898025513,1.934083104133606,4.017928600311279,0.3138292133808136,-1.8822320699691772,-0.4364676773548126,1.9866987466812134
130,83124,83121,-0.006402350962162018,0.03344462811946869,1.0381392240524292,-1.7181581258773804,-2.7730891704559326,-1.6166435480117798,1.9369693994522095,4.015484809875488,0.3141061067581177,-2.0941147804260254,-0.34902307391166687,2.0270628929138184
131,83134,83131,0.028319284319877625,-0.02739522233605385,0.9688971638679504,1.1237037181854248,-1.7617548704147339,-1.514371633529663,1.9383642673492432,4.015644550323486,0.31483811140060425,-2.1446118354797363,-0.3895100951194763,2.010281801223755
132,83144,83141,0.018140707165002823,-0.04729848727583885,0.969851553440094,3.2496023178100586,-2.607022762298584,-1.1685686111450195,1.9368000030517578,4.015222549438477,0.3152718245983124,-2.049546480178833,-0.3834628164768219,1.9929126501083374
133,83154,83151,0.04811033979058266,-0.12949568033218384,0.9840145707130432,5.309072971343994,-7.964156150817871,-0.944609522819519,1.9366949796676636,4.014325141906738,0.31571242213249207,-1.8287431001663208,-0.237338125705719,2.0111541748046875
134,83164,83161,0.042062707245349884,-0.020535018295049667,0.9603593349456787,4.4985761642456055,-9.147699356079102,-1.4419413805007935,1.9361025094985962,4.014585018157959,0.3161594867706299,-1.8035751581192017,-0.174739807844162,2.0093765258789062
135,83174,83171,-0.0036845735739916563,0.23914556205272675,0.9774641990661621,1.9043008089065552,-8.459454536437988,-1.8503968715667725,1.9374120235443115,4.013909339904785,0.31774383783340454,-1.7166281938552856,-0.12508170306682587,1.994431734085083
136,83184,83181,0.02971538156270981,0.17308257520198822,0.8934646248817444,-1.8280515670776367,-7.028196811676025,-1.7684886455535889,1.9380581378936768,4.014892578125,0.31814074516296387,-1.6683578491210938,-0.2602170705795288,1.928030014038086
137,83194,83191,-0.0385475791990757,0.014641973190009594,1.0041325092315674,-2.608961582183838,-8.707286834716797,-1.1624367237091064,1.9388030767440796,4.013392448425293,0.31842154264450073,-1.6411900520324707,-0.20915259420871735,1.9310286045074463
138,83204,83201,-0.059636712074279785,-0.0002802431699819863,1.033854603767395,-2.900667428970337,-5.124549388885498,-1.5737686157226562,1.939888834953308,4.013924598693848,0.31805306673049927,-1.698871374130249,-0.2819229066371918,1.9104398488998413
139,83214,83211,-0.04404448717832565,-0.04474814981222153,1.002573847770691,-2.3610591888427734,-5.628798484802246,-1.3058397769927979,1.9418777227401733,4.0135602951049805,0.3182082176208496,-1.6477422714233398,-0.3120362162590027,1.896403431892395
140,83224,83221,-0.029842399060726166,-0.001395688857883215,0.9875425100326538,-0.10257110744714737,-6.422257423400879,-1.3765865564346313,1.9410665035247803,4.0122880935668945,0.3185702860355377,-1.4710986614227295,-0.3539949655532837,1.872589349746704
141,83234,83231,-0.013864176347851753,0.06937871873378754,0.9636980891227722,1.0981277227401733,-8.237062454223633,-1.0316054821014404,1.941627025604248,4.011765956878662,0.31751859188079834,-1.439069390296936,-0.35902947187423706,1.8629212379455566
142,83244,83241,-0.022743599489331245,0.049755752086639404,0.984220564365387,4.213451862335205,-8.94395637512207,-1.8621420860290527,1.9438735246658325,4.012759208679199,0.3176233768463135,-1.444169521331787,-0.338730126619339,1.8570914268493652
143,83254,83251,0.028427358716726303,0.08376632630825043,0.9785614013671875,5.51002311706543,-9.199217796325684,-2.0245673656463623,1.943223237991333,4.012427806854248,0.31791403889656067,-1.1955333948135376,-0.27398964762687683,1.8434967994689941
144,83264,83261,0.01881571114063263,0.03727943077683449,0.9794529676437378,4.947487831115723,-10.148455619812012,-1.561883568763733,1.9444844722747803,4.014105319976807,0.317982941865921,-1.188559889793396,-0.18635137379169464,1.8372710943222046
145,83274,83271,-0.002875454491004348,0.011982306838035583,0.9771058559417725,3.097325563430786,-8.888496398925781,-2.0069470405578613,1.9433765411376953,4.013153553009033,0.3205736577510834,-0.926317572593689,-0.18130339682102203,1.8031023740768433
146,83284,83281,-0.032464902848005295,0.026465317234396935,0.9973628520965576,0.6597055792808533,-7.669305801391602,-1.8548740148544312,1.9436607360839844,4.013766288757324,0.32079434394836426,-1.1711981296539307,-0.12228329479694366,1.801352620124817
147,83294,83291,-0.01680406555533409,0.005147463642060757,0.9614572525024414,-1.4545469284057617,-6.750237464904785,-1.8610798120498657,1.9461086988449097,4.013064861297607,0.3208436071872711,-0.931631863117218,-0.27165064215660095,1.7454805374145508
148,83304,83301,-0.03691276162862778,0.0985795110464096,1.0078850984573364,-2.5801546573638916,-4.96232271194458,-1.995308518409729,1.94565749168396,4.014726161956787,0.32291316986083984,-0.8578439950942993,-0.2820141017436981,1.7270004749298096
149,83314,83311,-0.010878186672925949,0.07646548748016357,0.977474570274353,0.48746323585510254,-5.119370937347412,-1.8673264980316162,1.946488380432129,4.0149922370910645,0.3231866955757141,-0.9205721020698547,-0.2159445434808731,1.726920485496521
150,83324,83321,0.02162107639014721,-0.016779825091362,0.9431962370872498,4.024415493011475,-5.854758262634277,-1.648024320602417,1.9475429058074951,4.014325141906738,0.3234439194202423,-0.7213290929794312,-0.18983104825019836,1.709047555923462
151,83334,83331,-0.06368065625429153,0.12115105986595154,0.968024730682373,6.7791032791137695,-8.09765338897705,-2.1525728702545166,1.946057677268982,4.0135908126831055,0.3242599666118622,-0.5854072570800781,-0.10824450850486755,1.6984010934829712
152,83344,83341,-0.046408552676439285,0.08368756622076035,0.979316234588623,6.458200931549072,-7.816028594970703,-1.6299329996109009,1.9455437660217285,4.013792991638184,0.3245696425437927,-0.4982791841030121,-0.03645185008645058,1.6741538047790527
153,83354,83351,-0.034309178590774536,0.02952825278043747,1.006166696548462,4.067409515380859,-6.168869495391846,-1.587583065032959,1.9475159645080566,4.013838768005371,0.3247309923171997,-0.42771419882774353,0.02618992328643799,1.6581811904907227
154,83364,83361,0.024064727127552032,0.04780396819114685,0.9277090430259705,0.32241255044937134,-4.493362903594971,-1.8318816423416138,1.9467430114746094,4.0139994621276855,0.3237186670303345,-0.46387434005737305,0.07262176275253296,1.6456481218338013
155,83374,83371,0.06819016486406326,0.11210786551237106,0.9107034802436829,-1.558422565460205,-3.37984299659729,-1.8816108703613281,1.9471406936645508,4.0138773918151855,0.32381579279899597,-0.36663568019866943,0.06993474066257477,1.6310842037200928
156,83384,83381,0.003651656908914447,0.07117578387260437,0.9848982691764832,-2.8606820106506348,-3.4478185176849365,-1.975582480430603,1.946476936340332,4.0144734382629395,0.3239254057407379,-0.33207857608795166,0.05511168763041496,1.611993670463562
157,83394,83391,0.005019376985728741,-0.026732973754405975,0.9578312039375305,-2.6305930614471436,-3.5968642234802246,-1.785298466682434,1.9486277103424072,4.015596866607666,0.32386520504951477,-0.4050135314464569,-0.15552116930484772,1.5810304880142212
158,83404,83401,0.02232576534152031,-0.09839052706956863,0.9923291802406311,-2.0811920166015625,-3.366058349609375,-1.6917518377304077,1.9502125978469849,4.018362998962402,0.3255699872970581,-0.23535063862800598,-0.17782385647296906,1.5621787309646606
159,83414,83411,0.035379599779844284,-0.20605164766311646,0.9747809171676636,0.9106863141059875,-5.874793529510498,-1.1448599100112915,1.9499077796936035,4.018806457519531,0.32568874955177307,-0.22328607738018036,-0.17518718540668488,1.5461390018463135
160,83424,83421,-0.0018584398785606027,-0.18368922173976898,1.029744267463684,3.5235347747802734,-6.921005725860596,-1.215850591659546,1.9510047435760498,4.018326282501221,0.325661301612854,-0.17155241966247559,-0.16876359283924103,1.528378963470459
161,83434,83431,-0.03582099452614784,0.014199204742908478,1.0588995218276978,5.404782772064209,-5.602301597595215,-0.5342422127723694,1.952256202697754,4.017200946807861,0.32848885655403137,-0.1184106096625328,-0.04510647431015968,1.5178556442260742
162,83444,83441,0.02661304920911789,-0.03308653086423874,0.9251764416694641,7.35021448135376,-3.836085557937622,-1.0003355741500854,1.9520909786224365,4.016552925109863,0.3286342918872833,-0.07979505509138107,0.06402941048145294,1.5195902585983276
163,83454,83451,0.06082086265087128,0.03947403281927109,0.93868488073349,6.406485557556152,-1.9058235883712769,-1.2342488765716553,1.953864336013794,4.01624059677124,0.3287729322910309,-0.06660319864749908,0.031134581193327904,1.5114604234695435
164,83464,83461,-0.040613558143377304,0.06667796522378922,1.0393900871276855,3.0186655521392822,-4.877279281616211,-1.338808298110962,1.95405912399292,4.01723575592041,0.32718533277511597,-0.041239965707063675,0.09436839818954468,1.5083719491958618
165,83474,83471,0.05577651038765907,-0.043636254966259,0.9917173385620117,-0.39688584208488464,-0.8013818860054016,-1.282879114151001,1.9540414810180664,4.01613187789917,0.32718896865844727,0.10972430557012558,0.16776050627231598,1.4972633123397827
166,83484,83481,0.17654411494731903,-0.11367037892341614,0.9340129494667053,-2.223151206970215,-2.5191025733947754,-1.1933350563049316,1.9525120258331299,4.016624450683594,0.3273395001888275,-0.0720815658569336,0.15898796916007996,1.4842216968536377
167,83494,83491,0.08233097940683365,-0.04500190541148186,0.9605231285095215,-3.264852285385132,-3.9394803047180176,-0.8359792232513428,1.95404851436615,4.016624450683594,0.3271709084510803,0.09030672907829285,0.05023772642016411,1.4874937534332275
168,83504,83501,0.01928960345685482,-0.062257319688797,0.972416341304779,-3.0335047245025635,-4.321690082550049,-0.8520640730857849,1.9537088871002197,4.01758337020874,0.3282180726528168,0.1322437971830368,0.019314225763082504,1.4792606830596924
169,83514,83511,0.024348638951778412,-0.0096800671890378,0.9334062933921814,-0.9529449343681335,-4.33934211730957,-0.9570824503898621,1.9512823820114136,4.016674518585205,0.32825151085853577,0.12217361479997635,0.07303757965564728,1.4636365175247192
170,83524,83521,0.01309969276189804,0.014180601574480534,0.9500320553779602,2.864811897277832,-1.5075774192810059,-0.7338585257530212,1.9542627334594727,4.015992641448975,0.328100323677063,0.13117294013500214,0.09092247486114502,1.4522087574005127
171,83534,83531,-0.013144305907189846,0.0026322209741920233,0.9896497130393982,4.368279933929443,2.5644497871398926,-0.20491385459899902,1.956046223640442,4.016441345214844,0.3279332220554352,0.24139522016048431,0.15217114984989166,1.4427262544631958
172,83544,83541,0.11570718139410019,-0.10324697941541672,0.988000750541687,4.192363262176514,1.5880969762802124,-0.4836960434913635,1.9556398391723633,4.015649318695068,0.32786914706230164,0.2435876876115799,0.15445725619792938,1.4393070936203003
173,83554,83551,0.09854846447706223,-0.058296509087085724,0.9878344535827637,1.6193358898162842,1.4973187446594238,-0.8256016969680786,1.955705165863037,4.015942573547363,0.32778334617614746,0.2391376942396164,0.21558000147342682,1.4331756830215454
174,83564,83561,0.06681841611862183,-0.06124678626656532,0.918196439743042,-1.5712065696716309,0.9168390035629272,-0.9365155696868896,1.9559354782104492,4.015214443206787,0.3270547389984131,0.23997379839420319,0.22915931046009064,1.4238964319229126
175,83574,83571,0.032783497124910355,-0.03939666599035263,0.9955711364746094,-3.0348012447357178,0.43362870812416077,-1.190672516822815,1.9567872285842896,4.015603065490723,0.3268347680568695,0.10111341625452042,0.20523828268051147,1.402483582496643
176,83584,83581,0.03736259043216705,-0.05389583110809326,0.9453908801078796,-3.7212278842926025,0.18116921186447144,-0.9635294675827026,1.958490252494812,4.015806674957275,0.3264704942703247,0.2084754854440689,0.15958327054977417,1.4020404815673828
177,83594,83591,0.07989879697561264,-0.04494094103574753,0.8883885741233826,-3.4496402740478516,-1.5263103246688843,-0.8090421557426453,1.9579740762710571,4.0144782066345215,0.3263087868690491,0.3162371814250946,0.2575502097606659,1.3707115650177002
178,83604,83601,0.03199964016675949,-0.015362447127699852,0.9471304416656494,-1.6162140369415283,-3.4293346405029297,-0.0702979639172554,1.9576531648635864,4.013044834136963,0.324489027261734,0.2878255844116211,0.20606574416160583,1.362258791923523
179,83614,83611,0.05112023651599884,-0.10970715433359146,0.9887086749076843,-1.529128909111023,-2.189410924911499,0.4759843051433563,1.9591158628463745,4.013062477111816,0.323951780796051,0.35014209151268005,0.09828086197376251,1.3718845844268799
180,83624,83621,0.045409493148326874,-0.21956638991832733,1.0054086446762085,-0.9951662421226501,-0.5280714631080627,-0.9200198650360107,1.9595301151275635,4.013800144195557,0.323439359664917,0.45795273780822754,0.0795072466135025,1.3713473081588745
181,83634,83631,0.03991461172699928,-0.15658274292945862,0.9970709085464478,-1.278247594833374,2.490194797515869,-0.26117628812789917,1.9587641954421997,4.013776779174805,0.32314082980155945,0.3764689266681671,0.06458622962236404,1.373326301574707
182,83644,83641,-0.0029710480011999607,-0.07381004840135574,1.0764294862747192,-0.554500937461853,9.53095531463623,-1.211803674697876,1.9601733684539795,4.012443542480469,0.32259827852249146,0.35005906224250793,0.053157635033130646,1.3569459915161133
183,83654,83651,0.040686044842004776,-0.05361589789390564,0.9258779883384705,0.010950781404972076,13.159957885742188,-1.6275548934936523,1.960857629776001,4.012495040893555,0.32213902473449707,0.28387194871902466,0.046542901545763016,1.346290111541748
184,83664,83661,0.07723759114742279,0.023459820076823235,0.9160280227661133,0.1030171811580658,14.242353439331055,-1.5753512382507324,1.9610860347747803,4.011388778686523,0.32038259506225586,0.1638658046722412,0.04772453382611275,1.3224059343338013
185,83674,83671,0.043338630348443985,-0.008502298034727573,0.9419325590133667,0.3577671945095062,9.680728912353516,-1.4893492460250854,1.9621514081954956,4.011813163757324,0.31976282596588135,0.020975878462195396,0.05018772929906845,1.3062177896499634
186,83684,83681,0.018125131726264954,0.04164731875061989,1.0394916534423828,-0.17374323308467865,5.408592224121094,-1.2287993431091309,1.9624583721160889,4.012040615081787,0.31919968128204346,0.018327970057725906,0.05902821943163872,1.2931710481643677
187,83694,83691,-0.02683890052139759,-0.07795558124780655,1.0161908864974976,-0.12151017040014267,2.449467182159424,-1.0332101583480835,1.9633134603500366,4.01119327545166,0.31597641110420227,-0.07564246654510498,0.05778537690639496,1.2790987491607666
188,83704,83701,-0.03405134752392769,-0.06413943320512772,1.0225908756256104,-0.5789172053337097,0.3054494857788086,-1.1996181011199951,1.9628900289535522,4.012288570404053,0.31521451473236084,-0.04580569639801979,0.056128695607185364,1.2694599628448486
189,83714,83711,0.0009164528455585241,0.02859930507838726,1.0300637483596802,-0.4402461051940918,0.2894354462623596,-1.3728715181350708,1.96202552318573,4.011964321136475,0.31446611881256104,0.015104657039046288,0.04815421998500824,1.2600370645523071
190,83724,83721,0.019361289218068123,-0.038900379091501236,1.0398848056793213,-1.8100954294204712,0.5144217610359192,-1.4126192331314087,1.9635823965072632,4.012141227722168,0.31365272402763367,-0.07715374231338501,0.041206520050764084,1.2341665029525757
191,83734,83731,-0.021473275497555733,0.03446991741657257,1.060646891593933,-2.3111190795898438,0.6816690564155579,-1.707395315170288,1.9627282619476318,4.011955261230469,0.3130803406238556,-0.014017848297953606,0.014774426817893982,1.236137866973877
192,83744,83741,-0.05817236378788948,0.011333826929330826,1.0385103225708008,-2.9386303424835205,2.0339839458465576,-2.0186798572540283,1.9630666971206665,4.01069974899292,0.31248939037323,0.03915977478027344,0.0554533489048481,1.208082675933838
193,83754,83751,-0.006580942310392857,0.0071207694709300995,1.0419567823410034,-3.3037772178649902,4.96959114074707,-1.721711277961731,1.9651165008544922,4.009344577789307,0.31180790066719055,-0.08514208346605301,0.15415538847446442,1.1697701215744019
194,83764,83761,0.04147220402956009,-0.08429904282093048,1.0194587707519531,-4.458643913269043,6.439204216003418,-1.3045228719711304,1.9655752182006836,4.008597373962402,0.3097723722457886,-0.09368878602981567,0.08354789763689041,1.145278811454773
195,83774,83771,0.03487149626016617,-0.07708588987588882,1.109390377998352,-5.872678279876709,6.610227584838867,-1.6124345064163208,1.9659050703048706,4.009215354919434,0.3091607987880707,-0.12861007452011108,-0.0041955821216106415,1.138558030128479
196,83784,83781,0.04554912820458412,-0.09880110621452332,1.0347858667373657,-5.878470420837402,6.516922473907471,-1.7814762592315674,1.9662896394729614,4.009949684143066,0.3085491955280304,-0.24474959075450897,-0.10981404781341553,1.1341975927352905
197,83794,83791,0.022297099232673645,0.000620635983068496,0.9696629047393799,-5.039430618286133,4.520389556884766,-2.2705163955688477,1.9655213356018066,4.009232997894287,0.30740857124328613,-0.2765846848487854,-0.1359008550643921,1.104457974433899
198,83804,83801,-0.021684732288122177,0.027142144739627838,1.0972940921783447,-3.631624221801758,-0.12764354050159454,-1.6317588090896606,1.9663667678833008,4.008884906768799,0.3068404793739319,-0.36075058579444885,-0.22742922604084015,1.0829051733016968
199,83814,83811,0.034331902861595154,-0.07537978887557983,1.106509804725647,-1.2895208597183228,-0.6565480828285217,-1.7961281538009644,1.9664008617401123,4.008604049682617,0.3063980042934418,-0.294416218996048,-0.29104313254356384,1.0621827840805054
200,83824,83821,-0.02974570356309414,0.01141792256385088,1.1120048761367798,0.24194486439228058,-0.12337303906679153,-2.085517168045044,1.9678207635879517,4.008857250213623,0.30592918395996094,-0.3734208047389984,-0.31387171149253845,1.0440077781677246
201,83834,83831,0.02293865568935871,0.0038700562436133623,1.060028314590454,1.709804654121399,1.1317170858383179,-1.4871314764022827,1.9683613777160645,4.007635593414307,0.30564069747924805,-0.3704383373260498,-0.3096034526824951,1.0100362300872803
202,83844,83841,0.03184599056839943,-0.05359242856502533,0.948894739151001,2.4155960083007812,1.579324722290039,-2.1572561264038086,1.9700522422790527,4.008370399475098,0.3053267002105713,-0.4526786506175995,-0.3560849726200104,0.9852524995803833
203,83854,83851,0.016318265348672867,0.032545529305934906,1.051684021949768,3.014082670211792,-0.7876341938972473,-2.5776031017303467,1.9703971147537231,4.008056640625,0.3052103817462921,-0.39104390144348145,-0.3063119053840637,0.9704740047454834
204,83864,83861,-0.0014736647717654705,-0.034004002809524536,1.027029275894165,2.940411329269409,-1.4694762229919434,-2.8924195766448975,1.9710859060287476,4.0080246925354,0.30726510286331177,-0.4518090486526489,-0.32416874170303345,0.9416938424110413
205,83874,83871,-0.004676292650401592,0.017088698223233223,1.0869684219360352,3.6153955459594727,-1.5459762811660767,-3.4602019786834717,1.9710166454315186,4.007827281951904,0.30731189250946045,-0.3482148349285126,-0.2620388865470886,0.9103676080703735
206,83884,83881,-0.039170749485492706,-0.002125756349414587,1.066994309425354,2.6272335052490234,0.7348203063011169,-3.6032633781433105,1.9713941812515259,4.007140636444092,0.30734017491340637,-0.31794989109039307,-0.19157540798187256,0.8687799572944641
207,83894,83891,0.0199973713606596,-0.030093614012002945,1.0661029815673828,0.834446132183075,5.951134204864502,-3.4935243129730225,1.970792293548584,4.005941390991211,0.3076745569705963,-0.24772070348262787,-0.1371307373046875,0.8124450445175171
208,83904,83901,-0.0013674510410055518,-0.04199106618762016,1.0320965051651,1.148520588874817,3.5559964179992676,-3.6737499237060547,1.9720373153686523,4.00588846206665,0.30777889490127563,-0.40469059348106384,-0.1079258844256401,0.7921733856201172
209,83914,83911,0.014932788908481598,-0.025971660390496254,1.0453532934188843,-0.45160746574401855,2.979487657546997,-3.71189284324646,1.9707783460617065,4.005561351776123,0.30808812379837036,-0.3099924623966217,-0.08587472140789032,0.7560723423957825
210,83924,83921,0.019180437549948692,-0.058655064553022385,1.0074793100357056,-0.24321497976779938,0.5690490007400513,-4.558351039886475,1.9717847108840942,4.005162715911865,0.3082864582538605,-0.44789251685142517,-0.09301252663135529,0.7152296900749207
211,83934,83931,-0.006733783055096865,-0.0036646428052335978,1.0328367948532104,0.8692155480384827,-1.5415018796920776,-4.517426013946533,1.9725682735443115,4.006343841552734,0.3098869025707245,-0.4592001140117645,-0.09685489535331726,0.6960926651954651
212,83944,83941,-0.033735491335392,0.09068357944488525,1.0251795053482056,2.867004156112671,-3.7117414474487305,-4.487152576446533,1.9717119932174683,4.006065845489502,0.31035399436950684,-0.36042410135269165,-0.0812111347913742,0.6431971788406372
213,83954,83951,-0.023493509739637375,0.15250982344150543,0.9954177141189575,4.723606109619141,-5.363149166107178,-3.9807748794555664,1.9725549221038818,4.005010604858398,0.310718297958374,-0.3716234564781189,-0.02943076379597187,0.5986324548721313
214,83964,83961,0.0018136892467737198,0.1531423181295395,0.992351770401001,5.366526126861572,-5.715987682342529,-3.441526412963867,1.9728095531463623,4.004695415496826,0.31159508228302,-0.2750808000564575,-0.02415655553340912,0.5474490523338318
215,83974,83971,0.034436993300914764,0.0055127437226474285,0.9696093797683716,6.04661750793457,-4.664339065551758,-2.6646242141723633,1.9723886251449585,4.005062580108643,0.31208643317222595,-0.17613869905471802,-0.0034765638411045074,0.5123782157897949
216,83984,83981,0.04971786588430405,-0.07577444612979889,0.9618571400642395,5.075767517089844,0.2965582609176636,-2.7251298427581787,1.9746689796447754,4.004330158233643,0.3124351501464844,-0.24696047604084015,0.10424761474132538,0.4858000576496124
217,83994,83991,0.029362883418798447,-0.2024526447057724,0.9731845855712891,2.6413514614105225,3.465183734893799,-3.2465829849243164,1.9756826162338257,4.005241394042969,0.31324002146720886,-0.24187812209129333,0.18873144686222076,0.4669893980026245
218,84004,84001,-0.014653707854449749,-0.08425378799438477,0.9833413362503052,-1.5597752332687378,2.204094886779785,-4.070575714111328,1.9754869937896729,4.005892276763916,0.3136250078678131,-0.2176412045955658,0.23001247644424438,0.45889508724212646
219,84014,84011,0.03190935403108597,0.012535861693322659,0.9595105648040771,-4.288140296936035,2.3446929454803467,-3.9379076957702637,1.9771169424057007,4.005904197692871,0.31391116976737976,-0.33024707436561584,0.20579935610294342,0.4100360870361328
220,84024,84021,0.010917974635958672,0.016037657856941223,0.9930086731910706,-3.8058743476867676,1.776535987854004,-3.5576467514038086,1.9780610799789429,4.006199359893799,0.31421905755996704,-0.36202284693717957,0.13986432552337646,0.37162554264068604
221,84034,84031,-0.04715198278427124,-0.04652484133839607,1.006311058998108,-3.3219826221466064,0.7376431822776794,-3.3754541873931885,1.9790984392166138,4.00532341003418,0.3122727572917938,-0.3855675160884857,0.07213177531957626,0.3140355050563812
222,84044,84041,-0.0393182672560215,-0.060402192175388336,0.9800640940666199,-1.093692421913147,0.4856990575790405,-3.157567024230957,1.979180932044983,4.005555629730225,0.3124796748161316,-0.3098757565021515,0.020586516708135605,0.2811441719532013
223,84054,84051,0.00882678758352995,-0.004028837196528912,0.9773303866386414,1.725412130355835,0.7456362843513489,-3.2855496406555176,1.9797096252441406,4.004415988922119,0.3127158582210541,-0.23831558227539062,0.08593982458114624,0.2513121962547302
224,84064,84061,0.00794251263141632,0.029904456809163094,0.9798961281776428,2.2894461154937744,1.3491148948669434,-2.56848406791687,1.981986165046692,4.004974842071533,0.3135652244091034,-0.4087502062320709,0.11300078779459,0.2087331861257553
225,84074,84071,0.0036073934752494097,-0.05037742853164673,0.9389343857765198,1.3931949138641357,0.9852400422096252,-2.3976664543151855,1.98186457157135,4.003695487976074,0.31377720832824707,-0.3411403000354767,0.14659665524959564,0.17626141011714935
226,84084,84081,0.005752264522016048,-0.04077822342514992,0.9615646600723267,-1.3601069450378418,-0.5693152546882629,-1.1202471256256104,1.9828583002090454,4.0034637451171875,0.3137943744659424,-0.42892593145370483,0.16208459436893463,0.15472260117530823
227,84094,84091,0.0030827573500573635,0.07553060352802277,1.0342882871627808,-4.341583251953125,-3.0332212448120117,-0.8807595372200012,1.9825190305709839,4.003427028656006,0.3119228780269623,-0.32522812485694885,0.13117937743663788,0.13082975149154663
228,84104,84101,0.0014825331745669246,0.01732032746076584,0.9891117215156555,-6.124317646026611,-4.5878729820251465,-0.6862729787826538,1.9822627305984497,4.002964973449707,0.3119349479675293,-0.1937013417482376,0.05377794802188873,0.1252920925617218
229,84114,84111,-0.0037710911128669977,-0.030597340315580368,0.9804532527923584,-6.433106899261475,-3.852313756942749,-0.47084373235702515,1.9816632270812988,4.003049850463867,0.3119375705718994,-0.04287669062614441,-0.05067799612879753,0.10337536782026291
230,84124,84121,-0.01286270935088396,0.00748363696038723,1.0350310802459717,-5.735830307006836,-1.7550736665725708,-0.14576230943202972,1.984205961227417,4.002974510192871,0.31257909536361694,-0.2235320806503296,-0.1525905728340149,0.10346503555774689
231,84134,84131,-0.004559263586997986,0.024153579026460648,1.04171884059906,-2.561779260635376,0.59722900390625,0.07092021405696869,1.9847553968429565,4.002438545227051,0.31257638335227966,-0.1818763017654419,-0.2383674532175064,0.0855870395898819
232,84144,84141,0.0012299185618758202,0.0033971313387155533,1.008687138557434,1.561535358428955,1.7447667121887207,0.2838933765888214,1.987107276916504,4.002573013305664,0.31246209144592285,-0.3386152386665344,-0.26813215017318726,0.08364022523164749
233,84154,84151,0.011518655344843864,-0.04862755164504051,0.9540805220603943,5.342897891998291,1.3880009651184082,0.6874146461486816,1.987401008605957,4.00201940536499,0.31262925267219543,-0.2654520273208618,-0.148304283618927,0.09399042278528214
234,84164,84161,0.01577034778892994,-0.010141068138182163,0.9955751299858093,7.212766647338867,0.11438498646020889,0.646811306476593,1.988115668296814,4.001052379608154,0.3138359785079956,-0.27279549837112427,-0.050427425652742386,0.10061056911945343
235,84174,84171,0.02643749862909317,0.019255423918366432,1.0028963088989258,6.535079479217529,-1.7600353956222534,0.8403286337852478,1.9879225492477417,4.00137996673584,0.3139995038509369,-0.17871999740600586,0.07250189036130905,0.13421911001205444
236,84184,84181,0.0319303423166275,-0.019973929971456528,0.9704107046127319,2.169173002243042,-3.744915008544922,1.349746823310852,1.9882352352142334,4.00180721282959,0.3140866756439209,-0.1421179324388504,0.09518229216337204,0.14275944232940674
237,84194,84191,0.009198837913572788,-0.02404487319290638,0.9895592927932739,-2.756335973739624,-4.287045001983643,1.3881460428237915,1.987566351890564,4.001905918121338,0.3179694712162018,-0.001217646524310112,0.12578733265399933,0.15781334042549133
238,84204,84201,-0.002360439160838723,-0.019145315513014793,0.9935657382011414,-7.286062717437744,-2.3251895904541016,1.7235987186431885,1.9889880418777466,4.002572536468506,0.31821441650390625,-0.01182226650416851,0.06978870183229446,0.1797310709953308
239,84214,84211,-0.006962923798710108,0.025211872532963753,1.0278117656707764,-6.834325790405273,1.014601707458496,1.4540448188781738,1.9901831150054932,4.0027008056640625,0.3184569776058197,-0.05132284387946129,-0.05189543217420578,0.17844158411026
