,timestamp_start,timestamp_end,acc.x,acc.y,acc.z,gyro.x,gyro.y,gyro.z,stateEstimate.x,stateEstimate.y,stateEstimate.z,stabilizer.pitch,stabilizer.roll,stabilizer.yaw
0,42616,42614,-0.022922951728105545,0.05886387079954147,0.9628063440322876,11.766430854797363,16.26005744934082,-2.600529432296753,1.878127098083496,3.9196972846984863,0.1681598573923111,1.0326400995254517,-0.15716424584388733,3.036759853363037
1,42626,42624,-0.0008514415239915252,0.05226951465010643,0.9147294163703918,14.441551208496094,11.045989990234375,-2.190310001373291,1.876387596130371,3.918342113494873,0.17296870052814484,1.181653618812561,0.19636599719524384,2.965559244155884
2,42636,42634,-0.02911868318915367,0.09290961921215057,0.9308483600616455,12.850577354431152,1.6549630165100098,-0.9513417482376099,1.8787635564804077,3.922611713409424,0.17216819524765015,0.9501197338104248,0.332691490650177,2.9481234550476074
3,42646,42644,0.002901471685618162,-0.023036150261759758,0.9155906438827515,9.185998916625977,-4.648755073547363,-0.6156129240989685,1.879315972328186,3.9204318523406982,0.17502960562705994,0.8738990426063538,0.8712800145149231,2.8224823474884033
4,42656,42654,0.01731966808438301,-0.048538874834775925,0.932908296585083,1.6713966131210327,-4.586752891540527,1.0196455717086792,1.8716212511062622,3.9046177864074707,0.17341189086437225,2.134169816970825,3.320613384246826,2.2997357845306396
5,42666,42664,0.020123187452554703,-0.07054906338453293,0.9622772932052612,-16.829212188720703,-3.6106116771698,3.131582736968994,1.8713297843933105,3.906479835510254,0.18212124705314636,2.2011423110961914,2.896352767944336,2.4255523681640625
6,42676,42674,0.06400886923074722,-0.12800434231758118,0.9395344853401184,-39.931949615478516,3.5178515911102295,1.986294150352478,1.8709524869918823,3.9068400859832764,0.18939357995986938,2.1426305770874023,2.294743776321411,2.541354179382324
7,42686,42684,0.04887242615222931,-0.17601530253887177,0.9022456407546997,-59.47734451293945,14.458526611328125,0.9136994481086731,1.8697105646133423,3.906186819076538,0.19378438591957092,2.0893242359161377,1.653183937072754,2.6166343688964844
8,42696,42694,0.005416936706751585,-0.014732301235198975,0.9362196326255798,-67.50946807861328,23.586612701416016,0.7583184242248535,1.8689953088760376,3.9072561264038086,0.19223521649837494,1.8560175895690918,0.662876546382904,2.7171735763549805
9,42706,42704,0.02174074575304985,-0.02274172380566597,0.8954196572303772,-68.64984130859375,31.85642433166504,1.1857069730758667,1.8686985969543457,3.909088134765625,0.19544561207294464,1.461910605430603,-0.1737782061100006,2.7397241592407227
10,42716,42714,-0.005922600626945496,0.025663267821073532,0.9483862519264221,-56.37370300292969,37.08984375,1.9747719764709473,1.8673875331878662,3.9089884757995605,0.19791369140148163,1.2507045269012451,-0.878950834274292,2.7934999465942383
11,42726,42724,0.028556907549500465,0.07037842273712158,0.9511818885803223,-38.28602981567383,39.14280319213867,1.484675407409668,1.8668416738510132,3.9105770587921143,0.20030145347118378,0.9435643553733826,-1.5326111316680908,2.848865032196045
12,42736,42734,0.01696976087987423,-0.0783412829041481,0.9663898944854736,-16.229236602783203,33.26066970825195,1.73790442943573,1.8681004047393799,3.911520481109619,0.1963755488395691,0.3096749484539032,-1.9093354940414429,2.821319580078125
13,42746,42744,0.060875825583934784,-0.02326337620615959,0.9505633115768433,2.2775962352752686,25.228961944580078,1.761817455291748,1.8668675422668457,3.9128482341766357,0.1982083022594452,0.12462914735078812,-2.216280460357666,2.8811745643615723
14,42756,42754,0.05649259686470032,-0.1126374751329422,0.9502628445625305,16.761966705322266,14.319646835327148,1.3324366807937622,1.8653457164764404,3.914268970489502,0.20027637481689453,-0.08455894142389297,-2.103384256362915,2.883747100830078
15,42766,42764,-0.0036948842462152243,-0.1718490868806839,1.0049694776535034,24.5682430267334,3.9941318035125732,1.4437998533248901,1.8653430938720703,3.916149139404297,0.19830308854579926,-0.20131532847881317,-1.9263746738433838,2.89444899559021
16,42776,42774,0.00845714658498764,-0.1564805656671524,0.9766642451286316,23.051284790039062,0.2609999477863312,1.6270705461502075,1.8647311925888062,3.9184439182281494,0.19988411664962769,-0.24678128957748413,-1.868004560470581,2.9294328689575195
17,42786,42784,0.015294741839170456,-0.07907851040363312,0.9434577226638794,14.528332710266113,-0.27213671803474426,2.0092647075653076,1.86489999294281,3.9196341037750244,0.2015816867351532,-0.3003547489643097,-1.670150637626648,2.950167179107666
18,42796,42794,0.09346382319927216,-0.09692920744419098,0.9646629691123962,6.21621036529541,0.6118536591529846,-0.003205228829756379,1.8640483617782593,3.920414924621582,0.20202718675136566,-0.2593177258968353,-1.6102665662765503,2.965022563934326
19,42806,42804,0.0007478263578377664,0.03263449668884277,0.9752524495124817,-2.73173451423645,2.447690963745117,0.3817582428455353,1.862626552581787,3.9221646785736084,0.20342551171779633,-0.17220783233642578,-1.67720627784729,2.9540789127349854
20,42816,42814,0.010361791588366032,-0.0446859635412693,0.9596194624900818,-6.30018424987793,5.837890625,0.08658581972122192,1.8648219108581543,3.9249181747436523,0.20507073402404785,-0.3653639256954193,-1.7800242900848389,2.9874584674835205
21,42826,42824,-0.00633670948445797,-0.023950692266225815,1.0119980573654175,-6.476672649383545,9.6155424118042,-0.3484990894794464,1.8639510869979858,3.9285151958465576,0.20662562549114227,-0.44921666383743286,-1.9295364618301392,2.981020212173462
22,42836,42834,0.011034105904400349,-0.011124810203909874,1.0838207006454468,-4.3185577392578125,12.770541191101074,0.29751983284950256,1.86337149143219,3.9289653301239014,0.20560818910598755,-0.42442595958709717,-2.0437662601470947,2.9449286460876465
23,42846,42844,0.06251682341098785,-0.1239323690533638,1.0694875717163086,5.594873905181885,11.650246620178223,0.13538683950901031,1.860987901687622,3.9297146797180176,0.20720233023166656,-0.5383008718490601,-2.0726888179779053,2.937192678451538
24,42856,42854,0.0369332917034626,-0.06801614910364151,1.0271430015563965,12.329418182373047,12.643814086914062,-0.1054229661822319,1.8603752851486206,3.9329800605773926,0.20860739052295685,-0.8022987246513367,-2.167466878890991,2.9503746032714844
25,42866,42864,-0.006276652682572603,-0.010992336086928844,1.0228222608566284,19.238012313842773,10.624556541442871,-0.6050422191619873,1.8593428134918213,3.9323301315307617,0.21094869077205658,-0.8891106247901917,-1.8764487504959106,2.9464118480682373
26,42876,42874,0.006781360600143671,0.005243182182312012,1.068574070930481,23.826915740966797,7.0822625160217285,-0.09220968931913376,1.8594162464141846,3.932918071746826,0.21266372501850128,-1.0937868356704712,-1.6539397239685059,2.967630386352539
27,42886,42884,0.01239994540810585,-0.008837691508233547,0.9792599081993103,25.599109649658203,1.7927552461624146,-0.4872918426990509,1.8606091737747192,3.9361233711242676,0.21439819037914276,-1.14303719997406,-1.4038375616073608,2.9583938121795654
28,42896,42894,0.010587542317807674,0.016887901350855827,0.9279112815856934,21.218406677246094,-2.2099361419677734,-0.11963853240013123,1.8585363626480103,3.9373443126678467,0.2167738676071167,-0.9195507764816284,-1.2610454559326172,2.886823892593384
29,42906,42904,0.0008603048045188189,-0.014543741010129452,0.9930002689361572,17.902530670166016,-1.797555685043335,0.2374216765165329,1.8605958223342896,3.9409947395324707,0.21864892542362213,-1.0028619766235352,-1.0288540124893188,2.9199743270874023
30,42916,42914,-0.03207872062921524,0.11426746100187302,1.0192562341690063,11.144306182861328,0.1918257474899292,0.07051782310009003,1.860539197921753,3.9431703090667725,0.22028431296348572,-1.0745552778244019,-1.096665620803833,2.9077250957489014
31,42926,42924,0.0020580028649419546,0.07474134117364883,1.0101921558380127,9.9265718460083,-0.5499797463417053,-0.2904917895793915,1.8615963459014893,3.9447309970855713,0.22213806211948395,-1.1625455617904663,-0.84052973985672,2.952502489089966
32,42936,42934,-0.05988943576812744,0.03466207906603813,1.086099624633789,9.63397216796875,-6.307464122772217,-0.5513869524002075,1.8610203266143799,3.9469969272613525,0.22380512952804565,-1.1137100458145142,-0.8445997834205627,2.926143169403076
33,42946,42944,-0.01738317310810089,-0.018657367676496506,0.9978451728820801,9.307782173156738,-3.537628173828125,-0.1994495540857315,1.859956979751587,3.9494404792785645,0.2255118489265442,-1.0995045900344849,-0.8297853469848633,2.9117069244384766
34,42956,42954,0.005972832906991243,-0.0022035459987819195,0.9817777276039124,10.36559772491455,-1.2056605815887451,-0.2871885895729065,1.8591705560684204,3.949343204498291,0.227494016289711,-1.0430349111557007,-0.5699593424797058,2.9342589378356934
35,42966,42964,0.03283356875181198,-0.04911372438073158,1.0236849784851074,13.124067306518555,-1.3027925491333008,-1.2073075771331787,1.8598848581314087,3.9510350227355957,0.23021279275417328,-1.0850578546524048,-0.4508817791938782,2.9352774620056152
36,42976,42974,0.0033808560110628605,-0.051087234169244766,0.9686203002929688,15.3082857131958,-2.9811019897460938,-1.1160764694213867,1.8599154949188232,3.952381134033203,0.23206715285778046,-1.1056983470916748,-0.2815772294998169,2.933652639389038
37,42986,42984,-0.009357905015349388,-0.10741204768419266,0.967928409576416,15.51216983795166,-3.542924404144287,-0.9248326420783997,1.8595304489135742,3.952817916870117,0.23388949036598206,-1.1022160053253174,-0.17926819622516632,2.9160571098327637
38,42996,42994,-0.0026150366757065058,-0.009827597066760063,1.000948429107666,12.913220405578613,-5.000540256500244,-0.8916108012199402,1.8586721420288086,3.952307939529419,0.23450790345668793,-1.0754666328430176,0.07131610810756683,2.928513765335083
39,43006,43004,0.08823996037244797,-0.10817758738994598,0.9859797358512878,11.008504867553711,-7.722117900848389,-1.699524164199829,1.8583585023880005,3.953407049179077,0.2362368404865265,-1.0161298513412476,0.11604326963424683,2.896334648132324
40,43016,43014,0.0024026669561862946,-0.0916571095585823,1.0252281427383423,9.446524620056152,-8.019694328308105,-2.0447170734405518,1.8577616214752197,3.9549503326416016,0.23791974782943726,-0.9194674491882324,0.06428764015436172,2.840656280517578
41,43026,43024,0.0021021352149546146,-0.1084601953625679,0.9290130138397217,8.021361351013184,-6.989588737487793,-1.5307693481445312,1.8574243783950806,3.9571566581726074,0.2393871396780014,-0.8367409110069275,0.07889530062675476,2.8067288398742676
42,43036,43034,-0.017191214486956596,0.017527490854263306,1.021376609802246,8.622097969055176,-4.624317169189453,-1.7395226955413818,1.8559770584106445,3.956312656402588,0.2411293089389801,-0.7515973448753357,0.24337467551231384,2.8074779510498047
43,43046,43044,0.02679453417658806,-0.022739244624972343,1.009338140487671,8.928986549377441,-3.2309858798980713,-1.3852986097335815,1.8558123111724854,3.9584410190582275,0.2427656054496765,-0.7225562334060669,0.25983327627182007,2.7751247882843018
44,43056,43054,0.07425334304571152,-0.1334962546825409,1.019658088684082,10.394647598266602,-4.994351387023926,-1.0652215480804443,1.8569217920303345,3.9606192111968994,0.2445715069770813,-0.6897708177566528,0.4456957280635834,2.7749476432800293
45,43066,43064,0.03782875835895538,-0.14208984375,1.0346853733062744,12.117703437805176,-4.042588710784912,-2.143941879272461,1.8568079471588135,3.9614434242248535,0.24583406746387482,-0.6494091749191284,0.5707510709762573,2.759645938873291
46,43076,43074,0.014455900527536869,-0.08402540534734726,1.013065218925476,11.647138595581055,-1.5917115211486816,-2.6284899711608887,1.8575094938278198,3.9603476524353027,0.2476276308298111,-0.6269626617431641,0.8541600108146667,2.7644333839416504
47,43086,43084,0.01684294082224369,-0.006466552149504423,0.9414680004119873,9.242273330688477,1.3059673309326172,-3.24941086769104,1.8580483198165894,3.962881326675415,0.2494371086359024,-0.7179533839225769,0.7278419137001038,2.6876511573791504
48,43096,43094,0.0919138491153717,-0.01671355776488781,0.9088663458824158,4.471286296844482,1.3489400148391724,-2.6970715522766113,1.8578749895095825,3.9633681774139404,0.2511642277240753,-0.6683312654495239,0.8716844320297241,2.6704347133636475
49,43106,43104,0.10768263787031174,-0.0888114720582962,0.9491593241691589,4.241465091705322,-6.095139503479004,-2.546135902404785,1.85921311378479,3.9653995037078857,0.2527896463871002,-0.7936223745346069,0.8757491707801819,2.6235287189483643
50,43116,43114,0.006280605215579271,-0.03224391117691994,0.9898391366004944,3.9883601665496826,-8.285988807678223,-2.2151715755462646,1.8594915866851807,3.9661765098571777,0.2543548345565796,-0.7463642358779907,0.9484973549842834,2.6023495197296143
51,43126,43124,-0.02900153398513794,0.09482366591691971,0.9715614318847656,4.515684604644775,-11.965600967407227,-2.3416054248809814,1.8611832857131958,3.968545436859131,0.2556065022945404,-0.6567134261131287,1.024336814880371,2.581852436065674
52,43136,43134,-0.0045251864939928055,-0.022126249969005585,0.9710627794265747,4.7064361572265625,-11.394641876220703,-2.564976692199707,1.8610358238220215,3.968903064727783,0.2571207284927368,-0.5241069197654724,1.1722185611724854,2.5741488933563232
53,43146,43144,-0.019820569083094597,0.005409862380474806,0.9997563362121582,3.789757490158081,-10.91157341003418,-2.020941972732544,1.8622013330459595,3.9713973999023438,0.25856122374534607,-0.4684969484806061,1.156022310256958,2.529900550842285
54,43156,43154,0.06463944911956787,-0.04951785132288933,0.9627059102058411,1.6911238431930542,-10.958520889282227,-2.433542251586914,1.8625085353851318,3.9740519523620605,0.2600516378879547,-0.2733224034309387,1.1896088123321533,2.518096923828125
55,43166,43164,0.0944676622748375,-0.1336115300655365,0.9886583685874939,1.0593785047531128,-10.766308784484863,-2.7950875759124756,1.8615484237670898,3.9737355709075928,0.26211509108543396,-0.0872514396905899,1.268535852432251,2.5094223022460938
56,43176,43174,0.03676027059555054,-0.12003754079341888,0.9957612156867981,-0.10815321654081345,-8.618942260742188,-3.4673948287963867,1.863666296005249,3.9762938022613525,0.2635900378227234,-0.06978918612003326,1.323300838470459,2.467383861541748
57,43186,43184,0.015420167706906796,-0.1590745449066162,0.9341477751731873,-2.0555081367492676,-6.505054473876953,-3.245814800262451,1.8632609844207764,3.977684497833252,0.26502689719200134,0.06739120185375214,1.2698638439178467,2.4384891986846924
58,43196,43194,0.008968394249677658,-0.06944107264280319,0.9558258056640625,-3.174191474914551,-3.218165874481201,-3.3163278102874756,1.864472508430481,3.9783337116241455,0.2638113498687744,0.14993791282176971,1.2643823623657227,2.4155588150024414
59,43206,43204,0.029781868681311607,-0.08188511431217194,0.911941647529602,-3.9732232093811035,-1.5965182781219482,-2.904478073120117,1.865058422088623,3.9789319038391113,0.26499488949775696,0.11236753314733505,1.2396544218063354,2.3733718395233154
60,43216,43214,0.008558843284845352,-0.06967943161725998,0.9720560312271118,-4.6107707023620605,-1.460731863975525,-2.191978693008423,1.8656402826309204,3.9799370765686035,0.2661418318748474,0.06216580420732498,1.1985228061676025,2.333773374557495
61,43226,43224,0.031343407928943634,-0.1270986795425415,0.9784831404685974,-4.884063243865967,0.6053963899612427,-3.212869882583618,1.8657033443450928,3.982224464416504,0.26914182305336,0.16199004650115967,1.1481475830078125,2.3277437686920166
62,43236,43234,0.0041209193877875805,-0.03833708539605141,0.9819680452346802,-4.3772454261779785,-3.736340045928955,-3.288698434829712,1.8667550086975098,3.9831953048706055,0.27035292983055115,0.09413741528987885,1.095102071762085,2.2778923511505127
63,43246,43244,0.0036186801735311747,-0.0407852828502655,0.9977571964263916,-3.3825137615203857,-2.5307114124298096,-3.5127336978912354,1.8670594692230225,3.983670473098755,0.2714923620223999,0.13788345456123352,1.1213080883026123,2.2536566257476807
64,43256,43254,-0.005885754246264696,-0.05847863852977753,0.9465571641921997,-2.1678264141082764,-3.078925132751465,-3.1580724716186523,1.867479920387268,3.985607624053955,0.27270498871803284,0.1827695518732071,1.0865126848220825,2.2238199710845947
65,43266,43264,-0.007896686904132366,-0.037306565791368484,0.9650519490242004,-2.8061091899871826,-3.9563093185424805,-2.7399141788482666,1.8664191961288452,3.9866397380828857,0.2735430896282196,0.228824645280838,1.0536763668060303,2.196946859359741
66,43276,43274,0.0021198191680014133,0.014614365994930267,0.9993981122970581,-4.748078346252441,-3.5001673698425293,-2.763725996017456,1.8666870594024658,3.987071990966797,0.27460819482803345,0.28441357612609863,1.0042824745178223,2.1732704639434814
67,43286,43284,0.024046918377280235,-0.013820036314427853,0.9793351888656616,-4.86448860168457,-3.461671829223633,-2.6005859375,1.8662761449813843,3.986815929412842,0.27562615275382996,0.3353702425956726,0.9364977478981018,2.148887872695923
68,43296,43294,0.006158055737614632,-0.09790994971990585,1.038664698600769,-5.405037879943848,-2.713371753692627,-1.5916996002197266,1.869307041168213,3.9893507957458496,0.2761419117450714,0.0048172143287956715,0.863562822341919,2.054274320602417
69,43306,43304,0.016165539622306824,-0.21175654232501984,1.01817786693573,-3.459177017211914,-3.5735204219818115,-1.4861702919006348,1.8685094118118286,3.9902184009552,0.27724921703338623,0.15668267011642456,0.8064392805099487,2.0640711784362793
70,43316,43314,0.018602535128593445,-0.15767191350460052,0.9734732508659363,-3.043221950531006,-2.5474960803985596,-2.1155009269714355,1.865885853767395,3.9909567832946777,0.2783529758453369,0.4435320496559143,0.7603239417076111,2.096236228942871
71,43326,43324,0.002194114262238145,0.020127713680267334,0.9736840724945068,-2.1509530544281006,0.00614987313747406,-2.3787782192230225,1.8631616830825806,3.9918253421783447,0.2797880172729492,0.7549487948417664,0.7304803133010864,2.12888765335083
72,43336,43334,0.09538059681653976,0.02377592772245407,0.9208243489265442,-3.5326671600341797,5.348611354827881,-2.5594887733459473,1.865610122680664,3.991813898086548,0.2811570167541504,0.46000200510025024,0.6987536549568176,2.0535995960235596
73,43346,43344,0.11907646805047989,0.009029669687151909,0.9639365673065186,-3.7491612434387207,8.210871696472168,-2.116124153137207,1.8706779479980469,3.9932920932769775,0.28241434693336487,-0.10268586874008179,0.6483645439147949,1.9414311647415161
74,43356,43354,0.08601143211126328,-0.10797488689422607,0.9664762616157532,-4.495832443237305,5.2157158851623535,-1.4696935415267944,1.871543288230896,3.993108034133911,0.2832504212856293,-0.190820574760437,0.6658676266670227,1.9190384149551392
75,43366,43364,-0.010231604799628258,-0.06054981052875519,0.9831740260124207,-2.90802001953125,1.0844101905822754,-1.6433876752853394,1.8710472583770752,3.993523359298706,0.28418415784835815,-0.21718014776706696,0.5963289737701416,1.9069099426269531
76,43376,43374,-0.051241423934698105,-0.09694717079401016,0.984491229057312,-2.7862589359283447,-4.67692756652832,-1.775119662284851,1.8699779510498047,3.99406361579895,0.2851885259151459,-0.07705027610063553,0.5553388595581055,1.9092832803726196
77,43386,43384,-0.04184999316930771,-0.030334683135151863,0.9400258660316467,-3.456587791442871,-9.63316535949707,-1.4922616481781006,1.8701419830322266,3.9937334060668945,0.28608018159866333,-0.004463008604943752,0.5848785638809204,1.8899480104446411
78,43396,43394,-0.012440006248652935,-0.008251655846834183,0.9526976346969604,-2.491656541824341,-14.58374309539795,-0.9792546033859253,1.869537353515625,3.992595911026001,0.2883918583393097,0.22771544754505157,0.6861593127250671,1.8860008716583252
79,43406,43404,0.019449325278401375,0.03184594213962555,1.0165367126464844,-5.036778450012207,-13.939704895019531,-0.9329745769500732,1.86990487575531,3.99424147605896,0.28931817412376404,0.4165647029876709,0.607405424118042,1.882170557975769
80,43416,43414,0.014170540496706963,0.004901051055639982,0.9997129440307617,-6.865297317504883,-10.084012985229492,-1.4712800979614258,1.8689978122711182,3.9945430755615234,0.29018330574035645,0.6459525227546692,0.49721547961235046,1.8836621046066284
81,43426,43424,-0.0013449968537315726,0.029038717970252037,0.9978625774383545,-7.7868523597717285,-3.396479368209839,-1.8562411069869995,1.8703739643096924,3.9963932037353516,0.2921314239501953,0.5564377903938293,0.3666609823703766,1.8524596691131592
82,43436,43434,-0.00590504938736558,0.010156296193599701,0.963421642780304,-8.607305526733398,3.022435188293457,-1.679823875427246,1.8700435161590576,3.9969677925109863,0.2931439280509949,0.5206053256988525,0.30264347791671753,1.8308197259902954
83,43446,43444,-0.03933113068342209,0.04567647725343704,0.9843400120735168,-7.199392795562744,5.884310245513916,-1.175441026687622,1.872219204902649,3.99831223487854,0.2941037714481354,0.40327733755111694,0.23603294789791107,1.809464693069458
84,43456,43454,-0.006606234237551689,-0.008007233031094074,0.9536778926849365,-5.778459548950195,5.512380123138428,-0.821049153804779,1.8731671571731567,3.998103380203247,0.2930391728878021,0.34547367691993713,0.2664032578468323,1.7952479124069214
85,43466,43464,0.03506533056497574,-0.010063910856842995,0.9579800367355347,-2.5211832523345947,2.8699543476104736,-0.49429404735565186,1.8728309869766235,3.999351978302002,0.2938135266304016,0.37681546807289124,0.16677749156951904,1.7990704774856567
86,43476,43474,0.026337062940001488,0.060738254338502884,1.0194584131240845,-0.5939035415649414,-1.3269816637039185,-0.6901106834411621,1.8729617595672607,3.998908042907715,0.2945291996002197,0.37977364659309387,0.19508367776870728,1.7920002937316895
87,43486,43484,0.030996371060609818,-0.043246690183877945,0.93116295337677,-0.7220773100852966,-4.637918949127197,-0.31879937648773193,1.8726062774658203,3.9989547729492188,0.2952437400817871,0.4391101598739624,0.16440363228321075,1.7891144752502441
88,43496,43494,-0.004654898773878813,0.010911921970546246,0.9817414879798889,-1.5451213121414185,-6.723116397857666,-0.5813776850700378,1.8720515966415405,3.9987761974334717,0.29588043689727783,0.49504342675209045,0.2194044142961502,1.789164662361145
89,43506,43504,-0.02005847729742527,0.06635106354951859,0.9659963846206665,-2.7163522243499756,-4.8634934425354,-1.173962116241455,1.8719936609268188,3.9985134601593018,0.2965318262577057,0.5353091359138489,0.17446203529834747,1.7861984968185425
90,43516,43514,-0.05100417509675026,0.1403244435787201,0.9479381442070007,-4.98999547958374,-3.845715045928955,-0.27811557054519653,1.871278166770935,3.999703884124756,0.2971643805503845,0.6735866069793701,0.07047552615404129,1.7780684232711792
91,43526,43524,0.004121859557926655,-0.008744136430323124,0.9565149545669556,-6.141441345214844,0.9921407699584961,-1.1800730228424072,1.8713345527648926,4.000741481781006,0.294279545545578,0.7017262578010559,0.17212247848510742,1.7713792324066162
92,43536,43534,0.0045530409552156925,0.07083234190940857,0.9565470218658447,-6.051271915435791,3.3318216800689697,-0.8027899861335754,1.871163010597229,4.001158714294434,0.29462355375289917,0.7112905979156494,0.12215002626180649,1.763569712638855
93,43546,43544,-0.0175448190420866,0.08006084710359573,1.0162235498428345,-6.726004123687744,3.6208603382110596,-0.7299718260765076,1.8715908527374268,4.001606464385986,0.2949177026748657,0.6741760969161987,-0.008637095801532269,1.7618170976638794
94,43556,43554,-0.020519819110631943,0.006774389185011387,1.0545278787612915,-4.582695960998535,2.4992170333862305,-0.37212350964546204,1.8719394207000732,4.0018391609191895,0.29342663288116455,0.6196527481079102,-0.07189495116472244,1.7514182329177856
95,43566,43564,-0.05440715700387955,-0.008192311972379684,1.0366655588150024,-2.273394823074341,2.111783742904663,-0.3316000699996948,1.8718767166137695,4.002047061920166,0.29362785816192627,0.5761814117431641,-0.17559269070625305,1.7501417398452759
96,43576,43574,-0.0691857784986496,0.06091270595788956,1.001815676689148,-2.248265266418457,4.057713508605957,-0.002232481027022004,1.8720859289169312,4.000797748565674,0.29389289021492004,0.6039559841156006,-0.0923839807510376,1.7360596656799316
97,43586,43584,-0.04714621603488922,0.12338978797197342,0.9501797556877136,-1.3562673330307007,5.142971038818359,0.5800243020057678,1.8723609447479248,4.000921249389648,0.296466201543808,0.5264638662338257,-0.16099520027637482,1.7399117946624756
98,43596,43594,-0.013082342222332954,0.1141539216041565,0.9817083477973938,-1.2842615842819214,3.8969271183013916,1.0537775754928589,1.8712217807769775,4.000375270843506,0.2968306243419647,0.5849046111106873,-0.14099465310573578,1.7423386573791504
99,43606,43604,0.01938592456281185,0.012128380127251148,0.9828649759292603,-1.746840238571167,0.8154060244560242,1.4956423044204712,1.8714510202407837,4.000515460968018,0.2971906363964081,0.5095999836921692,-0.19110818207263947,1.756319522857666
100,43616,43614,-0.010056615807116032,-0.09597527980804443,1.0662646293640137,-1.5337746143341064,-2.0100414752960205,1.4083566665649414,1.871457576751709,3.99985671043396,0.29756927490234375,0.4829500615596771,-0.24250823259353638,1.773664116859436
101,43626,43624,0.024355381727218628,-0.08839908242225647,1.0235419273376465,-0.647236168384552,0.3160468637943268,0.9733611345291138,1.8711612224578857,3.999053478240967,0.29947802424430847,0.4916994273662567,-0.14013269543647766,1.77574622631073
102,43636,43634,-0.004277369473129511,-0.03927671164274216,0.992996871471405,-2.2728703022003174,2.9160146713256836,0.9924678802490234,1.8695958852767944,3.999044418334961,0.2999582886695862,0.6009595990180969,-0.18629305064678192,1.7849793434143066
103,43646,43644,0.012643180787563324,-0.02655564434826374,0.9297097325325012,-4.928194999694824,6.465115547180176,0.7978635430335999,1.869957447052002,3.99922513961792,0.30052340030670166,0.5151946544647217,-0.25167080760002136,1.7991971969604492
104,43656,43654,0.06633021682500839,-0.04462320730090141,0.974772572517395,-5.9019904136657715,7.025041103363037,1.3553208112716675,1.8704475164413452,3.9995980262756348,0.30277663469314575,0.38689011335372925,-0.3517182469367981,1.8133271932601929
105,43666,43664,0.0743541419506073,-0.1347847580909729,0.9908682703971863,-4.23919153213501,5.447931289672852,1.3478502035140991,1.8709964752197266,3.9998698234558105,0.3033090829849243,0.2593427896499634,-0.3859107494354248,1.8251256942749023
106,43676,43674,-0.00017409169231541455,-0.035669341683387756,1.001758098602295,-2.8694159984588623,3.6430633068084717,1.6938258409500122,1.8707255125045776,4.001124858856201,0.3038387596607208,0.30692997574806213,-0.47698548436164856,1.8371009826660156
107,43686,43684,-0.0010333082173019648,-0.09757388383150101,0.9818058609962463,-0.39187005162239075,9.809768676757812,1.4065719842910767,1.8705933094024658,3.999864339828491,0.30355405807495117,0.2871137857437134,-0.3849279284477234,1.8418335914611816
108,43696,43694,0.009070543572306633,-0.0318695530295372,0.972174882888794,0.6535622477531433,18.07498550415039,1.65990149974823,1.8718562126159668,4.00062894821167,0.30402687191963196,0.11650059372186661,-0.4174272119998932,1.8628387451171875
109,43706,43704,0.022382749244570732,-0.004358460661023855,0.9658116102218628,0.2830183207988739,19.598461151123047,1.1873515844345093,1.8709756135940552,4.000739097595215,0.30444812774658203,0.04127120226621628,-0.4285575747489929,1.8753775358200073
110,43716,43714,-0.006967556197196245,0.0108322249725461,1.0023137331008911,-0.10871566087007523,24.035703659057617,1.2522557973861694,1.8725364208221436,4.001805305480957,0.30486178398132324,-0.24112100899219513,-0.44480910897254944,1.8913064002990723
111,43726,43724,0.018745100125670433,-0.0987330824136734,1.020019292831421,0.4750596284866333,23.031131744384766,1.8078895807266235,1.8725600242614746,4.002227783203125,0.30212733149528503,-0.4383307099342346,-0.46394750475883484,1.8996466398239136
112,43736,43734,0.004764311481267214,-0.06207609549164772,0.9717094302177429,-0.1978730857372284,19.99796485900879,1.3467997312545776,1.8741439580917358,4.002485752105713,0.3022792935371399,-0.7769679427146912,-0.47226086258888245,1.9205012321472168
113,43746,43744,-0.02159772627055645,-0.1862860471010208,1.0035061836242676,0.5864035487174988,16.514013290405273,1.5071690082550049,1.8737434148788452,4.002932548522949,0.3025286793708801,-0.8921686410903931,-0.4873477816581726,1.9277691841125488
114,43756,43754,0.028835756704211235,-0.019373703747987747,0.9769686460494995,0.43521636724472046,11.587129592895508,1.3964128494262695,1.873510479927063,4.0033278465271,0.2989346981048584,-1.037184476852417,-0.4933689832687378,1.938941240310669
115,43766,43764,0.042364638298749924,0.028123052790760994,1.020957350730896,2.0881145000457764,6.058869361877441,0.952364981174469,1.8738759756088257,4.004750728607178,0.29891905188560486,-1.0950220823287964,-0.489765465259552,1.9467058181762695
116,43776,43774,0.030431371182203293,-0.021267523989081383,1.0167396068572998,3.09025239944458,3.0079314708709717,0.3094917833805084,1.8746188879013062,4.004354000091553,0.2988681197166443,-1.2216343879699707,-0.46177491545677185,1.9626001119613647
117,43786,43784,-0.030759509652853012,0.08268938213586807,1.0159275531768799,2.484283447265625,-1.8310303688049316,1.571071743965149,1.8751780986785889,4.004242897033691,0.29850760102272034,-1.285101056098938,-0.4201819598674774,1.9735089540481567
118,43796,43794,0.03318438678979874,-0.11906097829341888,1.0118986368179321,2.613124132156372,2.434602975845337,1.1939754486083984,1.8743513822555542,4.004403591156006,0.2985078990459442,-1.2058597803115845,-0.38136014342308044,1.978417158126831
119,43806,43804,0.00202766340225935,0.0009401170536875725,1.0491046905517578,2.1967945098876953,4.80881404876709,1.027330994606018,1.8748219013214111,4.005091667175293,0.2984755337238312,-1.2434771060943604,-0.41886985301971436,1.984879732131958
120,43816,43814,-0.019255928695201874,-0.06981824338436127,0.9949056506156921,3.341567039489746,6.538949489593506,1.7829216718673706,1.8759487867355347,4.005886077880859,0.2984955906867981,-1.320488452911377,-0.37950077652931213,2.001098871231079
121,43826,43824,-0.002450362779200077,-0.024749699980020523,1.0123971700668335,2.3154780864715576,9.111373901367188,1.8859233856201172,1.8756437301635742,4.006530284881592,0.29903823137283325,-1.3551719188690186,-0.40483641624450684,2.007678985595703
122,43836,43834,0.03312477469444275,-0.05328202247619629,1.0117300748825073,1.3901349306106567,9.75688648223877,2.045657157897949,1.8750808238983154,4.006750583648682,0.29916444420814514,-1.3631187677383423,-0.35053688287734985,2.023735284805298
123,43846,43844,-0.03824624419212341,-0.011965567246079445,1.0656720399856567,1.1756269931793213,10.486042976379395,1.5132176876068115,1.8764169216156006,4.006931304931641,0.299188494682312,-1.6204079389572144,-0.31969380378723145,2.059037208557129
124,43856,43854,0.027900001034140587,-0.08418844640254974,0.9994193911552429,1.3346425294876099,9.050509452819824,1.1805033683776855,1.8750956058502197,4.0074920654296875,0.2965395748615265,-1.5509182214736938,-0.3754991292953491,2.050550699234009
125,43866,43864,0.014374990016222,-0.022873597219586372,1.0177313089370728,2.1646065711975098,6.819774150848389,0.47835543751716614,1.875807523727417,4.007680892944336,0.2965112626552582,-1.6962941884994507,-0.33476102352142334,2.0706489086151123
126,43876,43874,-0.015151911415159702,-0.021021826192736626,1.0289208889007568,2.4100940227508545,3.876706600189209,0.15188664197921753,1.8771015405654907,4.008575439453125,0.29652905464172363,-1.800418734550476,-0.28336217999458313,2.0836665630340576
127,43886,43884,0.010639543645083904,-0.006122954655438662,1.0335668325424194,3.388221502304077,0.997265100479126,0.16251829266548157,1.8767298460006714,4.009646892547607,0.29564422369003296,-1.7734770774841309,-0.31011325120925903,2.0701229572296143
128,43896,43894,-0.0007294205715879798,-0.01666085049510002,1.0317294597625732,3.6708316802978516,-1.2992748022079468,0.2627513110637665,1.8775707483291626,4.010282516479492,0.2956605851650238,-1.7632554769515991,-0.20512622594833374,2.0867953300476074
129,43906,43904,0.022770697250962257,-0.022852463647723198,1.0303577184677124,5.001182556152344,-1.9225255250930786,-0.3305920660495758,1.8775335550308228,4.0098137855529785,0.29570960998535156,-1.7561490535736084,-0.16817346215248108,2.0888805389404297
130,43916,43914,0.0027569946832954884,-0.00315324729308486,0.9691333770751953,3.4871320724487305,-1.4711016416549683,0.3884391486644745,1.8778711557388306,4.010890483856201,0.29480859637260437,-1.7236844301223755,-0.15320537984371185,2.077063798904419
131,43926,43924,0.019725268706679344,-0.03235258907079697,0.959500789642334,2.647324323654175,1.9895944595336914,-0.4500263035297394,1.8791087865829468,4.010788440704346,0.29478827118873596,-1.77499258518219,-0.0779787003993988,2.089840888977051
132,43936,43934,0.02749442122876644,-0.021454880014061928,1.0973135232925415,0.4371766746044159,0.7564402222633362,-0.24902227520942688,1.8792409896850586,4.010721206665039,0.2947634756565094,-1.7851758003234863,-0.03611142560839653,2.0898690223693848
133,43946,43944,0.0009888550266623497,-0.016372868791222572,1.0846754312515259,1.889140009880066,0.5318236351013184,-0.7670491933822632,1.8792128562927246,4.010506629943848,0.2947874367237091,-1.7720160484313965,-0.024360548704862595,2.088212490081787
134,43956,43954,-0.017456114292144775,0.0907662957906723,0.9945124983787537,-0.4145425856113434,4.868546009063721,-0.8719527125358582,1.8802142143249512,4.010034561157227,0.2959018349647522,-1.8413280248641968,0.013014820404350758,2.089221715927124
135,43966,43964,-0.02197345159947872,0.09523072838783264,1.0096665620803833,-0.6117264628410339,1.530452013015747,-0.38862094283103943,1.8813496828079224,4.009454250335693,0.2961044907569885,-1.872925043106079,0.010028572753071785,2.0826609134674072
136,43976,43974,-0.019152142107486725,0.029704580083489418,1.057541012763977,0.5419359803199768,-0.2572818696498871,-0.8524124026298523,1.882967233657837,4.009202480316162,0.29622477293014526,-2.0110630989074707,-0.004563422873616219,2.0817835330963135
137,43986,43984,0.018440118059515953,-0.03831450268626213,1.0406066179275513,-0.15448670089244843,-2.9589059352874756,-0.5100237131118774,1.8827348947525024,4.009677410125732,0.2970012426376343,-1.912532925605774,0.005841594655066729,2.0742578506469727
138,43996,43994,0.0262327641248703,-0.07483375817537308,1.01222562789917,0.1398025006055832,-5.256558895111084,-0.315641850233078,1.8835992813110352,4.011910438537598,0.29731979966163635,-1.8789970874786377,-0.14760123193264008,2.026827096939087
139,44006,44004,-0.006858271546661854,0.07893535494804382,1.0067815780639648,1.4334789514541626,-9.151111602783203,-0.08050013333559036,1.883082628250122,4.011019229888916,0.29777228832244873,-1.7135859727859497,-0.03729456290602684,2.049156904220581
140,44016,44014,-0.023502258583903313,0.056406036019325256,1.0515669584274292,3.12833833694458,-10.074647903442383,0.060821082442998886,1.8852812051773071,4.011404991149902,0.29832935333251953,-1.7462834119796753,-0.08091000467538834,2.034795045852661
141,44026,44024,0.022928332909941673,-0.1389150619506836,1.0348340272903442,4.128422260284424,-7.584134101867676,-0.28027668595314026,1.8856213092803955,4.010524749755859,0.298718124628067,-1.6570371389389038,-0.009956094436347485,2.045639991760254
142,44036,44034,-0.0128244087100029,-0.08471103012561798,1.0505026578903198,4.7417473793029785,-3.5724172592163086,-0.035393595695495605,1.8860522508621216,4.011134147644043,0.2991902232170105,-1.5295368432998657,0.07099353522062302,2.0531840324401855
143,44046,44044,-0.006760846357792616,-0.01594926044344902,1.0303864479064941,3.8538265228271484,-5.683042049407959,-0.22072574496269226,1.8860222101211548,4.01123046875,0.29970359802246094,-1.4013935327529907,0.1553926020860672,2.062652111053467
144,44056,44054,0.038044944405555725,-0.012983554042875767,0.9458775520324707,0.9460403323173523,-3.310469388961792,-0.26883363723754883,1.8894896507263184,4.012603282928467,0.30015668272972107,-1.630990743637085,0.14983023703098297,2.052853584289551
145,44066,44064,0.015943557024002075,-0.034729715436697006,1.0183615684509277,-0.9845213294029236,-3.457214832305908,-0.45050808787345886,1.8896125555038452,4.013648509979248,0.3007911443710327,-1.4760358333587646,0.16880744695663452,2.051475763320923
146,44076,44074,0.00593367125838995,-0.16159911453723907,1.0517998933792114,-2.14447283744812,-5.220954895019531,-0.6268197894096375,1.8923460245132446,4.016014575958252,0.3012923002243042,-1.4884850978851318,0.07563205808401108,2.027024745941162
147,44086,44084,0.03136777877807617,-0.0346427746117115,0.9755952954292297,-0.7363837957382202,-6.571635723114014,-0.627457857131958,1.8934816122055054,4.017390727996826,0.3019956052303314,-1.4586206674575806,0.0586717426776886,2.0226387977600098
148,44096,44094,0.009971504099667072,0.05663105845451355,0.9894760847091675,0.33796948194503784,-8.590093612670898,-0.7692221403121948,1.892987847328186,4.017548561096191,0.3026629686355591,-1.2522233724594116,0.06278303265571594,2.019561290740967
149,44106,44104,-0.0377194806933403,-0.011918187141418457,1.044085144996643,1.8709803819656372,-10.957082748413086,-0.48399198055267334,1.8926516771316528,4.018101692199707,0.3032684624195099,-1.0921474695205688,0.08048868179321289,2.015043020248413
150,44116,44114,-0.01293599046766758,-0.02921454608440399,0.9973143339157104,2.87852144241333,-11.450674057006836,-0.5678420662879944,1.8952789306640625,4.0186004638671875,0.30518797039985657,-1.1396076679229736,0.12094643712043762,2.013820171356201
151,44126,44124,-0.0680699497461319,0.06824816018342972,0.9844257831573486,2.5274367332458496,-8.013018608093262,-1.0148546695709229,1.894980549812317,4.018341064453125,0.30595093965530396,-0.9208606481552124,0.18446069955825806,2.0145909786224365
152,44136,44134,-0.009225345216691494,0.029738174751400948,1.0068942308425903,1.6105387210845947,-7.046289920806885,-0.9778851866722107,1.898964762687683,4.0191521644592285,0.3065263330936432,-1.0754424333572388,0.1590355783700943,1.9921506643295288
153,44146,44144,0.003817989258095622,-0.16016149520874023,0.9849404096603394,0.6510646343231201,-6.920839786529541,-0.8845543265342712,1.8993539810180664,4.019294738769531,0.30729126930236816,-0.9233587980270386,0.19612610340118408,1.9872530698776245
154,44156,44154,0.026130490005016327,-0.058289844542741776,1.000636339187622,-0.1119079515337944,-5.849201202392578,-0.9848613142967224,1.8999191522598267,4.020352840423584,0.3110635280609131,-0.8582271337509155,0.2133694291114807,1.9796125888824463
155,44166,44164,-0.005151286255568266,0.008488792926073074,0.9798660278320312,-1.2397295236587524,-6.899482727050781,-1.1015028953552246,1.9021214246749878,4.02260160446167,0.3119504153728485,-0.7793205976486206,0.1427067369222641,1.9595715999603271
156,44176,44174,-0.023897914215922356,-0.016767777502536774,1.0002155303955078,0.09780177474021912,-7.774242877960205,-1.359716773033142,1.9038583040237427,4.0225324630737305,0.3127022683620453,-0.7722433805465698,0.13875670731067657,1.9471491575241089
157,44186,44184,0.0053364792838692665,-0.005402304232120514,0.9783940315246582,0.7107075452804565,-8.597658157348633,-0.7164591550827026,1.9033236503601074,4.022028923034668,0.3134087324142456,-0.5268235206604004,0.22747468948364258,1.9493930339813232
158,44196,44194,0.018528057262301445,0.005797706078737974,0.9974945783615112,1.8883827924728394,-8.81020450592041,-1.2564806938171387,1.9061825275421143,4.0233025550842285,0.3142063617706299,-0.583003580570221,0.24694515764713287,1.9378104209899902
159,44206,44204,0.016696397215127945,-0.02054033987224102,0.9570277333259583,2.2027249336242676,-9.809957504272461,-1.5125266313552856,1.9071125984191895,4.024230003356934,0.3149958848953247,-0.47336745262145996,0.20636597275733948,1.9185065031051636
160,44216,44214,-0.061052706092596054,-0.03930196538567543,0.9826664924621582,3.335824489593506,-10.561710357666016,-1.5488137006759644,1.9083795547485352,4.0239152908325195,0.31692826747894287,-0.33127954602241516,0.25376588106155396,1.906724452972412
161,44226,44224,-0.116453155875206,-0.006502258125692606,0.9740127921104431,3.7713162899017334,-9.827232360839844,-1.7354187965393066,1.909350037574768,4.023542881011963,0.31772246956825256,-0.25639480352401733,0.3195226192474365,1.8918412923812866
162,44236,44234,-0.107439324259758,0.0427902527153492,0.9398400783538818,3.149379253387451,-7.518208026885986,-1.6913528442382812,1.909891963005066,4.024343967437744,0.3185313045978546,-0.11954357475042343,0.3125172257423401,1.878239393234253
163,44246,44244,-0.06956908106803894,0.17731836438179016,0.9748804569244385,3.854015827178955,-6.568782806396484,-1.5205144882202148,1.9108175039291382,4.023914813995361,0.3192526698112488,-0.027971312403678894,0.3711288571357727,1.8620723485946655
164,44256,44254,-0.0007904928643256426,0.13992981612682343,0.9732685685157776,3.1332216262817383,-4.38540506362915,-1.2561135292053223,1.9115593433380127,4.025955677032471,0.3151974678039551,0.03372948244214058,0.2882874310016632,1.8427478075027466
165,44266,44264,0.016942758113145828,0.13260236382484436,1.0136139392852783,5.056001663208008,-4.6837944984436035,-1.1699093580245972,1.9138333797454834,4.026712417602539,0.3156149685382843,0.06251897662878036,0.3586574196815491,1.829702377319336
166,44276,44274,0.008193685673177242,0.04324698820710182,0.9969638586044312,5.303844451904297,-4.6458587646484375,-0.3643695116043091,1.9130988121032715,4.0266499519348145,0.3161174952983856,0.24562709033489227,0.4532981216907501,1.8229742050170898
167,44286,44284,0.0012827086029574275,-0.02937978133559227,0.9622888565063477,4.3146843910217285,-1.5226010084152222,0.18148019909858704,1.9160915613174438,4.026296615600586,0.3196140229701996,0.18937544524669647,0.548716127872467,1.8141361474990845
168,44296,44294,0.03562331944704056,0.0014364401577040553,0.9411036372184753,2.0732994079589844,0.9359339475631714,1.060136318206787,1.9170894622802734,4.026163578033447,0.32015684247016907,0.1526952087879181,0.5398529767990112,1.8124666213989258
169,44306,44304,0.08468712866306305,-0.014745925553143024,0.926892876625061,0.1671789437532425,-1.4300668239593506,1.7746493816375732,1.9184205532073975,4.025615692138672,0.3205810487270355,0.08998239040374756,0.5754553079605103,1.821226954460144
170,44316,44314,0.012439803220331669,-0.0026784073561429977,0.9689991474151611,-0.6489723324775696,-2.4984350204467773,2.6544384956359863,1.9195456504821777,4.025271415710449,0.32222822308540344,0.15389534831047058,0.5827815532684326,1.8427494764328003
171,44326,44324,0.07236340641975403,-0.18454770743846893,0.9794255495071411,-2.262551784515381,-3.6764113903045654,2.8210620880126953,1.920041561126709,4.024960994720459,0.3227258324623108,0.23599956929683685,0.5683521032333374,1.8737496137619019
172,44336,44334,0.01687965914607048,-0.16602875292301178,0.9989054203033447,-2.4734413623809814,-2.9224469661712646,3.092264175415039,1.9222609996795654,4.024881839752197,0.32308268547058105,0.18661312758922577,0.6083919405937195,1.8930323123931885
173,44346,44344,0.004930596798658371,-0.054874930530786514,0.9682101607322693,-5.004739761352539,1.4568796157836914,3.6531221866607666,1.9215071201324463,4.024600505828857,0.32202407717704773,0.35383445024490356,0.562136709690094,1.933269739151001
174,44356,44354,0.06746543198823929,-0.13354618847370148,0.9507720470428467,-7.618082046508789,4.015749454498291,4.266884803771973,1.9212762117385864,4.024138450622559,0.32236987352371216,0.40486040711402893,0.540133535861969,1.975062608718872
175,44366,44364,-0.033225759863853455,0.0963541641831398,0.9542216062545776,-9.867976188659668,3.29337215423584,4.318902492523193,1.9241029024124146,4.024895191192627,0.32260122895240784,0.26514971256256104,0.4756750464439392,2.017408847808838
176,44376,44374,-0.07279835641384125,-0.05189613252878189,1.0127081871032715,-10.4468994140625,3.756404399871826,4.119273662567139,1.9237252473831177,4.0253448486328125,0.3229142725467682,0.3379019796848297,0.3002530038356781,2.0783421993255615
177,44386,44384,0.01794680394232273,-0.08570343255996704,1.0059126615524292,-11.724586486816406,8.455460548400879,4.385092258453369,1.9267992973327637,4.0275187492370605,0.3242033123970032,0.20210577547550201,0.11898662149906158,2.130924940109253
178,44396,44394,0.022824907675385475,0.05237429216504097,0.9356513023376465,-7.839673042297363,3.106112241744995,4.430748462677002,1.9288638830184937,4.026721000671387,0.32440638542175293,0.046138737350702286,0.09627144783735275,2.163889169692993
179,44406,44404,0.010508022271096706,-0.10348666459321976,0.9862987399101257,-4.692867279052734,1.5481641292572021,4.715145587921143,1.9299341440200806,4.028622150421143,0.32475680112838745,0.10116686671972275,-0.03584464639425278,2.2231035232543945
180,44416,44414,0.041957929730415344,-0.01411916222423315,0.8932769298553467,0.03675304353237152,-1.57670259475708,3.696422576904297,1.9323959350585938,4.029305458068848,0.32044756412506104,0.014361944049596786,-0.0316147580742836,2.266740083694458
181,44426,44424,-0.03113723173737526,0.03667747601866722,0.9909735918045044,3.7335288524627686,-2.8947956562042236,3.1459295749664307,1.9333773851394653,4.028550148010254,0.32030874490737915,0.009323302656412125,0.04878430813550949,2.2934842109680176
182,44436,44434,0.04833158478140831,-0.10568246245384216,1.00344979763031,5.2152886390686035,-5.899072170257568,2.5995285511016846,1.9338271617889404,4.027919292449951,0.3202815353870392,0.1605786383152008,0.09479523450136185,2.3232784271240234
183,44446,44444,0.029775124043226242,-0.02909005619585514,0.9594475626945496,4.3032684326171875,-5.309042453765869,2.5751187801361084,1.9342740774154663,4.0278730392456055,0.3175782561302185,0.27820464968681335,0.16772644221782684,2.3526484966278076
184,44456,44454,0.020895259454846382,-0.09987792372703552,0.9956650733947754,2.9514060020446777,-0.21696734428405762,1.4577947854995728,1.9362456798553467,4.0280561447143555,0.3171575963497162,0.22066648304462433,0.21873225271701813,2.3760626316070557
185,44466,44464,0.0383615680038929,-0.08572133630514145,0.9113648533821106,0.32015976309776306,5.4775309562683105,0.4028415381908417,1.9354851245880127,4.028812408447266,0.31697922945022583,0.382631778717041,0.24926045536994934,2.4037277698516846
186,44476,44474,0.054435618221759796,-0.07987748086452484,0.9614141583442688,-2.1244075298309326,7.29934549331665,-0.35437026619911194,1.9367622137069702,4.029973983764648,0.3165474534034729,0.27938005328178406,0.14807258546352386,2.416832685470581
187,44486,44484,0.010159498080611229,-0.10678813606500626,1.0076650381088257,-3.374906063079834,9.539051055908203,-0.4861854910850525,1.9396032094955444,4.032019138336182,0.31320807337760925,0.07070881128311157,0.08773783594369888,2.4319305419921875
188,44496,44494,0.0253429152071476,-0.03947123885154724,1.01325261592865,-2.570204734802246,7.906773567199707,-1.1219134330749512,1.938921332359314,4.032514572143555,0.31327152252197266,-0.0018439008854329586,0.02071339637041092,2.428358793258667
189,44506,44504,-0.03925960510969162,0.09412659704685211,1.0393328666687012,-2.6760330200195312,4.709427356719971,-0.31108930706977844,1.939558982849121,4.031620502471924,0.31268924474716187,-0.010687043890357018,0.13786034286022186,2.4040846824645996
190,44516,44514,-0.015178409405052662,0.04549923539161682,1.08334481716156,-2.722031593322754,0.2926846444606781,0.4074312448501587,1.939729928970337,4.0318498611450195,0.3104006052017212,0.03247262164950371,0.07005297392606735,2.4117369651794434
191,44526,44524,-0.009339816868305206,0.019625386223196983,1.049662709236145,-1.2380403280258179,-0.26565828919410706,0.9574069976806641,1.9397536516189575,4.03245210647583,0.3098268210887909,0.13387759029865265,0.017694223672151566,2.4270405769348145
192,44536,44534,-0.0012338509550318122,-0.03562558814883232,1.036653757095337,-1.3484604358673096,-0.8548392057418823,1.4450429677963257,1.9408265352249146,4.0330491065979,0.30917438864707947,0.06283695995807648,-0.009345217607915401,2.4497361183166504
193,44546,44544,-0.008401765488088131,-0.005912682507187128,1.0755537748336792,-2.088305950164795,-0.08384961634874344,1.2236865758895874,1.9416537284851074,4.032773494720459,0.3097497522830963,0.07417944818735123,0.029546605423092842,2.455784559249878
194,44556,44554,-0.01710742712020874,-0.059635505080223083,1.0837514400482178,-0.7043455243110657,1.461756944656372,0.8259905576705933,1.9422181844711304,4.033713340759277,0.30931898951530457,0.09791677445173264,-0.01475471816956997,2.4770305156707764
195,44566,44564,-0.00047911604633554816,-0.04798346385359764,0.9675989747047424,-2.0377347469329834,6.732600688934326,1.403894066810608,1.944314956665039,4.0340046882629395,0.30892568826675415,-0.01856948249042034,-0.03985767439007759,2.501189708709717
196,44576,44574,-0.03538312017917633,0.04651286453008652,1.0115724802017212,-3.239309787750244,8.737165451049805,1.6709657907485962,1.9444583654403687,4.035165786743164,0.3086547255516052,-0.06044895946979523,-0.09671667218208313,2.531810998916626
197,44586,44584,-0.0155675383284688,-0.004009193740785122,1.088326334953308,-3.1595239639282227,5.482438087463379,0.41263920068740845,1.945030689239502,4.034358024597168,0.3079049289226532,-0.1033158078789711,-0.015058446675539017,2.550075054168701
198,44596,44594,-0.011139439418911934,-0.05664602667093277,1.0732569694519043,-1.834595799446106,5.383027076721191,-0.29387685656547546,1.9448496103286743,4.034860610961914,0.30769455432891846,-0.08636052906513214,-0.07795556634664536,2.554763078689575
199,44606,44604,-0.006602360401302576,-0.03381764888763428,0.9715519547462463,-4.020296096801758,5.871358871459961,-0.19463008642196655,1.9450231790542603,4.035878658294678,0.3074975907802582,-0.10269194841384888,-0.1250912845134735,2.5679702758789062
200,44616,44614,0.01910719834268093,-0.1056748554110527,1.0658037662506104,-2.700291872024536,3.435656785964966,-0.5736675262451172,1.9462172985076904,4.036852836608887,0.3038231134414673,-0.13120555877685547,-0.21074466407299042,2.5805695056915283
201,44626,44624,0.030968137085437775,-0.03703116625547409,0.98185795545578,1.133612036705017,2.6616601943969727,-1.476982831954956,1.9480656385421753,4.037878513336182,0.30337199568748474,-0.27644747495651245,-0.32173240184783936,2.578922748565674
202,44636,44634,0.06192906200885773,0.04562060162425041,0.9316843748092651,3.0071253776550293,3.685525894165039,-1.6450130939483643,1.949283242225647,4.037418842315674,0.30316969752311707,-0.23689061403274536,-0.12476285547018051,2.5753281116485596
203,44646,44644,0.026818925514817238,-0.042168643325567245,1.0449291467666626,3.714073419570923,2.2659528255462646,-2.045482873916626,1.9511265754699707,4.037464618682861,0.3031303286552429,-0.4001031816005707,-0.08336992561817169,2.5568768978118896
204,44656,44654,0.05213550478219986,-0.15024031698703766,1.0590214729309082,4.4744038581848145,1.2194498777389526,-2.6623551845550537,1.9510371685028076,4.038303375244141,0.3027944266796112,-0.3568103611469269,-0.040303558111190796,2.547731399536133
205,44666,44664,0.0265812985599041,0.07096443325281143,1.0473394393920898,3.7884998321533203,3.6323416233062744,-3.4504833221435547,1.9510619640350342,4.037882328033447,0.30251383781433105,-0.29655370116233826,0.026842491701245308,2.514037847518921
206,44676,44674,0.001420727581717074,0.12725059688091278,1.0781331062316895,0.796689510345459,3.5592002868652344,-3.9405627250671387,1.952301025390625,4.0400495529174805,0.30508187413215637,-0.450002521276474,-0.09660571813583374,2.497727394104004
207,44686,44684,-0.0023064445704221725,0.03454475477337837,1.0820337533950806,-0.9656903743743896,4.066402912139893,-4.306105613708496,1.9548691511154175,4.040095329284668,0.3049801290035248,-0.5882376432418823,-0.10023757815361023,2.4640567302703857
208,44696,44694,-0.017360525205731392,0.06383081525564194,1.0761609077453613,-0.5895323753356934,3.862140417098999,-3.8039824962615967,1.9557583332061768,4.039780139923096,0.3050052523612976,-0.6368401050567627,-0.03807248920202255,2.4221532344818115
209,44706,44704,-0.0012671713484451175,0.036681827157735825,1.054436445236206,1.9047825336456299,4.727754592895508,-4.484692573547363,1.9564104080200195,4.040530681610107,0.3050704598426819,-0.6887134909629822,-0.04308662563562393,2.39615797996521
210,44716,44714,-0.018411852419376373,0.035289011895656586,1.0496618747711182,2.3895435333251953,3.1039628982543945,-4.546485424041748,1.9565997123718262,4.040213584899902,0.3066364526748657,-0.6395124197006226,-0.010158310644328594,2.3401453495025635
211,44726,44724,-0.006240529008209705,-0.01346354279667139,1.0478124618530273,1.9220380783081055,-0.17397281527519226,-4.186997890472412,1.9573569297790527,4.039389133453369,0.3070610463619232,-0.5844650864601135,0.017199043184518814,2.293863296508789
212,44736,44734,0.026032043620944023,0.008532627485692501,0.9742910265922546,2.555187225341797,-2.179943561553955,-4.317269802093506,1.9600410461425781,4.038871765136719,0.30733174085617065,-0.713004469871521,0.049711864441633224,2.2392001152038574
213,44746,44744,0.02462233603000641,0.03721722215414047,0.9659849405288696,2.496762752532959,-6.666419982910156,-3.4823555946350098,1.960000991821289,4.038519382476807,0.30689913034439087,-0.5624334216117859,0.07544074952602386,2.1978745460510254
214,44756,44754,-0.03110589273273945,-0.014569774270057678,0.984556257724762,1.1360878944396973,-6.292094707489014,-4.2933030128479,1.9622596502304077,4.038697719573975,0.30709004402160645,-0.6430156826972961,0.10692957043647766,2.168898582458496
215,44766,44764,-0.04085275158286095,0.0805402472615242,0.9929299354553223,-0.8802951574325562,-5.757693290710449,-4.288029193878174,1.9626247882843018,4.038750171661377,0.30746451020240784,-0.5012438893318176,0.026374291628599167,2.124441385269165
216,44776,44774,-0.041036419570446014,0.05130401998758316,1.018628478050232,-3.359978675842285,-3.713080883026123,-4.293554306030273,1.9627110958099365,4.037791728973389,0.309861958026886,-0.3857416808605194,0.1496032476425171,2.0952072143554688
217,44786,44784,-0.016231564804911613,0.06565502285957336,1.07132887840271,-5.781031131744385,-1.7387254238128662,-4.9425272941589355,1.9639561176300049,4.038447380065918,0.31025540828704834,-0.39654892683029175,0.06655667722225189,2.0489790439605713
218,44796,44794,0.00409847404807806,-0.018671609461307526,1.0016615390777588,-8.098526954650879,1.1606324911117554,-4.843545436859131,1.9653427600860596,4.0383148193359375,0.3106483519077301,-0.42956095933914185,0.02699597179889679,2.0008010864257812
219,44806,44804,-0.01297023519873619,-0.028702255338430405,0.9779197573661804,-8.069357872009277,4.220876216888428,-5.267853736877441,1.9670357704162598,4.0399250984191895,0.3111863136291504,-0.42904776334762573,-0.12808068096637726,1.971514105796814
220,44816,44814,-0.06130458042025566,0.21884211897850037,0.9054778814315796,-6.3872175216674805,4.123886585235596,-3.670591354370117,1.9674957990646362,4.040499687194824,0.31394195556640625,-0.41236984729766846,-0.26257768273353577,1.9391958713531494
221,44826,44824,-0.019584812223911285,0.12709690630435944,0.9036900997161865,-4.510195255279541,4.476302146911621,-2.634093999862671,1.9714096784591675,4.041876316070557,0.3143085241317749,-0.7795201539993286,-0.3555261790752411,1.9087536334991455
222,44836,44834,-0.01907038874924183,-0.01348650548607111,0.9994184970855713,-1.9841337203979492,1.7273364067077637,-2.179765462875366,1.9724900722503662,4.041675090789795,0.3148144483566284,-0.7800367474555969,-0.34007900953292847,1.8857088088989258
223,44846,44844,0.048133399337530136,-0.04528218135237694,0.913905918598175,-1.340423583984375,-3.0340099334716797,-3.364210367202759,1.9730303287506104,4.041087627410889,0.3128339350223541,-0.723051905632019,-0.29053375124931335,1.8610336780548096
224,44856,44854,0.0036631610710173845,-0.01626431941986084,0.9617610573768616,-1.778955340385437,-6.655325889587402,-3.9859611988067627,1.9750744104385376,4.042263984680176,0.3130640387535095,-0.6779965758323669,-0.32321828603744507,1.8472408056259155
225,44866,44864,0.07298202067613602,-0.0906536653637886,0.9624031782150269,-2.756160020828247,-11.52734661102295,-5.058263778686523,1.9759974479675293,4.042519569396973,0.3132575452327728,-0.563211977481842,-0.3622547686100006,1.8152031898498535
226,44876,44874,-0.018592391163110733,-0.019251372665166855,1.002712607383728,-3.906627893447876,-12.122274398803711,-6.126302719116211,1.978108286857605,4.044138431549072,0.3132481575012207,-0.4671880006790161,-0.42015352845191956,1.775826096534729
227,44886,44884,0.035178281366825104,-0.14655029773712158,0.9310073852539062,-3.7485098838806152,-11.892560958862305,-5.793484687805176,1.9796463251113892,4.04390811920166,0.31344419717788696,-0.28744766116142273,-0.3284012973308563,1.7411428689956665
228,44896,44894,-0.02381456457078457,-0.02480613812804222,0.9860799908638,-3.1890628337860107,-8.54631233215332,-6.226999759674072,1.9800254106521606,4.044288158416748,0.3135623037815094,-0.13944107294082642,-0.3999214768409729,1.6794053316116333
229,44906,44904,-0.017461473122239113,0.012677845545113087,1.0183994770050049,-2.8927459716796875,-3.729738712310791,-6.266844272613525,1.9821937084197998,4.04362678527832,0.31356310844421387,-0.11978381872177124,-0.3776227831840515,1.6244981288909912
230,44916,44914,-0.013582122512161732,0.039061807096004486,1.0231906175613403,-1.5341962575912476,-0.09495332837104797,-6.446696758270264,1.9826356172561646,4.04464864730835,0.31309443712234497,-0.027225257828831673,-0.5153754949569702,1.5534080266952515
231,44926,44924,0.018284650519490242,-0.09118729829788208,0.9600103497505188,-0.5499224662780762,2.636457920074463,-5.988761901855469,1.9831502437591553,4.0450439453125,0.3131507933139801,0.06620510667562485,-0.5310481786727905,1.5582376718521118
232,44936,44934,0.03927116468548775,-0.05472615733742714,1.0264242887496948,0.20537187159061432,0.7863073348999023,-6.268238544464111,1.9867867231369019,4.045454025268555,0.3130018711090088,-0.199983611702919,-0.5471393465995789,1.517457127571106
233,44946,44944,-0.008352241478860378,-0.03856561705470085,0.9610159993171692,0.6007338762283325,-3.5264861583709717,-6.6552910804748535,1.9866750240325928,4.044858455657959,0.31348302960395813,-0.08958127349615097,-0.4645429253578186,1.4502722024917603
234,44956,44954,-0.06143847107887268,0.16783781349658966,0.9551764130592346,-0.7935928106307983,-4.591570854187012,-6.378438472747803,1.9879262447357178,4.045000076293945,0.31359773874282837,0.010316087864339352,-0.3776369094848633,1.4013283252716064
235,44966,44964,-0.012327345088124275,-0.0055120158940553665,0.9665142297744751,-1.510470986366272,-5.985578536987305,-6.402571678161621,1.9883065223693848,4.045477390289307,0.3136143386363983,0.13160425424575806,-0.47481000423431396,1.3243080377578735
236,44976,44974,0.0306404996663332,-0.03649983927607536,0.9751102924346924,-0.740527868270874,-5.482380390167236,-6.24889612197876,1.9917352199554443,4.04608154296875,0.3148942291736603,-0.02548767812550068,-0.5248174071311951,1.21927011013031
237,44986,44984,0.02099955640733242,-0.1424437314271927,1.013578176498413,1.731306791305542,-4.7120208740234375,-6.463099002838135,1.9936091899871826,4.046291351318359,0.3148990869522095,0.027381539344787598,-0.522207498550415,1.1715466976165771
238,44996,44994,0.006373655050992966,0.02664152719080448,0.9681592583656311,5.2220916748046875,-5.224144458770752,-6.853806495666504,1.9955921173095703,4.04573392868042,0.31479477882385254,-0.04528678581118584,-0.4986463189125061,1.1587270498275757
239,45006,45004,-0.07375224679708481,0.12710104882717133,0.9623450040817261,5.208593845367432,-7.795514106750488,-6.708263397216797,1.9955861568450928,4.044991970062256,0.31437352299690247,0.19429060816764832,-0.4075772166252136,1.063218355178833
