,timestamp_start,timestamp_end,acc.x,acc.y,acc.z,gyro.x,gyro.y,gyro.z,stateEstimate.x,stateEstimate.y,stateEstimate.z,stabilizer.pitch,stabilizer.roll,stabilizer.yaw
0,46730,46728,0.006857200060039759,-0.003256474621593952,1.0192408561706543,23.86836814880371,6.23752498626709,-0.17424602806568146,1.9680713415145874,4.064503192901611,0.18318842351436615,0.23493808507919312,-0.5694896578788757,3.5684621334075928
1,46740,46738,-0.02448887750506401,-0.05809673294425011,1.009015440940857,24.292724609375,1.4207297563552856,-0.2692633271217346,1.9670631885528564,4.064843654632568,0.18893079459667206,0.14955778419971466,-0.3418884575366974,3.573828935623169
2,46750,46748,0.0028578953351825476,-0.02726208046078682,0.9956437349319458,18.826515197753906,0.2652849853038788,-0.4886321425437927,1.96442711353302,4.065425872802734,0.19193661212921143,0.10017519444227219,-0.2909911274909973,3.5846102237701416
3,46760,46758,0.012553445994853973,-0.051790423691272736,1.013866901397705,12.335679054260254,-2.000833749771118,0.09275883436203003,1.965009331703186,4.065123558044434,0.19500136375427246,0.09793003648519516,-0.050672031939029694,3.581759214401245
4,46770,46768,0.0037789021153002977,-0.04429076611995697,0.9895459413528442,7.0154128074646,-0.7320721745491028,-1.0987050533294678,1.964537501335144,4.065918922424316,0.1995711624622345,0.09056438505649567,-0.11341109871864319,3.5829920768737793
5,46780,46778,0.008842379786074162,-0.030212868005037308,0.9519802331924438,3.3818531036376953,-0.4095553159713745,-1.4450935125350952,1.9644250869750977,4.06594705581665,0.20305834710597992,0.07773984968662262,0.048769351094961166,3.5707144737243652
6,46790,46788,-0.0017571989446878433,0.025145117193460464,0.931675374507904,2.5320687294006348,-0.12387929856777191,-1.9830224514007568,1.9645260572433472,4.061260223388672,0.20614969730377197,0.05840803310275078,0.16095790266990662,3.5516316890716553
7,46800,46798,-0.05820043012499809,0.08056536316871643,0.9017408490180969,2.672926187515259,0.4174439609050751,-1.7189903259277344,1.9649205207824707,4.063889026641846,0.2091713696718216,0.042857371270656586,0.19399042427539825,3.5331454277038574
8,46810,46808,-0.021727312356233597,0.02201765775680542,0.9358280897140503,3.7104902267456055,0.46724894642829895,-1.4686652421951294,1.9635990858078003,4.06947135925293,0.21308603882789612,0.017399173229932785,0.30441874265670776,3.5193605422973633
9,46820,46818,-0.02694842778146267,-0.06764651834964752,0.9797379970550537,4.136972904205322,0.10985781997442245,-1.7164371013641357,1.9653385877609253,4.068601608276367,0.21585939824581146,-0.2551208436489105,0.5553064346313477,3.510584592819214
10,46830,46828,-0.07182396203279495,-0.023386528715491295,1.017339825630188,2.6882381439208984,-0.5342109203338623,-2.432328462600708,1.9654500484466553,4.067986965179443,0.21862980723381042,-0.2317138910293579,0.690640389919281,3.4929943084716797
11,46840,46838,-0.09104020148515701,-0.007271994836628437,1.004914402961731,0.1875181943178177,-5.380661964416504,-2.9837427139282227,1.9623761177062988,4.0575852394104,0.22182662785053253,0.3262297213077545,1.259940505027771,3.5047011375427246
12,46850,46848,-0.03778407722711563,-0.034872520714998245,0.9361956715583801,-5.342106819152832,-5.8322014808654785,-2.5570943355560303,1.9625657796859741,4.054805278778076,0.224837988615036,0.15713995695114136,1.2742462158203125,3.462399959564209
13,46860,46858,-0.058735255151987076,-0.01442206185311079,0.9563730955123901,-13.192268371582031,-5.304784297943115,-2.388289213180542,1.9571970701217651,4.051776885986328,0.22736580669879913,0.44286173582077026,1.2321792840957642,3.4591245651245117
14,46870,46868,-0.04947001859545708,0.018168596550822258,0.9512707591056824,-21.279884338378906,-2.3023407459259033,-2.0640909671783447,1.9569470882415771,4.0524516105651855,0.23096072673797607,0.44601914286613464,0.8358711004257202,3.427610397338867
15,46880,46878,-0.015284234657883644,0.0023758946917951107,0.9144500494003296,-26.765052795410156,3.3462648391723633,-1.8709734678268433,1.9571025371551514,4.048108100891113,0.23379868268966675,0.3824218511581421,0.5641400814056396,3.399326801300049
16,46890,46888,-0.001807760214433074,0.007099938578903675,0.9158905744552612,-26.889820098876953,9.055994987487793,-1.087867021560669,1.9574193954467773,4.044936656951904,0.23683275282382965,0.23291130363941193,0.05826527997851372,3.367360830307007
17,46900,46898,-0.0012185309315100312,0.007630248088389635,0.9005374312400818,-22.567554473876953,11.300299644470215,-0.5024956464767456,1.9572478532791138,4.044930458068848,0.23699530959129333,0.1355663388967514,-0.24015386402606964,3.3546228408813477
18,46910,46908,0.01574353128671646,0.0032828913535922766,0.8938777446746826,-16.417505264282227,15.208220481872559,-0.4398481547832489,1.955946683883667,4.037059307098389,0.23932822048664093,-0.04884841665625572,-0.5145518183708191,3.3401358127593994
19,46920,46918,0.0070545244961977005,-0.011748348362743855,0.8981061577796936,-8.489086151123047,12.789766311645508,0.13810241222381592,1.9555248022079468,4.037096977233887,0.2415623962879181,-0.2201305776834488,-0.6527794599533081,3.333216667175293
20,46930,46928,-0.03436708077788353,0.12315522134304047,0.9179942607879639,0.4720132648944855,6.410319805145264,0.27135610580444336,1.95287024974823,4.030472755432129,0.2437920719385147,-0.2351052165031433,-0.6466195583343506,3.342682123184204
21,46940,46938,-0.054985497146844864,0.25241461396217346,0.9075543284416199,7.516528606414795,2.8089754581451416,0.39056116342544556,1.9525065422058105,4.0301194190979,0.24415908753871918,-0.3397376835346222,-0.5860220789909363,3.3427300453186035
22,46950,46948,0.005937823560088873,0.2819845974445343,0.9103684425354004,12.787307739257812,-1.0800014734268188,0.5924494862556458,1.9523885250091553,4.024298191070557,0.24601802229881287,-0.38230523467063904,-0.5805151462554932,3.3412628173828125
23,46960,46958,0.06311572343111038,0.17833222448825836,0.9057998657226562,11.84562873840332,-2.1777455806732178,0.44538775086402893,1.9522240161895752,4.0218400955200195,0.247648686170578,-0.3681909143924713,-0.6744398474693298,3.3335394859313965
24,46970,46968,0.03905439004302025,0.06132121384143829,0.9172543287277222,8.782170295715332,-6.693700790405273,-0.4843956530094147,1.9516549110412598,4.0241899490356445,0.24670277535915375,-0.3001786470413208,-0.7070363759994507,3.326725482940674
25,46980,46978,-0.021645519882440567,0.029481060802936554,0.9253684878349304,5.1123199462890625,-4.610726356506348,-0.6818626523017883,1.9508658647537231,4.028867244720459,0.24821531772613525,-0.21567349135875702,-0.5624589323997498,3.330495595932007
26,46990,46988,0.0200413316488266,-0.07240264117717743,0.8993943333625793,4.611806869506836,-7.2535529136657715,0.04058074578642845,1.9511632919311523,4.029158115386963,0.24947944283485413,-0.25025737285614014,-0.5965253114700317,3.325108766555786
27,47000,46998,0.0399579219520092,-0.15551982820034027,0.9213059544563293,4.5952606201171875,-4.149236679077148,-0.7982571721076965,1.9492127895355225,4.030907154083252,0.25190410017967224,-0.009459913708269596,-0.4778629541397095,3.323486804962158
28,47010,47008,-0.008075439371168613,-0.057744719088077545,0.971065878868103,6.532191276550293,-1.1116644144058228,-0.6771740913391113,1.9483530521392822,4.030630111694336,0.25315532088279724,0.08541425317525864,-0.3539847731590271,3.3201229572296143
29,47020,47018,-0.06652417033910751,0.05859048292040825,0.9763133525848389,8.41512393951416,1.8344686031341553,-0.8655778765678406,1.9483883380889893,4.030796051025391,0.2543812692165375,0.036229200661182404,-0.27393022179603577,3.314521074295044
30,47030,47028,-0.05889729782938957,0.10306740552186966,0.9488243460655212,7.657080173492432,6.227643966674805,-0.1845843493938446,1.9626121520996094,4.036778450012207,0.25635117292404175,-1.5837434530258179,-0.9112153649330139,3.284780263900757
31,47040,47038,-0.07408056408166885,0.13553498685359955,0.9540609121322632,6.835808277130127,7.234963893890381,-0.6450866460800171,1.9631134271621704,4.037100791931152,0.2569366693496704,-1.5390808582305908,-0.7498621344566345,3.2853848934173584
32,47050,47048,-0.04967716708779335,0.07373657822608948,0.9555966854095459,8.977242469787598,-1.072997808456421,0.3826642334461212,1.9600024223327637,4.044029712677002,0.2589338719844818,-1.3679407835006714,-0.6760057806968689,3.2752292156219482
33,47060,47058,0.007461660075932741,0.02677803859114647,0.9983126521110535,13.054105758666992,-13.811635971069336,0.24213625490665436,1.9581100940704346,4.047894477844238,0.2606962025165558,-1.1719861030578613,-0.4554503858089447,3.290656805038452
34,47070,47068,-0.061894871294498444,-0.046682436019182205,1.1182795763015747,19.767911911010742,-32.081787109375,0.12105022370815277,1.9575473070144653,4.050074577331543,0.26068660616874695,-0.6864197850227356,-0.2208811193704605,3.2927165031433105
35,47080,47078,-0.09415490925312042,-0.1046745628118515,1.0833022594451904,25.20630645751953,-40.85260009765625,0.38298022747039795,1.956249475479126,4.053411483764648,0.2618390619754791,-0.25802406668663025,0.045571234077215195,3.2939741611480713
36,47090,47088,-0.057224635034799576,-0.007436028681695461,1.032020092010498,24.07781410217285,-36.53020477294922,1.0046955347061157,1.9560216665267944,4.05450439453125,0.26302650570869446,0.2285120189189911,0.2404140830039978,3.2871077060699463
37,47100,47098,0.013493910431861877,-0.04191884025931358,0.9611645936965942,18.9227237701416,-29.148080825805664,1.5909228324890137,1.9569331407546997,4.053016185760498,0.26316961646080017,0.4660263955593109,0.45097795128822327,3.2993533611297607
38,47110,47108,0.04104820638895035,0.035930242389440536,0.9549614191055298,12.804058074951172,-17.876178741455078,0.9662197828292847,1.9584697484970093,4.051418304443359,0.2643287479877472,0.6146066784858704,0.5661246180534363,3.306501626968384
39,47120,47118,0.028083618730306625,0.05570307746529579,0.9516935348510742,7.2447590827941895,-7.285669326782227,0.2523575723171234,1.9558019638061523,4.054776191711426,0.2655175030231476,0.875336229801178,0.6551146507263184,3.310016393661499
40,47130,47128,0.02723747119307518,-0.02559353969991207,0.9829580187797546,3.0013277530670166,2.0509676933288574,-0.46792328357696533,1.955630898475647,4.057405948638916,0.2666650414466858,0.8817998766899109,0.82149738073349,3.3171823024749756
41,47140,47138,0.0028967331163585186,-0.04781749099493027,0.9990665912628174,1.4518468379974365,5.843353748321533,-0.8896360993385315,1.9555362462997437,4.057260990142822,0.2678004205226898,0.8795344829559326,0.7827547788619995,3.3115992546081543
42,47150,47148,0.014388615265488625,-0.042631570249795914,0.957266092300415,0.998442530632019,5.42123556137085,-0.4473729133605957,1.9553664922714233,4.058274269104004,0.2688664197921753,0.8638281226158142,0.811679482460022,3.310947895050049
43,47160,47158,0.03898577019572258,-0.05643118917942047,0.9263454079627991,1.6859302520751953,3.3149828910827637,-0.4959835708141327,1.9542971849441528,4.053369045257568,0.269861102104187,0.861958920955658,0.7685379385948181,3.308692216873169
44,47170,47168,0.06381892412900925,-0.04854907467961311,0.9610068202018738,4.960942268371582,-0.6189295053482056,-0.0009666599216870964,1.9547656774520874,4.053592205047607,0.26885250210762024,0.909176766872406,0.7714564204216003,3.3097851276397705
45,47180,47178,0.09395918250083923,-0.10758505761623383,1.0095545053482056,7.899677753448486,-5.647008419036865,0.01970737986266613,1.9542280435562134,4.052967548370361,0.2697420120239258,1.0308059453964233,0.9785242080688477,3.309086561203003
46,47190,47188,0.0771225094795227,-0.08122662454843521,0.9859885573387146,10.245752334594727,-8.145947456359863,-0.5310196280479431,1.9541146755218506,4.053664207458496,0.27048802375793457,1.2019964456558228,1.1403683423995972,3.3097314834594727
47,47200,47198,-0.009364665485918522,0.009957188740372658,0.9825212955474854,9.302874565124512,-5.968654155731201,-0.5695651769638062,1.9533332586288452,4.049079895019531,0.2694142460823059,1.350295901298523,1.290945291519165,3.3063504695892334
48,47210,47208,0.03141948953270912,-0.05543355643749237,0.9327972531318665,6.006753444671631,0.1504712551832199,-0.931637704372406,1.9534237384796143,4.049544811248779,0.2700500786304474,1.4110558032989502,1.3922138214111328,3.2984678745269775
49,47220,47218,0.1359987109899521,-0.04008287191390991,0.822834849357605,1.508376955986023,8.999683380126953,-1.10368013381958,1.9528205394744873,4.052746772766113,0.27064186334609985,1.3020333051681519,1.415052056312561,3.283949136734009
50,47230,47228,0.1437472403049469,-0.06493794918060303,0.8282625079154968,-4.418398380279541,10.165975570678711,-0.7540349364280701,1.9534863233566284,4.050612449645996,0.27120643854141235,1.2418556213378906,1.4184191226959229,3.2764837741851807
51,47240,47238,0.07071481645107269,-0.11774086207151413,0.9616956114768982,-6.947712421417236,9.25169849395752,-0.5697851777076721,1.9529473781585693,4.050657749176025,0.2686239778995514,1.0148817300796509,1.2806223630905151,3.260303020477295
52,47250,47248,0.06059668958187103,-0.2628529667854309,0.9806011915206909,-7.65685510635376,7.627629280090332,-0.5848396420478821,1.9544979333877563,4.0517425537109375,0.2687683701515198,1.053575038909912,1.1972965002059937,3.274531364440918
53,47260,47258,-0.06551571190357208,-0.25573647022247314,1.1071070432662964,-6.10721492767334,6.102193355560303,-0.8785220384597778,1.9534560441970825,4.0517258644104,0.26881614327430725,0.9575961828231812,1.1284189224243164,3.2611289024353027
54,47270,47268,-0.012590214610099792,-0.13277919590473175,1.001123309135437,-2.6539993286132812,6.742172718048096,-1.3607836961746216,1.9533278942108154,4.049037933349609,0.26823532581329346,1.0059993267059326,1.1130775213241577,3.2674143314361572
55,47280,47278,0.028184574097394943,-0.0009618311887606978,1.0242886543273926,-0.6129984259605408,6.522941589355469,-0.9736608266830444,1.953474998474121,4.046789169311523,0.26833394169807434,0.8902856707572937,1.2109830379486084,3.233820676803589
56,47290,47288,0.09091263264417648,-0.0969812199473381,1.014540433883667,1.0492128133773804,3.8115715980529785,-1.2396576404571533,1.954180359840393,4.048252582550049,0.26849812269210815,0.8161190152168274,1.25388503074646,3.2157084941864014
57,47300,47298,0.030919644981622696,-0.045423656702041626,1.0202275514602661,0.9984463453292847,2.549994468688965,-0.47330039739608765,1.9532281160354614,4.0436930656433105,0.26836517453193665,0.8425374627113342,1.289372444152832,3.2129857540130615
58,47310,47308,-0.005200072191655636,0.10533013939857483,1.0735567808151245,-2.0957601070404053,2.581934690475464,-0.2030140906572342,1.9514992237091064,4.041263580322266,0.26847514510154724,0.7834421396255493,1.275649905204773,3.2043724060058594
59,47320,47318,0.032993726432323456,-0.04166588932275772,1.019885778427124,-6.389300346374512,3.7970266342163086,0.13551555573940277,1.9519844055175781,4.039900302886963,0.2686481177806854,0.8679890036582947,1.278844952583313,3.220815420150757
60,47330,47328,0.021189257502555847,-0.024247266352176666,1.092374324798584,-9.15128231048584,3.4322774410247803,-0.765581488609314,1.951218605041504,4.038902282714844,0.2698870003223419,0.7825325131416321,1.1370317935943604,3.2214195728302
61,47340,47338,-0.00364093785174191,0.0722711831331253,1.0702357292175293,-10.02510929107666,7.4217095375061035,-1.3789832592010498,1.950543999671936,4.041066646575928,0.27024906873703003,0.6504812836647034,0.9753415584564209,3.2064263820648193
62,47350,47348,-0.04121867194771767,0.09322236478328705,1.0245988368988037,-11.16930866241455,7.760100364685059,-0.5322973728179932,1.9501807689666748,4.0428080558776855,0.2706851661205292,0.5007137060165405,0.799592137336731,3.1937170028686523
63,47360,47358,0.02074044570326805,0.017655953764915466,1.0503795146942139,-7.9250006675720215,7.32234525680542,-0.6741259694099426,1.948981761932373,4.04115629196167,0.27112695574760437,0.6680194139480591,0.8193455934524536,3.2199323177337646
64,47370,47368,0.0392858162522316,-0.0158525463193655,1.055811882019043,-4.837460517883301,6.706081390380859,-0.6534141898155212,1.9444440603256226,4.040100574493408,0.27465546131134033,0.49289965629577637,0.7203885912895203,3.2026445865631104
65,47380,47378,0.004399742931127548,-0.00283192191272974,1.043287992477417,-1.5507423877716064,3.9982056617736816,-0.12151842564344406,1.941007137298584,4.0365309715271,0.2753758728504181,0.6171422600746155,0.8367379307746887,3.219748020172119
66,47390,47388,0.016974998638033867,-0.06979527324438095,1.0963269472122192,-0.9579105377197266,4.0083112716674805,-0.3897112309932709,1.9408810138702393,4.037456035614014,0.27615806460380554,0.5707228779792786,0.8018585443496704,3.2196099758148193
67,47400,47398,0.002071020659059286,-0.045223791152238846,1.0598223209381104,-0.2952159345149994,2.495877265930176,-0.13338179886341095,1.9409855604171753,4.037431716918945,0.27870044112205505,0.47213321924209595,0.7838384509086609,3.208150625228882
68,47410,47408,0.03802547976374626,-0.03370310738682747,0.9801035523414612,-3.7019360065460205,4.907566547393799,0.3313765525817871,1.940585732460022,4.038697719573975,0.2797218859195709,0.35913142561912537,0.7243620753288269,3.202753782272339
69,47420,47418,-0.01616145856678486,0.020076673477888107,1.0428237915039062,-4.6599955558776855,6.244887351989746,-0.2562901973724365,1.941222071647644,4.040074348449707,0.28080126643180847,0.38871949911117554,0.6399649977684021,3.2183971405029297
70,47430,47428,0.02215053327381611,-0.03287550434470177,0.9743751883506775,-7.247469425201416,8.01616096496582,0.09120595455169678,1.939639687538147,4.037470817565918,0.2831801176071167,0.3861880302429199,0.6024779081344604,3.226182460784912
71,47440,47438,0.07482877373695374,-0.03952597826719284,0.9781241416931152,-9.309779167175293,8.474553108215332,-0.4484793245792389,1.9386173486709595,4.040980815887451,0.28432807326316833,0.19919024407863617,0.518721878528595,3.209815740585327
72,47450,47448,0.10015179216861725,-0.1341731697320938,0.9904243350028992,-7.962342262268066,7.517869472503662,-1.2828285694122314,1.9374914169311523,4.035379886627197,0.2854919731616974,0.11207424849271774,0.5237702131271362,3.195021390914917
73,47460,47458,0.007909605279564857,-0.06766461580991745,1.0033007860183716,-6.974433422088623,5.629459381103516,-1.4941869974136353,1.9373061656951904,4.03444766998291,0.28661468625068665,0.04758693277835846,0.44626080989837646,3.1821751594543457
74,47470,47468,0.033400002866983414,-0.06140177324414253,0.9260090589523315,-4.052060127258301,3.8343212604522705,-0.6946137547492981,1.9371697902679443,4.030069351196289,0.2875252664089203,0.0019559510983526707,0.4116341769695282,3.170319080352783
75,47480,47478,-0.0029794832225888968,-0.00896583590656519,0.9649606347084045,-3.0615897178649902,2.1625912189483643,-0.8756374716758728,1.9369218349456787,4.029548168182373,0.2886523902416229,0.023860763758420944,0.36200690269470215,3.173171281814575
76,47490,47488,0.0290332343429327,-0.05357721820473671,1.0158021450042725,-1.7927753925323486,1.6597517728805542,-1.6961783170700073,1.9369502067565918,4.028738498687744,0.28986063599586487,-0.057536397129297256,0.28598347306251526,3.1599111557006836
77,47500,47498,-0.029898300766944885,0.01172235980629921,0.9551675319671631,-2.7365756034851074,0.3126392960548401,-0.5188239812850952,1.9367263317108154,4.026792049407959,0.29163116216659546,-0.02786376141011715,0.22473324835300446,3.1542015075683594
78,47510,47508,0.03350524604320526,-0.14117926359176636,0.9872984290122986,-3.8830976486206055,1.6245959997177124,-1.171710729598999,1.9314053058624268,4.025125980377197,0.2926505208015442,0.31120505928993225,0.3127461373806,3.168001174926758
79,47520,47518,-0.003113098442554474,-0.05641720071434975,1.009528398513794,-3.742882013320923,5.785257816314697,-2.4023306369781494,1.9304558038711548,4.021113395690918,0.2937668561935425,0.18608880043029785,0.2974678874015808,3.1504158973693848
80,47530,47528,-0.002130664186552167,-0.007784279994666576,0.9665030837059021,-4.887206077575684,8.585722923278809,-2.169351577758789,1.9296157360076904,4.021371364593506,0.29228851199150085,0.023998208343982697,0.19637611508369446,3.123455047607422
81,47540,47538,0.0025374898687005043,-0.10886601358652115,0.9931934475898743,-5.7336883544921875,13.584236145019531,-0.93889981508255,1.9282615184783936,4.020692348480225,0.2932755947113037,-0.11277773231267929,0.16171033680438995,3.0966079235076904
82,47550,47548,0.047207534313201904,-0.13859479129314423,0.9518721103668213,-6.132687091827393,22.627607345581055,-2.233642816543579,1.9279935359954834,4.017768383026123,0.2941068410873413,-0.27763038873672485,0.1902644783258438,3.0827789306640625
83,47560,47558,0.019026020541787148,0.0013583695981651545,0.9259535074234009,-7.1844329833984375,27.990400314331055,-2.7430973052978516,1.9235451221466064,4.0183491706848145,0.29500168561935425,-0.26439768075942993,0.12006579339504242,3.070045232772827
84,47570,47568,-0.01853339560329914,0.022400273010134697,0.9893259406089783,-8.208946228027344,30.540212631225586,-2.9468722343444824,1.9224141836166382,4.016399383544922,0.2958262860774994,-0.7519019246101379,0.030815251171588898,3.0386009216308594
85,47580,47578,-0.018760111182928085,-0.02197083830833435,0.9802998900413513,-6.894005298614502,28.883268356323242,-3.0907504558563232,1.9188166856765747,4.0098185539245605,0.29654860496520996,-1.2327150106430054,-0.13332776725292206,3.0008580684661865
86,47590,47588,-0.007416659966111183,0.00015002356667537242,0.9686980843544006,-5.573209285736084,22.698497772216797,-2.5592448711395264,1.9160946607589722,4.010891437530518,0.29750996828079224,-1.2639981508255005,-0.19682978093624115,2.9731192588806152
87,47600,47598,0.020800670608878136,-0.014766743406653404,0.9344788193702698,-3.7693350315093994,14.80848503112793,-2.671567916870117,1.9150441884994507,4.011817455291748,0.2967159152030945,-1.5184564590454102,-0.23753780126571655,2.948535680770874
88,47610,47608,0.007486881222575903,0.01403407845646143,0.9382973313331604,-1.1803382635116577,8.795304298400879,-2.7805707454681396,1.9142422676086426,4.011876106262207,0.2973405122756958,-1.6474425792694092,-0.32361751794815063,2.915548086166382
89,47620,47618,-0.0025746829342097044,0.07923340052366257,0.9451665282249451,0.40485644340515137,3.934966564178467,-2.5704524517059326,1.9133580923080444,4.010133743286133,0.2978925108909607,-1.756807565689087,-0.36633825302124023,2.884760856628418
90,47630,47628,-0.01991322636604309,0.03035472333431244,0.9737746715545654,2.3972816467285156,0.8147258162498474,-2.073786973953247,1.913011908531189,4.009976863861084,0.29751017689704895,-1.863806962966919,-0.37239333987236023,2.8595998287200928
91,47640,47638,-0.03534337505698204,-0.035949476063251495,0.8817921876907349,2.6219160556793213,1.9240440130233765,-1.8035736083984375,1.9117717742919922,4.010570049285889,0.2979142665863037,-1.8486360311508179,-0.2770698368549347,2.852909564971924
92,47650,47648,-0.009125118143856525,-0.0025002053007483482,0.9700495004653931,1.3286139965057373,3.3147900104522705,-1.572405219078064,1.9112340211868286,4.011836528778076,0.298281192779541,-1.9072800874710083,-0.2633112072944641,2.833386182785034
93,47660,47658,0.013115789741277695,-0.03475777804851532,0.9626784920692444,-0.2531548738479614,7.99085807800293,-2.0998928546905518,1.9122049808502197,4.013561725616455,0.29828739166259766,-2.0074119567871094,-0.271756112575531,2.8149831295013428
94,47670,47668,0.0743681788444519,-0.10815509408712387,0.8818666338920593,-2.3055579662323,10.206048965454102,-2.2889862060546875,1.912785291671753,4.0136919021606445,0.2984499931335449,-2.1446292400360107,-0.30122750997543335,2.793109178543091
95,47680,47678,0.05418867617845535,-0.05050085112452507,0.9181095361709595,-3.516616106033325,10.587103843688965,-1.564634084701538,1.9134907722473145,4.013241291046143,0.29851034283638,-2.304182529449463,-0.2822909951210022,2.7857298851013184
96,47690,47688,0.0706494152545929,-0.08833621442317963,0.9531027674674988,-3.146559715270996,7.6396260261535645,-0.3775636553764343,1.9144316911697388,4.014683246612549,0.2984878420829773,-2.4497933387756348,-0.35588622093200684,2.758958578109741
97,47700,47698,0.07661557197570801,-0.18280604481697083,1.003178596496582,-2.6041300296783447,3.0516107082366943,-0.2663439214229584,1.914076805114746,4.015661239624023,0.30096134543418884,-2.3837316036224365,-0.4182509481906891,2.729285955429077
98,47710,47708,0.035071421414613724,-0.1926538348197937,1.0672062635421753,-2.110590696334839,-0.5487080216407776,-0.45950084924697876,1.9119651317596436,4.01458215713501,0.30130961537361145,-2.3421945571899414,-0.3217012882232666,2.7580819129943848
99,47720,47718,0.004022903740406036,-0.1538708209991455,0.9934595823287964,-0.4818333387374878,-1.2580962181091309,-0.6198498606681824,1.9115391969680786,4.014983654022217,0.30147579312324524,-2.329458713531494,-0.37388184666633606,2.740443706512451
100,47730,47728,0.014329593628644943,-0.07130550593137741,0.9528672695159912,-0.7136822938919067,-1.2725812196731567,-0.18858522176742554,1.912838339805603,4.01508903503418,0.30092093348503113,-2.446113348007202,-0.4023495316505432,2.737637996673584
101,47740,47738,0.05427519232034683,0.010345146991312504,0.9756750464439392,-1.1565271615982056,1.78034245967865,0.37273332476615906,1.9135253429412842,4.018734455108643,0.30107948184013367,-2.4188485145568848,-0.4314248859882355,2.7244503498077393
102,47750,47748,0.12422716617584229,-0.05853451043367386,0.978708803653717,-0.6740020513534546,-0.834274172782898,0.47553354501724243,1.9132078886032104,4.020387172698975,0.30110442638397217,-2.4609224796295166,-0.46063172817230225,2.723780870437622
103,47760,47758,0.05448083207011223,-0.123396135866642,0.9979127645492554,3.4820780754089355,-7.0842790603637695,1.134177803993225,1.9125151634216309,4.019993782043457,0.2996785640716553,-2.4389913082122803,-0.45676684379577637,2.73158860206604
104,47770,47768,0.015153846703469753,-0.09792905300855637,0.9697045087814331,3.6232473850250244,-9.391148567199707,1.385137677192688,1.9116322994232178,4.019521236419678,0.2996644079685211,-2.349278688430786,-0.4180796146392822,2.7465009689331055
105,47780,47778,-0.0059637525118887424,-0.01614890620112419,1.0086338520050049,3.394681453704834,-7.377248764038086,2.0132875442504883,1.912563681602478,4.019330024719238,0.29954254627227783,-2.315077543258667,-0.36480262875556946,2.771714210510254
106,47790,47788,0.04531256854534149,-0.039437320083379745,1.0008251667022705,1.611013650894165,-5.572543621063232,1.8834389448165894,1.912869930267334,4.019944190979004,0.29947277903556824,-2.2125046253204346,-0.40259748697280884,2.7602052688598633
107,47800,47798,0.04029223322868347,-0.0576433464884758,1.0288872718811035,-0.46130120754241943,-2.913011074066162,0.896766185760498,1.9117660522460938,4.01871919631958,0.29953205585479736,-2.07182240486145,-0.3802134394645691,2.7706727981567383
108,47810,47808,7.715133688179776e-05,-0.0012708237627521157,1.0288970470428467,-2.042356014251709,-2.819796085357666,1.2512798309326172,1.9122692346572876,4.0188775062561035,0.2994709610939026,-2.040985107421875,-0.3948763310909271,2.777808427810669
109,47820,47818,-0.006129047833383083,0.028042428195476532,0.9871952533721924,0.06682893633842468,0.15186037123203278,-0.2278594672679901,1.9144889116287231,4.019036293029785,0.2993047833442688,-2.193068504333496,-0.418075829744339,2.806685447692871
110,47830,47828,0.023648355156183243,0.027431195601820946,0.9544738531112671,3.958031415939331,-4.682271480560303,0.44549888372421265,1.9143354892730713,4.018837928771973,0.2991824746131897,-2.0934817790985107,-0.4031471014022827,2.807685613632202
111,47840,47838,0.008742180652916431,-0.004166098777204752,1.0241293907165527,7.527863025665283,-9.331320762634277,0.9805091023445129,1.9137370586395264,4.019751071929932,0.29910364747047424,-2.0841073989868164,-0.3219280242919922,2.831148624420166
112,47850,47848,0.018751541152596474,0.01362227089703083,1.028687596321106,10.643732070922852,-13.80656623840332,1.4678888320922852,1.912560224533081,4.016703128814697,0.2990327477455139,-1.918534278869629,-0.2652646005153656,2.8276007175445557
113,47860,47858,-0.04730089008808136,0.09657732397317886,1.0769898891448975,9.38194465637207,-14.531577110290527,2.550269842147827,1.9130191802978516,4.019343852996826,0.30202069878578186,-1.8514190912246704,-0.183140367269516,2.8415160179138184
114,47870,47868,0.028257325291633606,-0.041370689868927,0.9687919616699219,8.524561882019043,-14.903227806091309,3.2964484691619873,1.9120758771896362,4.015995502471924,0.30233249068260193,-1.5217578411102295,-0.025704601779580116,2.8680121898651123
115,47880,47878,-0.05874378979206085,-0.053451985120773315,1.1093980073928833,4.0220513343811035,-16.586660385131836,3.0991592407226562,1.9148194789886475,4.017920017242432,0.3025592565536499,-1.6476980447769165,-0.13985170423984528,2.85750150680542
116,47890,47888,-0.037874095141887665,-0.022475143894553185,1.079591155052185,1.4462343454360962,-12.67326831817627,3.9315850734710693,1.9150670766830444,4.019664764404297,0.3022719621658325,-1.375634789466858,-0.14154742658138275,2.8661627769470215
117,47900,47898,-0.0009170586126856506,0.04588177427649498,1.007747769355774,0.7966560125350952,-10.75713062286377,4.34304141998291,1.9138169288635254,4.018636226654053,0.3027055561542511,-1.1578799486160278,-0.018460800871253014,2.9281206130981445
118,47910,47908,0.0015266936970874667,0.06428628414869308,1.003347635269165,2.513117790222168,-9.829084396362305,3.6155378818511963,1.9148204326629639,4.021666049957275,0.30305537581443787,-1.125290036201477,0.016725663095712662,2.9831626415252686
119,47920,47918,-0.004127394407987595,0.013656063936650753,1.0232717990875244,1.3860610723495483,-6.056225776672363,2.7375311851501465,1.9143880605697632,4.023468017578125,0.30356767773628235,-0.8901407122612,-0.02018594741821289,2.9989519119262695
120,47930,47928,0.028573358431458473,-0.027939796447753906,0.9622561931610107,-1.0922229290008545,-7.050228118896484,3.5175697803497314,1.9169560670852661,4.025719165802002,0.2990017533302307,-0.9856525659561157,-0.06444478034973145,3.0261476039886475
121,47940,47938,0.004719647113233805,0.0023775731679052114,1.0106920003890991,-2.527088165283203,-3.445249319076538,3.3625504970550537,1.9168061017990112,4.026281356811523,0.2990930378437042,-0.9364973306655884,-0.05976448580622673,3.0629210472106934
122,47950,47948,0.04391605034470558,0.003398727159947157,1.0003987550735474,-1.5255026817321777,-2.53035569190979,3.0036396980285645,1.915651798248291,4.025118350982666,0.29924502968788147,-0.8374733924865723,-0.07356582581996918,3.094780206680298
123,47960,47958,0.03578072413802147,-0.0317273773252964,0.9651623964309692,-0.9309285879135132,0.49130579829216003,2.125999927520752,1.9174257516860962,4.025579452514648,0.30045393109321594,-1.0047482252120972,-0.08120542019605637,3.135364294052124
124,47970,47968,-0.002093787305057049,-0.025616638362407684,0.9841395616531372,0.026045160368084908,4.585329055786133,0.836444616317749,1.917607069015503,4.025536060333252,0.3007320165634155,-0.8973376154899597,-0.0735197514295578,3.1602022647857666
125,47980,47978,0.0215433519333601,-0.06605037301778793,0.9711635112762451,-0.7441027164459229,2.6727852821350098,1.4834333658218384,1.9190301895141602,4.027151584625244,0.30089065432548523,-0.9053186774253845,-0.0574217364192009,3.1751463413238525
126,47990,47988,0.0013521675718948245,0.012652701698243618,1.052208423614502,-0.8239002227783203,-2.542587995529175,1.4860690832138062,1.9186887741088867,4.0256876945495605,0.2980194091796875,-0.9548707604408264,-0.049787331372499466,3.1891942024230957
127,48000,47998,0.044073689728975296,-0.07689819484949112,1.0143884420394897,-0.23334327340126038,-9.853617668151855,2.135236978530884,1.9180216789245605,4.025365829467773,0.298139750957489,-0.757728099822998,-0.04523003473877907,3.1955692768096924
128,48010,48008,0.022846460342407227,-0.11875215917825699,1.0105433464050293,2.0012242794036865,-11.98914623260498,1.5449669361114502,1.9185303449630737,4.026253700256348,0.2981557250022888,-0.6430737376213074,-0.09943734854459763,3.2079274654388428
129,48020,48018,0.005564927589148283,-0.06899730116128922,0.9664212465286255,3.4067487716674805,-14.866497039794922,2.4689228534698486,1.9186114072799683,4.026411533355713,0.29815801978111267,-0.6221916079521179,-0.04598615691065788,3.234978675842285
130,48030,48028,-0.022237563505768776,-0.015896791592240334,1.0008766651153564,4.213587760925293,-13.271984100341797,3.3696162700653076,1.919942855834961,4.027101039886475,0.29918372631073,-0.35151898860931396,0.02798108197748661,3.2575085163116455
131,48040,48038,0.009988323785364628,-0.026069775223731995,0.991157054901123,2.7202069759368896,-7.112459182739258,3.92297101020813,1.920286774635315,4.025537967681885,0.29918625950813293,-0.28816524147987366,0.09508693963289261,3.293186664581299
132,48050,48048,-0.014015004970133305,-0.018555516377091408,1.0203332901000977,2.2866909503936768,-4.152519702911377,3.6968655586242676,1.9207088947296143,4.024898052215576,0.2992154657840729,-0.20775113999843597,0.14638423919677734,3.3341338634490967
133,48060,48058,0.029202478006482124,-0.06944652646780014,0.9951936602592468,-1.4308334589004517,6.25344705581665,3.627756357192993,1.9219541549682617,4.02342414855957,0.29802829027175903,-0.3173408508300781,0.09198667854070663,3.3689491748809814
134,48070,48068,0.04452373459935188,-0.13986656069755554,1.0451282262802124,-4.81026554107666,4.59593391418457,3.8215057849884033,1.9217000007629395,4.022974491119385,0.2980985641479492,-0.2581923305988312,0.07301630824804306,3.4049417972564697
135,48080,48078,0.06053803116083145,-0.20255376398563385,1.0227563381195068,-8.409649848937988,-5.993208885192871,3.1301188468933105,1.922458529472351,4.025354862213135,0.29818832874298096,-0.23413777351379395,-0.005054341163486242,3.439107894897461
136,48090,48088,0.0008660433231852949,-0.09737472236156464,1.0932130813598633,-6.639711380004883,-13.276637077331543,1.352704405784607,1.921683669090271,4.0235466957092285,0.29996055364608765,-0.10223311930894852,0.03963762894272804,3.4640936851501465
137,48100,48098,0.0003430532233323902,-0.006527869962155819,0.9986917972564697,-4.874159812927246,-11.44057846069336,0.3749385178089142,1.9222968816757202,4.0245280265808105,0.30018478631973267,0.019736282527446747,-0.13978278636932373,3.480424404144287
138,48110,48108,-0.00396046694368124,-0.03165110573172569,0.944713830947876,-4.356765270233154,-13.070273399353027,0.36017560958862305,1.921179175376892,4.024296283721924,0.3005063831806183,0.09406915307044983,-0.20494037866592407,3.4881529808044434
139,48120,48118,0.024669960141181946,-0.15261782705783844,1.0212621688842773,-2.5285933017730713,-18.49264144897461,0.3379814028739929,1.9223419427871704,4.025561809539795,0.3006967604160309,0.14187690615653992,-0.17402467131614685,3.4961090087890625
140,48130,48128,0.028250567615032196,-0.187210351228714,1.0600581169128418,2.0265820026397705,-13.945903778076172,-2.2351443767547607,1.9243100881576538,4.0255937576293945,0.301670640707016,0.1999337524175644,-0.1827811896800995,3.4983408451080322
141,48140,48138,-0.04042593762278557,-0.0009299101075157523,1.028123140335083,3.874800443649292,-4.975528240203857,-4.147974491119385,1.922607660293579,4.024440765380859,0.302009642124176,0.4170895516872406,-0.2160194218158722,3.4754180908203125
142,48150,48148,-0.06734435260295868,0.056789331138134,1.0186933279037476,2.380965232849121,-0.34065699577331543,-3.8371076583862305,1.9233512878417969,4.024362564086914,0.30237168073654175,0.5144291520118713,-0.15762968361377716,3.437418222427368
143,48160,48158,-0.0010976511985063553,-0.009246747009456158,0.9978558421134949,3.8089306354522705,0.8875095248222351,-3.52191162109375,1.9244745969772339,4.025681495666504,0.30358031392097473,0.5461596250534058,-0.17434872686862946,3.403609275817871
144,48170,48168,-0.01658623106777668,0.029988965019583702,1.0333577394485474,2.63171648979187,8.167044639587402,-4.050749778747559,1.9241522550582886,4.026009559631348,0.3040444850921631,0.5744006037712097,-0.10541846603155136,3.361858606338501
145,48180,48178,-0.010553613305091858,0.023617036640644073,1.0260019302368164,3.240323543548584,10.445772171020508,-4.327732086181641,1.924652338027954,4.025852680206299,0.3045245110988617,0.5279521346092224,-0.04006269574165344,3.3179972171783447
146,48190,48188,0.022358717396855354,-0.023226605728268623,0.9774444103240967,1.8700447082519531,10.351302146911621,-5.29117488861084,1.9255059957504272,4.025834560394287,0.30637359619140625,0.445584237575531,0.013927517458796501,3.2736103534698486
147,48200,48198,-0.019660398364067078,-0.004634414799511433,1.0017515420913696,0.2733466625213623,9.26646614074707,-6.2484130859375,1.92621648311615,4.025729656219482,0.3069385886192322,0.28680220246315,0.0456402488052845,3.2230939865112305
148,48210,48208,-0.0656934529542923,0.06590244919061661,1.002429485321045,-0.29335683584213257,9.413518905639648,-6.8686747550964355,1.927917242050171,4.02662467956543,0.30744943022727966,0.2151452600955963,0.05251209810376167,3.16469407081604
149,48220,48218,-0.013647140935063362,0.12717123329639435,0.9855213165283203,-0.19478940963745117,8.110696792602539,-8.186440467834473,1.927471399307251,4.0264668464660645,0.30806052684783936,0.15422172844409943,0.051846086978912354,3.097790479660034
150,48230,48228,0.022062107920646667,0.10427407920360565,0.9747245907783508,0.5205956697463989,1.7710829973220825,-9.99906063079834,1.9283479452133179,4.026185035705566,0.30934765934944153,0.06584315001964569,0.05773664638400078,3.0201399326324463
151,48240,48238,-0.04525813087821007,-0.022356921806931496,1.0078734159469604,2.4356868267059326,1.6487033367156982,-11.161653518676758,1.9296352863311768,4.025871753692627,0.3099502623081207,0.11066404730081558,0.0873434767127037,2.922755002975464
152,48250,48248,0.0024191502016037703,-0.014105355367064476,0.9636536836624146,3.88382887840271,-0.05095818266272545,-12.710725784301758,1.929772138595581,4.0261969566345215,0.3105897009372711,0.02171337604522705,0.06039808690547943,2.8219549655914307
153,48260,48258,0.023498142138123512,-0.008214367553591728,0.9502232670783997,4.51817512512207,-2.539088487625122,-13.182024002075195,1.9323127269744873,4.026613712310791,0.31353434920310974,0.04348812997341156,0.05633442848920822,2.703341245651245
154,48270,48268,-0.0013571414165198803,0.005655464716255665,0.9733521342277527,5.384354114532471,-5.4631571769714355,-13.486708641052246,1.9329818487167358,4.025696277618408,0.31421563029289246,0.18339642882347107,0.14938797056674957,2.559560775756836
155,48280,48278,-0.024933066219091415,-0.014147584326565266,0.9586400389671326,6.379654884338379,-7.144792079925537,-13.348179817199707,1.9326180219650269,4.025302410125732,0.3149348497390747,0.11720965802669525,0.2529745399951935,2.419433832168579
156,48290,48288,-0.009416918270289898,-0.00509571423754096,0.9092798829078674,6.132354736328125,-6.729709625244141,-12.549997329711914,1.9345500469207764,4.023171901702881,0.31396543979644775,0.16432367265224457,0.2834317088127136,2.2810182571411133
157,48300,48298,0.022050239145755768,0.0007305553881451488,0.9073530435562134,5.420929908752441,-6.539284706115723,-12.73891830444336,1.9361801147460938,4.022825241088867,0.3144170045852661,0.21145060658454895,0.3929486870765686,2.1475584506988525
158,48310,48308,0.07029304653406143,-0.02855977974832058,0.9116507768630981,3.902202844619751,-3.388341188430786,-13.34670639038086,1.9362362623214722,4.0205206871032715,0.3147979974746704,0.30574530363082886,0.3976379632949829,2.01841139793396
159,48320,48318,0.11216520518064499,-0.03862160071730614,0.9410639405250549,3.2007977962493896,-2.3898332118988037,-13.498106002807617,1.9346776008605957,4.0190205574035645,0.3167183995246887,0.435522198677063,0.3874608278274536,1.8895858526229858
160,48330,48328,0.14242048561573029,-0.10757988691329956,0.9496530294418335,1.0175957679748535,-0.27309635281562805,-13.497727394104004,1.9346648454666138,4.02015495300293,0.31701165437698364,0.2992094159126282,0.4353867173194885,1.7597813606262207
161,48340,48338,0.09669878333806992,-0.12802685797214508,0.9535813927650452,0.02151302807033062,1.526337742805481,-14.781747817993164,1.9354324340820312,4.018006801605225,0.3172001540660858,0.39210477471351624,0.45556360483169556,1.6235905885696411
162,48350,48348,0.013515264727175236,0.007322077173739672,0.9060630202293396,2.994321346282959,-2.175086498260498,-13.544089317321777,1.935849905014038,4.019176959991455,0.3174615204334259,0.4848739802837372,0.5633856058120728,1.4693742990493774
163,48360,48358,-0.003998328000307083,-0.012496666051447392,0.9406416416168213,6.974138259887695,-4.921108722686768,-11.995070457458496,1.9376217126846313,4.017865180969238,0.3163997530937195,0.2821302115917206,0.624663233757019,1.3176318407058716
164,48370,48368,0.034725841134786606,-0.06701569259166718,0.9266961216926575,8.917764663696289,-5.388404846191406,-10.649981498718262,1.9371044635772705,4.017543792724609,0.31645432114601135,0.4477635324001312,0.5748969912528992,1.2122701406478882
165,48380,48378,0.011792871169745922,-0.09140835702419281,0.9855079054832458,8.167433738708496,-6.716824531555176,-10.231496810913086,1.9359513521194458,4.019130229949951,0.3165971040725708,0.617539644241333,0.7135027647018433,1.0970820188522339
166,48390,48388,-0.00855432078242302,-0.08223665505647659,0.9929796457290649,6.312169075012207,-5.8703155517578125,-9.189777374267578,1.936279535293579,4.018332004547119,0.31739866733551025,0.5530075430870056,0.7576019763946533,0.9925295114517212
167,48400,48398,-0.027354637160897255,-0.049693718552589417,0.9882757067680359,2.7197916507720947,-2.829141616821289,-7.4791083335876465,1.9395766258239746,4.018366813659668,0.3173280358314514,0.5538944602012634,0.8471913933753967,0.8869906067848206
168,48410,48408,-0.0033333490137010813,-0.005112126935273409,0.9672415852546692,-1.0214838981628418,1.9671489000320435,-5.393877029418945,1.9402656555175781,4.017556667327881,0.3172528147697449,0.6571873426437378,0.9546855688095093,0.8023908734321594
169,48420,48418,0.0008767683175392449,-0.009892542846500874,0.9646479487419128,-4.534578800201416,5.318666458129883,-4.246058940887451,1.940561294555664,4.0178046226501465,0.3161086142063141,0.6816457509994507,0.9087969660758972,0.7434389591217041
170,48430,48428,-0.0283149816095829,0.024275239557027817,1.0227227210998535,-7.387107849121094,7.548863887786865,-3.1888046264648438,1.9413024187088013,4.016446113586426,0.3159077763557434,0.6488803029060364,0.8059977889060974,0.7102394700050354
171,48440,48438,-0.02399205043911934,-0.013473900966346264,0.984351634979248,-6.032131671905518,7.092126846313477,-2.3590164184570312,1.9416223764419556,4.015974521636963,0.3156522214412689,0.5901702642440796,0.6868988275527954,0.6856899857521057
172,48450,48448,0.026916388422250748,-0.04420161619782448,0.9423182606697083,-4.271878242492676,7.5386481285095215,-2.102822780609131,1.9430432319641113,4.01690149307251,0.3153803050518036,0.450459748506546,0.6639589667320251,0.6484929919242859
173,48460,48458,-0.005869900807738304,-0.013460692018270493,0.9898787140846252,-0.662377119064331,5.091232776641846,-1.8816025257110596,1.9428479671478271,4.017704010009766,0.3118640184402466,0.392358660697937,0.6695935726165771,0.6325788497924805
174,48470,48468,-0.04472271725535393,0.0146486172452569,1.0458775758743286,1.869099736213684,4.1392717361450195,-2.5398311614990234,1.941894769668579,4.017129898071289,0.3114527463912964,0.4411080479621887,0.64686119556427,0.613448441028595
175,48480,48478,-0.04379225894808769,0.01931672729551792,1.0426396131515503,1.7062288522720337,-0.17905069887638092,-1.755456566810608,1.9436094760894775,4.01459264755249,0.31096315383911133,0.29136770963668823,0.6602921485900879,0.5808231830596924
176,48490,48488,-0.030124587938189507,-0.03296660631895065,1.0127675533294678,-1.530013918876648,-2.484936237335205,-0.8796226382255554,1.9423787593841553,4.012533664703369,0.30972790718078613,0.42997658252716064,0.6568306684494019,0.5684051513671875
177,48500,48498,-0.052025485783815384,-0.019197525456547737,1.0096464157104492,-5.841405868530273,4.327377796173096,0.12664303183555603,1.9423855543136597,4.012348175048828,0.30930644273757935,0.45615458488464355,0.6770420074462891,0.5564836263656616
178,48510,48508,-0.023044941946864128,0.004996180068701506,1.0073442459106445,-9.310270309448242,8.629786491394043,-0.9786120653152466,1.9428938627243042,4.0111212730407715,0.3089044392108917,0.4133264124393463,0.6208834052085876,0.5477322340011597
179,48520,48518,-0.03775310143828392,0.057295460253953934,0.9894681572914124,-11.260207176208496,11.775484085083008,-0.8518978357315063,1.9439961910247803,4.010765075683594,0.3106454312801361,0.3014224171638489,0.507301390171051,0.5452165603637695
180,48530,48528,0.026206446811556816,-0.1006762906908989,1.0214767456054688,-9.55109691619873,13.631377220153809,-0.10953022539615631,1.9443153142929077,4.007920265197754,0.31037741899490356,0.2206379920244217,0.5321763753890991,0.5137720704078674
181,48540,48538,-0.02179543301463127,-0.06252512335777283,1.0543245077133179,-3.841204881668091,10.877565383911133,-0.003501721890643239,1.9448424577713013,4.006425380706787,0.31012895703315735,0.03874994069337845,0.5100157260894775,0.4939330518245697
182,48550,48548,-1.0460694284120109e-05,-0.06162818521261215,1.0813056230545044,1.6619466543197632,9.731436729431152,-0.3934978246688843,1.94587242603302,4.006315231323242,0.30989664793014526,-0.1281135380268097,0.42216527462005615,0.4930000305175781
183,48560,48558,-0.02355727180838585,-0.054984066635370255,1.0870468616485596,6.5167365074157715,9.754717826843262,-1.4321781396865845,1.94575035572052,4.006631374359131,0.30849242210388184,-0.11902958154678345,0.42875900864601135,0.498543918132782
184,48570,48568,0.01736726053059101,-0.042571984231472015,0.9893351197242737,7.484884262084961,6.51068639755249,-0.7231996059417725,1.9474480152130127,4.006134033203125,0.3082646131515503,-0.3830278217792511,0.48975715041160583,0.47399652004241943
185,48580,48578,0.018423421308398247,0.012098017148673534,0.9421432614326477,4.015933990478516,7.592339038848877,-0.18067383766174316,1.9462766647338867,4.006820201873779,0.30818822979927063,-0.36837607622146606,0.6264839172363281,0.48434773087501526
186,48590,48588,0.03508622571825981,-0.046937741339206696,0.9590968489646912,-1.8267641067504883,4.952404499053955,0.6944997310638428,1.9456005096435547,4.005733489990234,0.30841028690338135,-0.3410554528236389,0.6988043785095215,0.4908517897129059
187,48600,48598,0.05211116001009941,-0.08566661179065704,1.0063811540603638,-7.778984069824219,2.843665599822998,0.5849711298942566,1.9455052614212036,4.0081400871276855,0.3083166480064392,-0.36993691325187683,0.5984450578689575,0.5068461894989014
188,48610,48608,0.023358361795544624,-0.09036462008953094,1.0300105810165405,-18.76089096069336,6.129457950592041,-0.33495625853538513,1.9458844661712646,4.010756492614746,0.3082630932331085,-0.403747022151947,0.3729977011680603,0.5328513979911804
189,48620,48618,-0.002897275146096945,-0.053348127752542496,1.025729775428772,-23.8603572845459,10.608168601989746,0.24108977615833282,1.946126937866211,4.010324954986572,0.3084113597869873,-0.40994420647621155,0.32151246070861816,0.5324666500091553
190,48630,48628,0.033890653401613235,-0.0647844672203064,1.0479990243911743,-22.67751693725586,12.248310089111328,0.7601785063743591,1.9464880228042603,4.009288787841797,0.3083178997039795,-0.5503411889076233,0.04978465288877487,0.5296953916549683
191,48640,48638,0.016057873144745827,-0.05033189058303833,1.0712567567825317,-16.8037166595459,13.162725448608398,1.609392523765564,1.946651577949524,4.0089850425720215,0.30827978253364563,-0.6478343605995178,-0.18748289346694946,0.533501148223877
192,48650,48648,0.02191074565052986,-0.05329985171556473,1.0003665685653687,-11.926202774047852,10.97954273223877,3.0130701065063477,1.947818636894226,4.008880138397217,0.306833416223526,-0.8228775858879089,-0.26809996366500854,0.5511666536331177
193,48660,48658,-0.029933812096714973,0.04800508916378021,1.0777901411056519,-8.035184860229492,5.626547813415527,3.767585515975952,1.9475551843643188,4.008665561676025,0.3068445920944214,-0.8680025935173035,-0.42432835698127747,0.5793267488479614
194,48670,48668,-0.008286725729703903,-0.022301241755485535,1.0582607984542847,-7.096585273742676,1.9174412488937378,3.9156291484832764,1.9467840194702148,4.008015155792236,0.3068926930427551,-0.9134822487831116,-0.5258464217185974,0.6142982840538025
195,48680,48678,-0.033890124410390854,0.020787730813026428,1.0841073989868164,-8.108074188232422,0.6120732426643372,3.808542251586914,1.9473978281021118,4.007566452026367,0.30695483088493347,-0.9002540111541748,-0.5423349738121033,0.6572175621986389
196,48690,48688,0.0016304000746458769,-0.021647915244102478,1.002763271331787,-8.613778114318848,1.4684211015701294,4.053096771240234,1.9479345083236694,4.004590034484863,0.3039533793926239,-0.9530184864997864,-0.5692039728164673,0.6857139468193054
197,48700,48698,-0.014254213310778141,-0.0215707216411829,1.0323762893676758,-6.986778259277344,2.907809257507324,4.3342742919921875,1.9498484134674072,4.004191875457764,0.3038545846939087,-1.0893617868423462,-0.6740180253982544,0.7266585826873779
198,48710,48708,-0.012774885632097721,0.002072213916108012,1.0548385381698608,-5.967710018157959,5.930220603942871,3.396357536315918,1.9514113664627075,4.002478122711182,0.3038942515850067,-1.0947387218475342,-0.6819502115249634,0.7732746005058289
199,48720,48718,-0.012766585685312748,0.013521743007004261,1.038419246673584,-2.360459089279175,12.339588165283203,1.056931734085083,1.9518752098083496,4.003150463104248,0.30218270421028137,-1.1653004884719849,-0.8171194195747375,0.8008105158805847
200,48730,48728,0.001691967947408557,0.04869620129466057,0.9751452207565308,0.4990093410015106,15.381787300109863,-0.1847393661737442,1.9520751237869263,4.0016961097717285,0.3021904528141022,-1.2397106885910034,-0.8212704062461853,0.8124431371688843
201,48740,48738,-0.0731825903058052,0.14816512167453766,1.0038917064666748,2.2898309230804443,14.269002914428711,-0.5406017899513245,1.9529662132263184,4.001011848449707,0.30212557315826416,-1.424888014793396,-0.8539401292800903,0.8146986365318298
202,48750,48748,-0.028096606954932213,0.07969493418931961,0.9758421778678894,2.8344063758850098,6.690796852111816,-0.34540385007858276,1.9533830881118774,4.000558376312256,0.3033753037452698,-1.563446044921875,-0.8572437167167664,0.8082418441772461
203,48760,48758,-0.03680458292365074,0.014157998375594616,1.0346556901931763,6.18365478515625,1.750718593597412,-0.05881158635020256,1.9532865285873413,4.0007758140563965,0.3034244775772095,-1.5216633081436157,-0.7519571185112,0.8187462687492371
204,48770,48768,-0.01067461259663105,0.0025402242317795753,1.035140872001648,8.10402774810791,-5.609469413757324,1.2959039211273193,1.9518992900848389,4.000021457672119,0.3037230670452118,-1.466722846031189,-0.6885349750518799,0.8105508089065552
205,48780,48778,0.025127118453383446,-0.028973057866096497,0.9817392826080322,6.763981342315674,-8.961082458496094,3.3430933952331543,1.952851414680481,3.9995839595794678,0.3037926256656647,-1.4841372966766357,-0.6059849858283997,0.8265637755393982
206,48790,48788,-0.008378347381949425,0.005672182887792587,1.0344799757003784,4.164116382598877,-11.250357627868652,4.304262161254883,1.9533799886703491,3.999171733856201,0.30288776755332947,-1.4277571439743042,-0.5439082980155945,0.8554167151451111
207,48800,48798,0.013058706186711788,-0.02068895846605301,0.9957626461982727,0.9046005010604858,-11.870362281799316,5.151844024658203,1.9541698694229126,3.998891592025757,0.30293452739715576,-1.3278642892837524,-0.522494912147522,0.8922674059867859
208,48810,48808,0.0011178965214639902,-0.04135743901133537,1.0224148035049438,-2.569462537765503,-14.561673164367676,4.991514682769775,1.9545085430145264,3.9986515045166016,0.30309537053108215,-1.1243280172348022,-0.5546202063560486,0.9159825444221497
209,48820,48818,-0.011373882181942463,-0.015713244676589966,0.9938808679580688,-5.3855085372924805,-12.009256362915039,4.485323429107666,1.9558216333389282,3.9983091354370117,0.3051697015762329,-1.072777509689331,-0.5647801160812378,0.9796725511550903
210,48830,48828,-0.0012797656236216426,0.025701459497213364,0.9687168002128601,-8.059985160827637,-7.472926139831543,4.587491989135742,1.957509994506836,3.9978764057159424,0.3053704798221588,-0.9713519811630249,-0.6221607327461243,1.0292961597442627
211,48840,48838,-0.07966705411672592,0.12501797080039978,1.0414297580718994,-9.476804733276367,-4.982507705688477,4.59430456161499,1.9586535692214966,3.997836112976074,0.30549585819244385,-0.9355786442756653,-0.7861380577087402,1.0686181783676147
212,48850,48848,-0.06423481553792953,0.055389076471328735,1.041581630706787,-10.51445484161377,0.990777313709259,3.6298696994781494,1.9602346420288086,3.9976816177368164,0.30815640091896057,-1.0365968942642212,-0.7366562485694885,1.1554628610610962
213,48860,48858,-0.05792498216032982,0.044579874724149704,1.0842622518539429,-10.752935409545898,5.493341445922852,2.084038734436035,1.962996482849121,3.9986510276794434,0.30847230553627014,-1.034594178199768,-0.938323974609375,1.1884790658950806
214,48870,48868,-0.027521591633558273,0.012495179660618305,1.0056565999984741,-9.787773132324219,9.181102752685547,-0.11746490746736526,1.9636386632919312,3.9979088306427,0.3089745342731476,-1.0277361869812012,-0.9780369400978088,1.2172611951828003
215,48880,48878,-0.05473582074046135,0.117038294672966,0.9535354375839233,-8.561603546142578,5.928988933563232,-1.6555997133255005,1.963980793952942,3.9983937740325928,0.3103027641773224,-1.0570389032363892,-1.1598559617996216,1.2002811431884766
216,48890,48888,-0.013473938219249249,0.08597201853990555,0.9788998961448669,-6.747808456420898,-0.6155003905296326,-2.5946083068847656,1.9638348817825317,3.9985172748565674,0.3108762502670288,-1.0400949716567993,-1.308777928352356,1.160050392150879
217,48900,48898,-0.03265397250652313,0.06137901172041893,1.0409468412399292,-1.5161460638046265,-3.92559814453125,-4.088670253753662,1.9647109508514404,3.998497247695923,0.31138452887535095,-0.9420008659362793,-1.2462407350540161,1.136670470237732
218,48910,48908,-0.012303001247346401,-0.03152505308389664,0.9712429046630859,1.1095376014709473,-8.62905216217041,-4.347476482391357,1.964800477027893,3.9952797889709473,0.3121044635772705,-0.9308505654335022,-1.2071818113327026,1.1124228239059448
219,48920,48918,-0.07240321487188339,0.05182374641299248,0.9739612936973572,1.7854456901550293,-6.4985456466674805,-6.099200248718262,1.96547532081604,3.9971086978912354,0.31091904640197754,-0.9552904963493347,-1.209855318069458,1.0953402519226074
220,48930,48928,-0.104093536734581,0.131415456533432,0.9490998983383179,-1.8387597799301147,0.14682592451572418,-7.247746467590332,1.9661046266555786,3.998584747314453,0.31133872270584106,-1.0156455039978027,-1.1464608907699585,1.0848675966262817
221,48940,48938,-0.042284656316041946,0.0558273084461689,0.9930881261825562,-2.994306802749634,4.160231590270996,-8.612797737121582,1.9671380519866943,3.9980993270874023,0.3117256760597229,-0.91318279504776,-1.1975513696670532,0.9957556128501892
222,48950,48948,0.016170479357242584,-0.03543711081147194,0.9445741772651672,-1.068980097770691,3.8418545722961426,-9.591536521911621,1.9683319330215454,3.9973888397216797,0.3131098747253418,-0.8735922574996948,-1.2524759769439697,0.8925549387931824
223,48960,48958,0.005188936833292246,-0.06410710513591766,0.9455464482307434,0.4210498034954071,2.573427438735962,-10.022006034851074,1.9705694913864136,3.997004747390747,0.3134262263774872,-0.9962498545646667,-1.2765158414840698,0.804364025592804
224,48970,48968,-0.023302413523197174,-0.06433487683534622,1.0218801498413086,2.3856313228607178,-2.860846757888794,-10.367476463317871,1.970476746559143,3.996634006500244,0.31389176845550537,-0.9178763031959534,-1.2664986848831177,0.6842658519744873
225,48980,48978,0.0013754228129982948,-0.09763402491807938,1.0346095561981201,5.211381435394287,-5.972209930419922,-11.909520149230957,1.9701594114303589,3.9951300621032715,0.3125499486923218,-0.7771138548851013,-1.2175498008728027,0.5480756163597107
226,48990,48988,0.010573871433734894,-0.046203501522541046,0.9682996273040771,5.812134265899658,-9.381349563598633,-12.175359725952148,1.972753643989563,3.994777202606201,0.31266358494758606,-0.9557400941848755,-1.1351728439331055,0.4798094630241394
227,49000,48998,-0.010720677673816681,-0.026577677577733994,0.9699921607971191,3.9208157062530518,-8.806169509887695,-12.89983081817627,1.9737995862960815,3.9932806491851807,0.31288251280784607,-0.8471545577049255,-1.1320514678955078,0.3393356204032898
228,49010,49008,-0.011657632887363434,-0.003045672085136175,0.982663631439209,1.2308025360107422,-6.948286056518555,-13.424863815307617,1.9742140769958496,3.992373466491699,0.3131202459335327,-0.5967143774032593,-1.1548203229904175,0.168661966919899
229,49020,49018,-0.0199794489890337,0.1012614518404007,0.989322304725647,-0.6776264905929565,-3.9984984397888184,-13.958523750305176,1.973650336265564,3.9929873943328857,0.31128475069999695,-0.6292239427566528,-1.1325061321258545,0.05775522440671921
230,49030,49028,-0.02154451794922352,0.058674175292253494,0.9905231595039368,-0.2404281347990036,-0.8264232277870178,-13.068992614746094,1.9757310152053833,3.991363048553467,0.3112606406211853,-0.5423482060432434,-1.127487063407898,-0.10292641073465347
231,49040,49038,-0.02244812436401844,-0.001788673922419548,0.9772397875785828,3.3302462100982666,-1.7506756782531738,-12.866183280944824,1.9764372110366821,3.9913833141326904,0.3113158047199249,-0.715671956539154,-1.098817229270935,-0.19544105231761932
232,49050,49048,-0.03571247309446335,0.04843628779053688,1.0188078880310059,5.567808628082275,-0.5216299295425415,-12.77779769897461,1.9788283109664917,3.9910941123962402,0.31070682406425476,-0.730105996131897,-1.105635404586792,-0.32592979073524475
233,49060,49058,-0.014495776034891605,0.008701850660145283,0.9910726547241211,7.305981636047363,1.2045857906341553,-12.605113983154297,1.9803228378295898,3.991480588912964,0.3106224834918976,-0.5322484970092773,-1.070157766342163,-0.4910082519054413
234,49070,49068,0.0004730657674372196,-0.026167362928390503,0.9729486703872681,8.18095588684082,-2.857797384262085,-11.08122444152832,1.9789884090423584,3.99224853515625,0.31088000535964966,-0.647419273853302,-1.0023962259292603,-0.5901967287063599
235,49080,49078,0.010708659887313843,0.004082533996552229,0.9978774189949036,9.910831451416016,-5.525798797607422,-11.494891166687012,1.9803341627120972,3.993204355239868,0.30710068345069885,-0.46313348412513733,-0.9886763095855713,-0.7191454768180847
236,49090,49088,0.0004278404521755874,0.12003257125616074,0.9837950468063354,11.202969551086426,-11.042156219482422,-10.755693435668945,1.9794305562973022,3.99467396736145,0.30700990557670593,-0.3798876702785492,-0.785796582698822,-0.8294196128845215
237,49100,49098,-0.017995543777942657,0.20266519486904144,1.0163726806640625,12.896187782287598,-10.140119552612305,-8.534836769104004,1.979935646057129,3.994494676589966,0.30679506063461304,-0.3400806486606598,-0.7265459895133972,-0.9202204346656799
238,49110,49108,0.07914917171001434,0.04021044820547104,0.9350491762161255,11.898333549499512,-2.0342462062835693,-7.080756187438965,1.98157799243927,3.9938645362854004,0.30643874406814575,-0.3307405412197113,-0.5553122162818909,-1.0125181674957275
239,49120,49118,-0.0016084223752841353,-0.026623642072081566,0.9910591840744019,11.262988090515137,5.366573810577393,-6.49245548248291,1.9824634790420532,3.9948277473449707,0.3069586157798767,-0.30597782135009766,-0.4419357180595398,-1.0671179294586182
240,49130,49128,0.02038520574569702,0.05215810611844063,1.0171093940734863,9.795233726501465,11.058830261230469,-5.451635360717773,1.9847614765167236,3.9966259002685547,0.30660396814346313,-0.4382370710372925,-0.38123106956481934,-1.1090739965438843
