,timestamp_start,timestamp_end,acc.x,acc.y,acc.z,gyro.x,gyro.y,gyro.z,stateEstimate.x,stateEstimate.y,stateEstimate.z,stabilizer.pitch,stabilizer.roll,stabilizer.yaw
0,43618,43614,0.006312815472483635,0.08771505951881409,1.078278660774231,-7.5868000984191895,-26.164743423461914,2.194293737411499,2.018463611602783,4.109175205230713,0.14488840103149414,1.049103021621704,0.7700560092926025,2.848910331726074
1,43628,43624,0.00998376589268446,-0.02100374735891819,1.0337860584259033,-7.49787712097168,-21.970861434936523,1.9532431364059448,2.017385959625244,4.109015941619873,0.14905454218387604,1.2617989778518677,0.6295100450515747,2.867893695831299
2,43638,43634,0.020100610330700874,0.0067163207568228245,1.0775871276855469,-5.6203765869140625,-19.221752166748047,1.6560924053192139,2.0183894634246826,4.1116862297058105,0.15182378888130188,1.5562173128128052,0.5045391917228699,2.903965711593628
3,43648,43644,0.006707964465022087,-0.027784453704953194,1.0504531860351562,-4.709347724914551,-15.464303970336914,1.1138602495193481,2.017287492752075,4.109535217285156,0.15489189326763153,1.5072729587554932,0.4088361859321594,2.894191265106201
4,43658,43654,0.028139544650912285,-0.002945318818092346,1.068769097328186,-2.669407367706299,-15.440956115722656,0.7267717123031616,2.0162081718444824,4.106825351715088,0.15761800110340118,1.8017433881759644,0.47634002566337585,2.8916823863983154
5,43668,43664,0.045203085988759995,-0.03194514662027359,1.0115615129470825,-0.36927133798599243,-14.465465545654297,0.21393997967243195,2.0135364532470703,4.099279880523682,0.1609737128019333,2.113997459411621,0.48642224073410034,2.903195858001709
6,43678,43674,-0.011895581148564816,0.07159938663244247,0.9802184104919434,-0.7754217982292175,-16.232250213623047,1.1081277132034302,2.013108015060425,4.100358009338379,0.16426971554756165,2.2560324668884277,0.4407199025154114,2.9122769832611084
7,43688,43684,-0.03528858348727226,0.0833762064576149,1.0709631443023682,-1.4857817888259888,-11.622838973999023,-0.02090594545006752,2.0103137493133545,4.096738338470459,0.16716308891773224,2.5094268321990967,0.39973902702331543,2.945711374282837
8,43698,43694,0.025105275213718414,6.126372318249196e-05,0.9264004230499268,-2.5029728412628174,-11.039375305175781,-0.5209034085273743,2.011547327041626,4.097146511077881,0.17029687762260437,2.71821665763855,0.41814398765563965,2.938263177871704
9,43708,43704,0.010268514975905418,0.00029377583996392787,0.9486845135688782,-3.542783498764038,-10.937243461608887,-0.17044265568256378,2.0084269046783447,4.092320442199707,0.17328283190727234,3.0935354232788086,0.34350332617759705,2.980750560760498
10,43718,43714,-0.058927204459905624,0.17270387709140778,0.9609287977218628,-5.434700965881348,-4.189147472381592,-0.5998495221138,2.0070159435272217,4.090893745422363,0.1761091947555542,3.1735897064208984,0.3942808508872986,2.939314126968384
11,43728,43724,-0.055824849754571915,0.2274124026298523,0.9449669122695923,-8.07629680633545,2.818305015563965,0.017634132876992226,2.0074753761291504,4.092449188232422,0.17934490740299225,3.5624890327453613,0.26375749707221985,2.9989569187164307
12,43738,43734,0.011715056374669075,0.00993686355650425,0.9471001029014587,-7.781189918518066,6.458037853240967,0.20365822315216064,2.005089282989502,4.091162204742432,0.1818409264087677,3.579225540161133,-0.08829884976148605,3.138947010040283
13,43748,43744,0.013824581168591976,-0.11531608551740646,1.0201826095581055,-5.839362144470215,10.195040702819824,-0.3225359320640564,2.001405715942383,4.092647552490234,0.1846884936094284,3.504617214202881,-0.18164502084255219,3.1418538093566895
14,43758,43754,-0.03375312313437462,-0.07488028705120087,1.0730125904083252,-2.1447858810424805,15.256293296813965,-1.0351855754852295,2.0017030239105225,4.092153072357178,0.1865500509738922,3.6233651638031006,-0.7348142862319946,3.4177017211914062
15,43768,43764,-0.03110886923968792,-0.03164377436041832,1.0129072666168213,2.1636855602264404,21.523279190063477,-2.105325698852539,1.9974709749221802,4.0951690673828125,0.18831050395965576,3.34063982963562,-0.8004078269004822,3.4288835525512695
16,43778,43774,-0.02780507132411003,0.07189363986253738,0.9653739333152771,8.364959716796875,25.577505111694336,-2.617400884628296,1.9960684776306152,4.097431659698486,0.19152775406837463,3.1317105293273926,-0.42731600999832153,3.2019317150115967
17,43788,43784,0.01786714419722557,-0.006581321824342012,0.9536241888999939,15.75695514678955,24.458681106567383,-1.2785967588424683,1.9956083297729492,4.094332695007324,0.19486160576343536,3.0831496715545654,-0.14403635263442993,3.0465052127838135
18,43798,43794,-0.00280554941855371,-0.019010713323950768,0.9773273468017578,19.53459358215332,22.06551742553711,-0.46545180678367615,1.9932769536972046,4.093780040740967,0.19765399396419525,2.83432674407959,-0.01035422645509243,3.0259408950805664
19,43808,43804,0.038087230175733566,-0.25282013416290283,0.9639084339141846,16.059951782226562,18.6263427734375,0.47564271092414856,2.000385284423828,4.08927059173584,0.20314601063728333,2.7930848598480225,0.21399030089378357,2.997305393218994
20,43818,43814,0.008767015300691128,-0.1977524310350418,0.9729431867599487,9.11194133758545,11.691169738769531,-0.21746790409088135,1.988463044166565,4.087190628051758,0.21363131701946259,1.419837236404419,0.5236201882362366,2.9548280239105225
21,43828,43824,-0.018658634275197983,-0.09074881672859192,0.9565125107765198,-0.14501997828483582,7.335451126098633,-0.689520537853241,1.9956367015838623,4.084555149078369,0.21697454154491425,1.1740717887878418,0.5535503029823303,2.9887568950653076
22,43838,43834,0.04427804797887802,0.019120121374726295,0.9471288323402405,-8.137331008911133,-0.21837300062179565,-0.7038665413856506,1.9957945346832275,4.084846019744873,0.2200000137090683,0.9783890843391418,0.7337075471878052,2.916611909866333
23,43848,43844,-0.018434051424264908,0.06231757998466492,0.9402895569801331,-13.967578887939453,-9.79011344909668,-0.25615182518959045,1.9951961040496826,4.0828938484191895,0.22271034121513367,1.4036222696304321,0.561917781829834,2.9565978050231934
24,43858,43854,-0.036405161023139954,0.04388326779007912,0.9413925409317017,-14.482766151428223,-16.61014175415039,-0.6858967542648315,1.991058588027954,4.0830888748168945,0.2250719964504242,1.4751712083816528,0.33350977301597595,2.9836418628692627
25,43868,43864,-0.02952246181666851,-0.03668178245425224,0.915523111820221,-12.194768905639648,-16.72014808654785,-1.0656449794769287,1.9912104606628418,4.083827972412109,0.22813142836093903,1.6191037893295288,0.04509538784623146,3.023056983947754
26,43878,43874,-0.05273927375674248,-0.07001209259033203,0.9323056936264038,-8.275057792663574,-11.892986297607422,-1.4570449590682983,1.991237998008728,4.083574295043945,0.23109829425811768,3.2990493774414062,0.1007445678114891,2.9993038177490234
27,43888,43884,-0.08497736603021622,-0.04499344900250435,0.9655066132545471,-1.9633080959320068,-3.5309531688690186,-1.2711925506591797,1.9768882989883423,4.077654838562012,0.23042511940002441,4.761744976043701,-1.3149080276489258,3.492603063583374
28,43898,43894,-0.0970422551035881,-0.04761778935790062,0.9563120007514954,2.67232346534729,14.039052963256836,-1.506344199180603,1.9627768993377686,4.088287830352783,0.2251790165901184,4.341101169586182,-1.1376984119415283,3.3989474773406982
29,43908,43904,-0.028507549315690994,-0.07518015056848526,0.9499238133430481,13.140979766845703,40.664710998535156,-1.3101611137390137,1.9615137577056885,4.084380626678467,0.2337597906589508,3.831380844116211,-0.88145512342453,3.2969725131988525
30,43918,43914,0.05428178980946541,-0.0719696506857872,0.9884527325630188,25.177425384521484,66.59613800048828,-0.9058626890182495,1.9574850797653198,4.079587936401367,0.24128589034080505,3.048408031463623,-0.4746004641056061,3.165437698364258
31,43928,43924,0.08484847098588943,-0.10140916705131531,0.9124337434768677,31.426136016845703,84.79407501220703,-1.083195686340332,1.9586740732192993,4.078106880187988,0.24536246061325073,2.356813907623291,-0.23518380522727966,3.151160717010498
32,43938,43934,0.006131825037300587,-0.06547806411981583,0.8880000710487366,31.158550262451172,91.00434875488281,-1.6261138916015625,1.9517611265182495,4.073393821716309,0.24820144474506378,1.0724631547927856,0.21457460522651672,3.1052279472351074
33,43948,43944,-0.02408871240913868,-0.01811806485056877,0.90363609790802,25.83966064453125,82.99613952636719,-2.288053035736084,1.95306396484375,4.0736541748046875,0.2519699037075043,0.3972322642803192,0.5408074259757996,3.0782670974731445
34,43958,43954,0.009202150627970695,0.046203237026929855,0.8829198479652405,17.529935836791992,65.28823852539062,-1.8151884078979492,1.9485749006271362,4.073198318481445,0.25115033984184265,-0.4410349428653717,0.8006587028503418,3.067636013031006
35,43968,43964,-0.006059718318283558,0.03534264117479324,0.9428966045379639,6.237971305847168,37.74833297729492,-1.7654752731323242,1.9473553895950317,4.072571277618408,0.25353559851646423,-1.4767999649047852,1.1764733791351318,3.0265419483184814
36,43978,43974,0.035584621131420135,-0.09614606946706772,0.8325358033180237,-1.6283708810806274,16.00396156311035,-2.2353742122650146,1.9474538564682007,4.073848724365234,0.25552716851234436,-1.8887971639633179,1.2532402276992798,3.017441987991333
37,43988,43984,0.06207719072699547,0.013620642013847828,0.8647003173828125,-10.997800827026367,-13.060057640075684,-1.875176191329956,1.9460965394973755,4.07412052154541,0.2541252672672272,-2.1807146072387695,1.215734839439392,2.996387243270874
38,43998,43994,0.003068523947149515,-0.056920796632766724,0.938016414642334,-14.126436233520508,-27.187585830688477,-1.6530592441558838,1.942926287651062,4.074826717376709,0.255856454372406,-2.039649248123169,1.281070590019226,2.97823429107666
39,44008,44004,-0.049291469156742096,-0.08010517060756683,0.976292610168457,-14.746476173400879,-30.887561798095703,-1.2688418626785278,1.9410526752471924,4.074646949768066,0.2574688792228699,-1.9411622285842896,1.2055754661560059,2.9509456157684326
40,44018,44014,-0.03253414109349251,-0.11466377228498459,0.9751014113426208,-13.123865127563477,-27.92499351501465,0.033011771738529205,1.941525936126709,4.074116230010986,0.2581675946712494,-1.6363964080810547,1.058786153793335,2.9327499866485596
41,44028,44024,-0.014906820841133595,-0.12438644468784332,0.9769083857536316,-10.128358840942383,-16.536848068237305,0.5794898867607117,1.9427924156188965,4.0733137130737305,0.259610652923584,-1.7131361961364746,0.9362991452217102,2.900927782058716
42,44038,44034,-0.018244516104459763,-0.12840908765792847,0.9770276546478271,-6.724959850311279,-3.1328647136688232,0.0829077735543251,1.9424643516540527,4.069558620452881,0.2609471082687378,-1.5407814979553223,0.8336805105209351,2.900484085083008
43,44048,44044,0.0051529924385249615,-0.031140875071287155,0.9252054691314697,-2.8882155418395996,1.4540313482284546,-0.016196245327591896,1.942834496498108,4.069131851196289,0.26238247752189636,-1.6110639572143555,1.1097670793533325,2.9545443058013916
44,44058,44054,-0.08541776239871979,0.03186021372675896,0.945018470287323,-3.9960529804229736,8.85201644897461,-0.7546848058700562,1.9418851137161255,4.066312789916992,0.25833839178085327,-1.7351850271224976,0.9959945678710938,2.9268290996551514
45,44068,44064,-0.1306525319814682,0.10093694925308228,0.9479879140853882,-8.392227172851562,10.439212799072266,-0.8857380151748657,1.942404866218567,4.066969394683838,0.2593981921672821,-1.8336721658706665,0.9502173662185669,2.922006130218506
46,44078,44074,-0.05549699813127518,0.15327435731887817,0.930923581123352,-12.141356468200684,4.174533843994141,-0.20577073097229004,1.94376540184021,4.067627429962158,0.2602347433567047,-2.028884172439575,0.9135598540306091,2.9206173419952393
47,44088,44084,0.04601624980568886,0.016102366149425507,0.9524892568588257,-15.065802574157715,-1.4607332944869995,-0.7428685426712036,1.9427764415740967,4.0640435218811035,0.2588927745819092,-2.032710552215576,0.8105643391609192,2.9279046058654785
48,44098,44094,0.05637839436531067,0.1152656078338623,1.0178732872009277,-16.443485260009766,-13.999619483947754,-1.5004538297653198,1.9424285888671875,4.065047264099121,0.25966814160346985,-1.8902989625930786,0.7127546668052673,2.9467976093292236
49,44108,44104,0.034195613116025925,0.09578418731689453,1.0562732219696045,-15.562074661254883,-21.438413619995117,-1.667810082435608,1.9400235414505005,4.063147068023682,0.26043882966041565,-1.7528607845306396,0.5476582646369934,2.9317474365234375
50,44118,44114,0.01619631052017212,0.07733896374702454,0.9872846603393555,-13.458427429199219,-22.877395629882812,-1.5831401348114014,1.940729022026062,4.063575744628906,0.26113641262054443,-1.6258184909820557,0.29544204473495483,2.877737283706665
51,44128,44124,-0.016092617064714432,0.12584081292152405,0.9704707264900208,-11.815062522888184,-20.570268630981445,-1.730324625968933,1.9387096166610718,4.062714099884033,0.26194342970848083,-1.2991138696670532,0.16693758964538574,2.876556873321533
52,44138,44134,-0.038052912801504135,0.15611550211906433,0.9722898602485657,-9.706892013549805,-15.933207511901855,-1.3654508590698242,1.9395220279693604,4.061173915863037,0.26266708970069885,-1.2411521673202515,0.1454893946647644,2.8794336318969727
53,44148,44144,0.011988470330834389,0.08891794830560684,0.9333316087722778,-8.537352561950684,-11.997809410095215,-1.0855326652526855,1.9387191534042358,4.0593037605285645,0.2634447515010834,-1.1329203844070435,-0.12996292114257812,2.8079774379730225
54,44158,44154,0.01945384033024311,0.06427346169948578,1.0145094394683838,-6.4575114250183105,-10.762582778930664,-0.8043898940086365,1.938582181930542,4.059139728546143,0.2625176012516022,-1.0018771886825562,-0.2090136557817459,2.7987639904022217
55,44168,44164,0.028339233249425888,0.010855577886104584,1.0101165771484375,-4.424780368804932,-9.788263320922852,-0.8945744633674622,1.9382151365280151,4.058242321014404,0.2631397247314453,-0.942421555519104,-0.13148371875286102,2.830090284347534
56,44178,44174,-0.004925395827740431,0.059176720678806305,0.9806541204452515,-4.436768054962158,-7.428559303283691,-0.8667015433311462,1.9398289918899536,4.059281826019287,0.26362091302871704,-1.0291882753372192,-0.14150449633598328,2.8256826400756836
57,44188,44184,0.007131884340196848,-0.011939079500734806,0.9818075299263,-6.578852653503418,-8.358081817626953,-1.4428064823150635,1.940523624420166,4.059490203857422,0.2639164626598358,-0.8331106901168823,-0.2266036868095398,2.810227870941162
58,44198,44194,-0.002566006500273943,-0.035573143512010574,0.9810647964477539,-7.945527076721191,-9.771594047546387,-1.9853357076644897,1.9387938976287842,4.058622360229492,0.26454415917396545,-0.746936023235321,-0.2954880893230438,2.7982165813446045
59,44208,44204,-0.004361914936453104,0.10583863407373428,0.9874837398529053,-7.9926981925964355,-14.033817291259766,-1.590378761291504,1.9380724430084229,4.058547019958496,0.26508602499961853,-0.5830754637718201,-0.49877020716667175,2.7505455017089844
60,44218,44214,-0.004891711752861738,0.07903382927179337,1.0117071866989136,-7.460106372833252,-16.5929012298584,-1.653163194656372,1.9396542310714722,4.055907249450684,0.26555296778678894,-0.5667335391044617,-0.34766846895217896,2.793691635131836
61,44228,44224,0.0020139331463724375,-0.008981221355497837,1.0408762693405151,-7.21688175201416,-17.979591369628906,-2.342999219894409,1.9398243427276611,4.057665824890137,0.2661106586456299,-0.4024820625782013,-0.42100584506988525,2.7781107425689697
62,44238,44234,0.02532513439655304,0.00012955097190570086,1.0071395635604858,-7.072803974151611,-17.20054054260254,-2.561936140060425,1.9396981000900269,4.0568976402282715,0.2666681408882141,-0.12175386399030685,-0.4610713720321655,2.761204719543457
63,44248,44244,0.013881664723157883,-0.012595349922776222,1.014081597328186,-7.636791229248047,-11.269501686096191,-2.1584315299987793,1.941214680671692,4.058614730834961,0.26614150404930115,-0.10312901437282562,-0.6592684984207153,2.7167959213256836
64,44258,44254,0.05249275267124176,-0.0920189693570137,0.9954594373703003,-6.498157978057861,-12.931896209716797,-1.9805268049240112,1.9404417276382446,4.057887554168701,0.2666269838809967,0.019093170762062073,-0.8012358546257019,2.6859419345855713
65,44268,44264,0.060702305287122726,-0.11425871402025223,1.023199439048767,-5.976080417633057,-9.601887702941895,-1.7262951135635376,1.9415408372879028,4.0594000816345215,0.26715216040611267,0.12627334892749786,-0.8019805550575256,2.6770079135894775
66,44278,44274,0.08044897764921188,-0.15372195839881897,1.0078870058059692,-2.5146236419677734,-11.710736274719238,-1.8543075323104858,1.941681981086731,4.057010650634766,0.26764824986457825,0.23469769954681396,-0.855181872844696,2.6608290672302246
67,44288,44284,0.010569986887276173,-0.05545641481876373,1.0032596588134766,-0.2988737225532532,-11.314284324645996,-2.3862202167510986,1.942959189414978,4.0567498207092285,0.27071934938430786,0.27624279260635376,-0.8734049201011658,2.6495814323425293
68,44298,44294,-0.004225662909448147,-0.012332029640674591,1.0281221866607666,2.0158400535583496,-9.880300521850586,-2.550175428390503,1.9432671070098877,4.056941032409668,0.27144724130630493,0.46987244486808777,-0.8555720448493958,2.6239590644836426
69,44308,44304,0.025165870785713196,0.08033216744661331,0.9962422847747803,2.6597230434417725,-8.100775718688965,-2.6141090393066406,1.9444191455841064,4.057218074798584,0.27213621139526367,0.4828510284423828,-0.8776586651802063,2.605588912963867
70,44318,44314,0.03802670165896416,0.11218013614416122,1.0296835899353027,1.6435528993606567,-10.280926704406738,-2.9789109230041504,1.944157361984253,4.056619644165039,0.2741672098636627,0.7813865542411804,-0.9164997339248657,2.5520052909851074
71,44328,44324,0.02296740934252739,-0.0011200662702322006,1.0108762979507446,0.29815587401390076,-10.47677230834961,-3.119647264480591,1.941967248916626,4.056828022003174,0.27495577931404114,0.7820097208023071,-0.8601836562156677,2.5382750034332275
72,44338,44334,-0.008754567243158817,-0.021232845261693,1.022382140159607,0.7963526248931885,-10.215295791625977,-3.434009313583374,1.9425153732299805,4.054831027984619,0.2757745683193207,0.8865694999694824,-0.8563092947006226,2.5101327896118164
73,44348,44344,-0.039088647812604904,0.05620484799146652,0.9910542368888855,-1.2971216440200806,-8.023626327514648,-2.9900319576263428,1.9434784650802612,4.054401397705078,0.27637362480163574,1.0149636268615723,-0.8546360731124878,2.4752871990203857
74,44358,44354,-0.015417239628732204,0.04466446116566658,1.0026342868804932,-0.3265446722507477,-5.268562316894531,-2.9201786518096924,1.9434741735458374,4.0535454750061035,0.27722403407096863,1.1791541576385498,-0.9017440676689148,2.433915376663208
75,44368,44364,-0.017090171575546265,0.0516134575009346,1.0112266540527344,-0.21673032641410828,-3.9329285621643066,-2.846745252609253,1.941953420639038,4.05543851852417,0.2780483365058899,1.228050708770752,-0.9056711792945862,2.4039595127105713
76,44378,44374,0.028048697859048843,-0.009533271193504333,0.9879418611526489,0.7840010523796082,-4.500226974487305,-2.669515371322632,1.9442404508590698,4.054876804351807,0.27893948554992676,1.1251611709594727,-0.9570264220237732,2.3960189819335938
77,44388,44384,0.004308687057346106,-0.03282830864191055,1.0343724489212036,2.9241347312927246,-0.6994187831878662,-3.4240880012512207,1.9437264204025269,4.055886745452881,0.27743110060691833,1.1412580013275146,-0.9442386031150818,2.366400957107544
78,44398,44394,0.028676586225628853,-0.06104600802063942,0.9330701231956482,3.661512851715088,-0.667468249797821,-3.664287805557251,1.9439232349395752,4.054852485656738,0.27811500430107117,1.2128589153289795,-0.9064337015151978,2.32403302192688
79,44408,44404,0.013838112354278564,-0.03802511468529701,0.9461973309516907,5.261659622192383,-1.8453439474105835,-3.146477222442627,1.9436383247375488,4.054654598236084,0.27878108620643616,1.2103197574615479,-0.9215396642684937,2.2983155250549316
80,44418,44414,0.02084595523774624,-0.016042718663811684,1.031238317489624,4.785401344299316,0.10994928330183029,-2.8602099418640137,1.9437572956085205,4.055346488952637,0.27876439690589905,1.1291574239730835,-0.8400273323059082,2.280470609664917
81,44428,44424,0.05327949672937393,-0.06571640074253082,0.9986530542373657,4.2746381759643555,-2.0030369758605957,-2.9057440757751465,1.9455201625823975,4.054775238037109,0.2793940305709839,1.2156673669815063,-0.766243577003479,2.2357676029205322
82,44438,44434,0.052321549504995346,-0.1330549418926239,1.0012242794036865,6.418639659881592,-4.303150653839111,-3.092146158218384,1.9444339275360107,4.053792953491211,0.27942025661468506,1.2423763275146484,-0.7573786377906799,2.210024833679199
83,44448,44444,-0.019850190728902817,0.09251774102449417,0.9773837924003601,4.762065887451172,-3.3746936321258545,-3.310577630996704,1.9448078870773315,4.052910804748535,0.27738890051841736,1.2820947170257568,-0.694932758808136,2.1771082878112793
84,44458,44454,-0.00826149433851242,0.0003562594356480986,1.0042777061462402,3.015627861022949,-1.064979910850525,-2.551697254180908,1.944336175918579,4.052299499511719,0.2778434455394745,1.4099783897399902,-0.6804286241531372,2.135331630706787
85,44468,44464,-0.009075451642274857,0.03800763934850693,1.0512139797210693,2.490574359893799,0.7011697888374329,-2.8026232719421387,1.9436068534851074,4.052115440368652,0.2782798707485199,1.3624486923217773,-0.6352539658546448,2.1130921840667725
86,44478,44474,0.04222825542092323,-0.060634419322013855,0.9369947910308838,3.4681310653686523,5.567418575286865,-2.820256233215332,1.9435153007507324,4.05312442779541,0.27871206402778625,1.4177502393722534,-0.6610684394836426,2.086186170578003
87,44488,44484,0.022547554224729538,0.12197529524564743,0.9982109665870667,3.906649351119995,4.17441987991333,-2.803347587585449,1.9417272806167603,4.053616046905518,0.27840176224708557,1.3744398355484009,-0.6267713308334351,2.0580077171325684
88,44498,44494,0.023884832859039307,0.01624876819550991,0.9848155379295349,4.879972457885742,5.010422706604004,-2.7940902709960938,1.9419728517532349,4.054664611816406,0.2787783443927765,1.3054225444793701,-0.5861850380897522,2.032972812652588
89,44508,44504,0.013162471354007721,-0.025558894500136375,1.010475993156433,5.980113983154297,0.7547026872634888,-2.6133954524993896,1.9419279098510742,4.0542826652526855,0.27913591265678406,1.2632620334625244,-0.484617680311203,1.9944219589233398
90,44518,44514,-0.03597726300358772,-0.054848890751600266,1.0576592683792114,4.947975158691406,4.597845554351807,-2.8693056106567383,1.9408799409866333,4.053528785705566,0.28136011958122253,1.2141014337539673,-0.3847675621509552,1.9604387283325195
91,44528,44524,-0.004624864086508751,-0.046505045145750046,0.9939356446266174,2.945007085800171,4.700344562530518,-1.9871894121170044,1.9410384893417358,4.053432464599609,0.2818635106086731,1.1430176496505737,-0.4693011939525604,1.9587438106536865
92,44538,44534,0.03532714024186134,-0.04741673916578293,0.99867182970047,1.8193795680999756,5.411924839019775,-2.0258562564849854,1.9412951469421387,4.054676532745361,0.28239718079566956,1.0699701309204102,-0.4099225699901581,1.9293655157089233
93,44548,44544,0.08469615131616592,-0.10710036754608154,0.9969177842140198,2.3116960525512695,4.613931655883789,-2.6896073818206787,1.9416204690933228,4.053589820861816,0.28260719776153564,1.1531035900115967,-0.2850407063961029,1.8741527795791626
94,44558,44554,0.038466744124889374,-0.07600237429141998,1.0387173891067505,4.814295768737793,3.669912576675415,-2.7204480171203613,1.9405125379562378,4.052677154541016,0.28313708305358887,1.2425336837768555,-0.2156831920146942,1.831352710723877
95,44568,44564,0.050345297902822495,-0.014631391502916813,0.9691495895385742,5.062438011169434,4.513363361358643,-2.5957953929901123,1.9382972717285156,4.051632881164551,0.28362947702407837,1.216713309288025,-0.17307715117931366,1.8086732625961304
96,44578,44574,-0.0016090095741674304,0.123267263174057,0.939166247844696,2.498589515686035,4.467491626739502,-2.0572681427001953,1.9382230043411255,4.049759864807129,0.2841767370700836,1.0842102766036987,-0.15813036262989044,1.7934035062789917
97,44588,44584,0.03953965753316879,0.0072503420524299145,0.9350480437278748,0.7912290692329407,6.905719757080078,-1.6351417303085327,1.9381755590438843,4.05025053024292,0.2853160798549652,0.976668119430542,-0.1278965324163437,1.7773627042770386
98,44598,44594,-0.01553570106625557,0.06334880739450455,1.0480762720108032,-1.1231614351272583,6.958001136779785,-1.5308812856674194,1.937869906425476,4.05158805847168,0.28581100702285767,1.0066726207733154,-0.13389313220977783,1.758183240890503
99,44608,44604,0.0006632523727603257,-0.042868707329034805,1.0723048448562622,-1.6422903537750244,4.948758125305176,-1.3026683330535889,1.9361544847488403,4.050624370574951,0.2862664759159088,0.8680359721183777,-0.2979680001735687,1.7662427425384521
100,44618,44614,-0.026006601750850677,-0.05991494283080101,1.0968976020812988,1.2207838296890259,5.821339130401611,-1.3554881811141968,1.9357550144195557,4.050454139709473,0.2872242033481598,0.9544460773468018,-0.2741706073284149,1.7396835088729858
101,44628,44624,-0.011237979866564274,-0.09829326719045639,1.0226198434829712,2.8960156440734863,10.16583251953125,-2.06015682220459,1.9341264963150024,4.050462245941162,0.28784745931625366,0.7629227638244629,-0.2917117178440094,1.7308096885681152
102,44638,44634,-0.0002497013483662158,0.030142132192850113,1.0419310331344604,4.9541215896606445,12.721184730529785,-1.7998466491699219,1.935030460357666,4.051666736602783,0.2886057496070862,0.6245829463005066,-0.42058613896369934,1.7351056337356567
103,44648,44644,0.08933746069669724,-0.01591808721423149,0.9161146879196167,6.567910671234131,12.264251708984375,-1.9062238931655884,1.9345256090164185,4.0529913902282715,0.29221034049987793,0.4164257347583771,-0.42322131991386414,1.7276005744934082
104,44658,44654,0.08297894895076752,-0.034160349518060684,0.9575449824333191,9.939764022827148,4.139773845672607,-2.1827545166015625,1.9352567195892334,4.054016590118408,0.29307371377944946,0.2926391661167145,-0.2306969314813614,1.6959704160690308
105,44668,44664,0.10089581459760666,-0.029155932366847992,0.9717651009559631,11.21528434753418,4.9732794761657715,-2.381274461746216,1.934367299079895,4.050797462463379,0.29396748542785645,0.27922776341438293,-0.16790474951267242,1.6780534982681274
106,44678,44674,0.09781315922737122,-0.044576484709978104,0.9800092577934265,12.257596969604492,-2.1708500385284424,-1.7045468091964722,1.9337446689605713,4.049192428588867,0.2961513102054596,0.3368717133998871,-0.0024079051800072193,1.6523098945617676
107,44688,44684,-0.007972694002091885,-0.015181349590420723,0.995579183101654,11.133257865905762,-3.9701273441314697,-1.2027329206466675,1.9328985214233398,4.04911470413208,0.2970341444015503,0.36931276321411133,0.15264594554901123,1.6333950757980347
108,44698,44694,0.016946561634540558,-0.06356456875801086,0.9409825205802917,9.05496597290039,-3.4835102558135986,-1.0027624368667603,1.9322229623794556,4.04875373840332,0.29788291454315186,0.4103468656539917,0.20438240468502045,1.6256458759307861
109,44708,44704,0.015221633948385715,-0.021788377314805984,0.9871923923492432,5.767368316650391,-2.238213062286377,-1.2540841102600098,1.931967854499817,4.049598217010498,0.29870176315307617,0.4331754148006439,0.3681243658065796,1.6107012033462524
110,44718,44714,-0.045380089432001114,0.06168929487466812,1.0274628400802612,2.9331398010253906,0.6495593786239624,-1.1454435586929321,1.9307717084884644,4.048638343811035,0.3000825345516205,0.5540142059326172,0.3132995069026947,1.603075623512268
111,44728,44724,-0.04431425780057907,0.014355910010635853,1.014112949371338,0.6384298801422119,3.267209768295288,-1.1001182794570923,1.9291385412216187,4.049313068389893,0.30090975761413574,0.45997169613838196,0.37288975715637207,1.5869102478027344
112,44738,44734,-0.04951273277401924,-0.017079468816518784,1.0264278650283813,0.2658795714378357,7.084975242614746,-1.2437196969985962,1.928261399269104,4.049492359161377,0.3018149733543396,0.3874807357788086,0.3336189091205597,1.575454592704773
113,44748,44744,-0.06759911775588989,-0.0027172837872058153,1.0322730541229248,-0.443199098110199,20.078773498535156,-1.49827241897583,1.927988052368164,4.0500993728637695,0.3014552593231201,0.161146342754364,0.3676290810108185,1.5589420795440674
114,44758,44754,0.018909817561507225,-0.012673327699303627,0.9199128746986389,2.123826026916504,23.597694396972656,-1.7491610050201416,1.9273288249969482,4.049686908721924,0.3023899793624878,-0.019115353003144264,0.4165644943714142,1.5442614555358887
115,44768,44764,-0.004014878533780575,0.05854671075940132,0.9246325492858887,2.266216516494751,28.852611541748047,-1.6529721021652222,1.9266732931137085,4.048608303070068,0.303245484828949,-0.3211274743080139,0.4343563914299011,1.5319281816482544
116,44778,44774,-0.009279612451791763,0.08338227868080139,0.9586367011070251,3.142533302307129,29.474611282348633,-1.7933553457260132,1.9261951446533203,4.048192501068115,0.3047167956829071,-0.4664819836616516,0.4739493727684021,1.5245977640151978
117,44788,44784,0.008292625658214092,0.03546546772122383,0.9462740421295166,3.596208095550537,25.163488388061523,-1.3482929468154907,1.9249203205108643,4.048120975494385,0.30551081895828247,-0.8280405402183533,0.4872822165489197,1.5084151029586792
118,44798,44794,0.047426529228687286,0.058598946779966354,0.9597110748291016,2.241166591644287,19.311979293823242,-1.7543654441833496,1.9250458478927612,4.0476603507995605,0.3062538206577301,-1.0589436292648315,0.557754635810852,1.4956611394882202
119,44808,44804,0.016766555607318878,0.03353845328092575,0.9834198355674744,2.006342649459839,15.437747955322266,-1.1280771493911743,1.9250633716583252,4.0479888916015625,0.3068678379058838,-0.8453467488288879,0.5890485644340515,1.5103611946105957
120,44818,44814,0.05504785105586052,0.018692852929234505,0.9586768746376038,1.3940783739089966,10.321463584899902,-1.3180499076843262,1.9219176769256592,4.048152446746826,0.30865907669067383,-1.1489160060882568,0.6344203948974609,1.4875125885009766
121,44828,44824,0.04090600460767746,-0.05744120478630066,0.9763548970222473,1.0403015613555908,8.325008392333984,-1.4387685060501099,1.9222466945648193,4.047872066497803,0.30928847193717957,-1.359757661819458,0.6010515689849854,1.4653887748718262
122,44838,44834,0.03461967781186104,0.07799755036830902,1.0068635940551758,-0.33600541949272156,5.992212295532227,-1.5325076580047607,1.9227123260498047,4.049591064453125,0.3099038004875183,-1.3718523979187012,0.6269105672836304,1.4596306085586548
123,44848,44844,-0.004043017514050007,0.022427402436733246,0.9717515110969543,-1.5290634632110596,5.900673866271973,-1.693743109703064,1.921470284461975,4.049488067626953,0.31014037132263184,-1.4420807361602783,0.6264156699180603,1.4460878372192383
124,44858,44854,-0.025633184239268303,-0.01928839273750782,0.9353423714637756,-1.8511786460876465,8.38422679901123,-1.7319287061691284,1.9213066101074219,4.0497612953186035,0.31065940856933594,-1.513932704925537,0.6183637380599976,1.42976713180542
125,44868,44864,0.00926150567829609,-0.037932269275188446,0.8985890746116638,-2.6195483207702637,9.811469078063965,-1.9357162714004517,1.9214491844177246,4.050565242767334,0.31113874912261963,-1.5897670984268188,0.6000667214393616,1.414750337600708
126,44878,44874,0.008299878798425198,0.027556372806429863,0.904381275177002,-2.347735643386841,11.074341773986816,-1.2718619108200073,1.9201290607452393,4.049450874328613,0.3095383942127228,-1.590046763420105,0.5645740628242493,1.4037561416625977
127,44888,44884,0.011633099988102913,-0.06742706894874573,0.9108834266662598,-2.32913875579834,10.573535919189453,-1.4207357168197632,1.9187350273132324,4.049438953399658,0.309822678565979,-1.8027434349060059,0.611056387424469,1.3946610689163208
128,44898,44894,0.011062109842896461,-0.15270835161209106,0.9350200295448303,-2.057486057281494,10.667009353637695,-1.907130479812622,1.9195817708969116,4.047648906707764,0.3099197745323181,-1.9278899431228638,0.5029937028884888,1.3578721284866333
129,44908,44904,0.023906145244836807,-0.0610467866063118,0.9512193202972412,-1.3329048156738281,7.644070148468018,-1.0029526948928833,1.9195466041564941,4.0485758781433105,0.3099675476551056,-1.9517993927001953,0.4842984974384308,1.3473615646362305
130,44918,44914,0.012572430074214935,-0.14471435546875,1.0297166109085083,-1.33122718334198,5.220508575439453,-1.3004614114761353,1.9178580045700073,4.048234939575195,0.30922266840934753,-2.1011667251586914,0.47206684947013855,1.3275460004806519
131,44928,44924,-0.011937431059777737,-0.1564057469367981,1.0689163208007812,-1.0775737762451172,4.073615550994873,-1.2441209554672241,1.9168683290481567,4.04737663269043,0.3091898560523987,-2.1391072273254395,0.4604344069957733,1.3163779973983765
132,44938,44934,0.00738326832652092,-0.18579013645648956,1.0020697116851807,0.05533915385603905,3.5828824043273926,-1.4309183359146118,1.916372537612915,4.04631233215332,0.3092120587825775,-2.2389309406280518,0.45844489336013794,1.2992773056030273
133,44948,44944,0.007551952730864286,-0.1222943589091301,0.9792442917823792,0.8548868298530579,4.610731601715088,-1.1904933452606201,1.916919469833374,4.045482158660889,0.31014779210090637,-2.3217246532440186,0.47068437933921814,1.2862560749053955
134,44958,44954,0.030228206887841225,-0.021536950021982193,0.9442549347877502,0.12642593681812286,4.675055503845215,-1.3817877769470215,1.917279839515686,4.045420169830322,0.310197114944458,-2.3197431564331055,0.48104119300842285,1.2796046733856201
135,44968,44964,0.06339588761329651,0.01305101066827774,0.9431179761886597,-1.7717461585998535,2.2294487953186035,-1.7504172325134277,1.9163166284561157,4.045421123504639,0.3102642893791199,-2.3701345920562744,0.4715155065059662,1.2611457109451294
136,44978,44974,0.06617863476276398,0.024059701710939407,1.0220259428024292,-2.3315887451171875,-1.1723660230636597,-1.6028722524642944,1.9157845973968506,4.044759750366211,0.31075769662857056,-2.3837778568267822,0.45560508966445923,1.2439334392547607
137,44988,44984,0.04291437566280365,0.028012117370963097,1.0415222644805908,-2.5464870929718018,-3.376649856567383,-2.0197558403015137,1.9153565168380737,4.045590400695801,0.31076931953430176,-2.317324638366699,0.48061251640319824,1.2489335536956787
138,44998,44994,0.00738100428134203,0.03460830822587013,0.9832908511161804,-3.427387237548828,-4.844261646270752,-1.2412474155426025,1.9140762090682983,4.0435051918029785,0.3108798861503601,-2.238556146621704,0.4246407747268677,1.2257273197174072
139,45008,45004,-0.025197194889187813,0.023974765092134476,1.0446254014968872,-3.323556661605835,-2.10801362991333,-1.2968199253082275,1.9128763675689697,4.044857978820801,0.31164273619651794,-2.245516538619995,0.36569997668266296,1.199154257774353
140,45018,45014,-0.005132029298692942,0.09375441819429398,0.9772704243659973,-3.1695878505706787,-1.9447145462036133,-0.6319268941879272,1.9130921363830566,4.045053482055664,0.31172648072242737,-2.214512586593628,0.3303271532058716,1.188096284866333
141,45028,45024,-0.0007186796283349395,0.003093443578109145,0.9995448589324951,-3.000303030014038,-0.7711593508720398,-0.9031432271003723,1.9145997762680054,4.044507026672363,0.3117644190788269,-2.2737724781036377,0.3249351680278778,1.1854501962661743
142,45038,45034,0.0020205394830554724,-0.03388557210564613,0.9916229844093323,-2.8944754600524902,-3.130519151687622,-0.36517345905303955,1.9151723384857178,4.044046401977539,0.3119331896305084,-2.2630069255828857,0.2930806279182434,1.1774969100952148
143,45048,45044,0.011225024238228798,-0.09634632617235184,1.0666559934616089,-1.393848180770874,-4.804553031921387,-0.04625994712114334,1.9153584241867065,4.043694496154785,0.3116777837276459,-2.175093650817871,0.24268080294132233,1.1674013137817383
144,45058,45054,-0.00991298258304596,-0.12566141784191132,1.068718671798706,-0.3857964277267456,-4.9553093910217285,-0.37408557534217834,1.9167536497116089,4.043910503387451,0.3117641806602478,-2.2243564128875732,0.219082310795784,1.1537309885025024
145,45068,45064,0.01119188591837883,-0.15078426897525787,0.9972742795944214,0.44712868332862854,-3.8964688777923584,-0.7517516613006592,1.9160003662109375,4.044633865356445,0.3120271563529968,-2.106527328491211,0.2921287715435028,1.1816189289093018
146,45078,45074,-0.005248830653727055,-0.005673754960298538,1.0092074871063232,0.38672301173210144,-1.442983865737915,-1.0360597372055054,1.9166908264160156,4.044768810272217,0.31108659505844116,-2.1812169551849365,0.21556837856769562,1.138554573059082
147,45088,45084,0.060454387217760086,0.01864510402083397,0.8997939229011536,-0.23178553581237793,-2.0141963958740234,-0.6770706176757812,1.9168586730957031,4.0441436767578125,0.3111895024776459,-2.1549062728881836,0.22070181369781494,1.1297231912612915
148,45098,45094,0.08305090665817261,0.05242527648806572,0.9324320554733276,-1.667656421661377,-4.157093524932861,-0.7801644802093506,1.9160733222961426,4.043083667755127,0.31135475635528564,-2.0575389862060547,0.2137966901063919,1.1257877349853516
149,45108,45104,0.07716947793960571,0.053121522068977356,1.0020692348480225,-2.1679670810699463,-10.537764549255371,-0.429795503616333,1.9180787801742554,4.042466640472412,0.30930739641189575,-2.1542046070098877,0.2640170156955719,1.134107232093811
150,45118,45114,0.06381601840257645,-0.04339224100112915,0.9818881154060364,-2.3684184551239014,-11.216588973999023,-1.049493432044983,1.9169992208480835,4.040505886077881,0.3093127906322479,-1.9138261079788208,0.26294323801994324,1.1456048488616943
151,45128,45124,-0.01958012953400612,0.0158012006431818,1.0148812532424927,-3.2622148990631104,-12.135011672973633,-1.0562052726745605,1.9176256656646729,4.040687561035156,0.30916208028793335,-1.7987767457962036,0.23757678270339966,1.1389178037643433
152,45138,45134,-0.03549308702349663,0.08103972673416138,0.9823043942451477,-4.766813278198242,-10.300436019897461,-0.4338255524635315,1.9192912578582764,4.040482044219971,0.3089594542980194,-1.6799134016036987,0.12392039597034454,1.1032618284225464
153,45148,45144,-0.002943614264950156,-0.02032620646059513,1.0045677423477173,-4.784222602844238,-8.610987663269043,0.1608031839132309,1.9180790185928345,4.039418697357178,0.30886149406433105,-1.5720075368881226,0.07680978626012802,1.0992932319641113
154,45158,45154,0.008110003545880318,0.045935556292533875,0.9881842732429504,-4.502560138702393,-6.423152446746826,-0.04076031967997551,1.9196712970733643,4.040337085723877,0.3086475133895874,-1.6099926233291626,0.06919514387845993,1.1064895391464233
155,45168,45164,0.056888680905103683,-0.09888945519924164,0.9304652810096741,-3.6023833751678467,-5.597451686859131,-0.5598855018615723,1.9226455688476562,4.039861679077148,0.3082130253314972,-1.6524312496185303,0.027003543451428413,1.101001262664795
156,45178,45174,-0.016589606180787086,0.05655455216765404,1.0345749855041504,-1.2055283784866333,-8.24622631072998,-0.8623670339584351,1.9216288328170776,4.039740085601807,0.3080873489379883,-1.597495198249817,-0.007428644225001335,1.0960575342178345
157,45188,45184,0.026430020108819008,0.03674528747797012,0.9932411313056946,0.5866000056266785,-11.511207580566406,-0.38016000390052795,1.9240834712982178,4.039641857147217,0.3077368438243866,-1.6723413467407227,0.04135724529623985,1.1016302108764648
158,45198,45194,-0.013501917943358421,0.00952695868909359,1.091431975364685,0.5050573945045471,-15.503691673278809,-0.39417457580566406,1.9243327379226685,4.0389251708984375,0.3076927065849304,-1.3704735040664673,0.09531860053539276,1.115983009338379
159,45208,45204,0.0022623788099735975,-0.03135562688112259,0.985748827457428,-1.2052922248840332,-15.10767936706543,-1.0281438827514648,1.9234168529510498,4.037888526916504,0.3098309338092804,-1.2240045070648193,0.10303036868572235,1.1113061904907227
160,45218,45214,0.015112749300897121,0.006742417812347412,1.0029323101043701,-1.994046688079834,-14.914791107177734,-0.24965506792068481,1.923095464706421,4.037416934967041,0.30987730622291565,-1.0506258010864258,0.027392754331231117,1.0846939086914062
161,45228,45224,0.05477701872587204,-0.03069472685456276,1.0328810214996338,-4.2324347496032715,-13.2550687789917,-0.25437676906585693,1.924109935760498,4.0377702713012695,0.30989155173301697,-0.9073094725608826,0.004901757463812828,1.0809518098831177
162,45238,45234,-0.04268770292401314,0.01531933806836605,1.031545877456665,-4.830507755279541,-11.145216941833496,0.14805559813976288,1.925794243812561,4.037135124206543,0.3098372519016266,-0.8235511183738708,0.028858907520771027,1.0900554656982422
163,45248,45244,0.007315754424780607,0.03233487904071808,1.030285120010376,-4.307741641998291,-8.458134651184082,0.06182364746928215,1.9265602827072144,4.036713123321533,0.3099762201309204,-0.7528363466262817,-0.06651730090379715,1.080230474472046
164,45258,45254,0.01138240471482277,-0.017702465876936913,1.0175293684005737,-3.660186529159546,-6.461450099945068,0.03308555856347084,1.9282574653625488,4.03769588470459,0.3100503087043762,-0.6684854030609131,-0.11303375661373138,1.0811494588851929
165,45268,45264,-0.0014578721020370722,-0.030338900163769722,1.0200903415679932,-2.7901909351348877,-5.560920238494873,0.009297067299485207,1.9284559488296509,4.0365142822265625,0.31036117672920227,-0.43664541840553284,-0.1189454197883606,1.0890358686447144
166,45278,45274,0.019575035199522972,0.005256504286080599,1.0068937540054321,-2.850177526473999,-3.9508516788482666,0.5000066757202148,1.9299875497817993,4.036283016204834,0.3103443682193756,-0.47201061248779297,-0.19064916670322418,1.083875060081482
167,45288,45284,0.03867821395397186,-0.14320701360702515,1.0136395692825317,-0.1080266460776329,-5.895727157592773,0.5845067501068115,1.9296996593475342,4.035345554351807,0.3106028735637665,-0.20920714735984802,-0.2626355290412903,1.0736141204833984
168,45298,45294,0.0019115934846922755,-0.00536187831312418,1.0303075313568115,0.6098974943161011,-7.379340648651123,0.111078180372715,1.9302055835723877,4.035430908203125,0.3107947111129761,-0.15094918012619019,-0.2663188576698303,1.077747106552124
169,45308,45304,0.01855097897350788,-0.12493493407964706,0.9827945232391357,1.806122899055481,-5.154574871063232,0.22663514316082,1.9338206052780151,4.033182144165039,0.310954749584198,-0.39780372381210327,-0.18438495695590973,1.0901825428009033
170,45318,45314,-0.008658377453684807,0.1252240389585495,1.034516453742981,2.1506922245025635,-4.408880710601807,0.041678287088871,1.9339290857315063,4.031088352203369,0.3112175762653351,-0.2613164186477661,-0.09089670330286026,1.0905048847198486
171,45328,45324,0.04243592172861099,0.1351933479309082,0.9625908136367798,1.3399889469146729,-6.8149919509887695,0.2615291178226471,1.935476541519165,4.0314154624938965,0.3113747537136078,-0.19637979567050934,-0.0942661240696907,1.090075969696045
172,45338,45334,0.007565735373646021,0.000618436373770237,0.9996359944343567,-0.24104814231395721,-6.762702465057373,0.18834735453128815,1.9357136487960815,4.0318403244018555,0.30837103724479675,-0.13179633021354675,-0.08122093230485916,1.0925766229629517
173,45348,45344,0.031583912670612335,0.042032308876514435,1.0325969457626343,-3.1674885749816895,-8.439323425292969,-0.26947247982025146,1.9374592304229736,4.031700134277344,0.30830636620521545,-0.11965341120958328,-0.11231113970279694,1.0952856540679932
174,45358,45354,-0.01250333059579134,0.02582324482500553,1.0223948955535889,-4.474005222320557,-9.281469345092773,-0.8464699387550354,1.9370700120925903,4.032539367675781,0.3084218204021454,-0.046162597835063934,-0.23386934399604797,1.0933990478515625
175,45368,45364,-0.07782541960477829,0.06485481560230255,1.027374029159546,-5.55173397064209,-7.625427722930908,-0.24070706963539124,1.9398775100708008,4.03285026550293,0.3084009289741516,0.07711732387542725,-0.32809263467788696,1.0882729291915894
176,45378,45374,0.023971635848283768,-0.014707024209201336,0.9789676666259766,-3.6519274711608887,-5.34694242477417,-0.3827359080314636,1.9401612281799316,4.032900810241699,0.30833786725997925,0.0907009094953537,-0.2566305100917816,1.0858207941055298
177,45388,45384,-0.00044475719914771616,0.0005459414678625762,1.0347822904586792,-1.0555408000946045,-4.0735297203063965,-0.06125475838780403,1.9418621063232422,4.032192230224609,0.3083600699901581,0.24055348336696625,-0.32272931933403015,1.0822755098342896
178,45398,45394,-0.010861236602067947,0.02809765934944153,1.0250660181045532,1.2879085540771484,-5.6232523918151855,0.8295191526412964,1.9418222904205322,4.031784534454346,0.3085233271121979,0.3758750259876251,-0.33910301327705383,1.0802419185638428
179,45408,45404,0.037827469408512115,-0.0609603226184845,1.030639886856079,2.571606397628784,-3.7586371898651123,0.20386077463626862,1.941978931427002,4.032985210418701,0.30849379301071167,0.4847010374069214,-0.3952910900115967,1.0956363677978516
180,45418,45414,0.011293519288301468,-0.06163809448480606,1.0607718229293823,3.045538902282715,-0.8694571256637573,-0.44200068712234497,1.9418790340423584,4.032720565795898,0.30870237946510315,0.3922199606895447,-0.3514733612537384,1.1002599000930786
181,45428,45424,0.02706044539809227,-0.12238923460245132,0.9667305946350098,3.3412561416625977,1.4145848751068115,-0.6299823522567749,1.9437565803527832,4.034340858459473,0.3088162839412689,0.39344751834869385,-0.3205154538154602,1.095617651939392
182,45438,45434,0.016345804557204247,-0.05501061677932739,0.9850466251373291,1.775236964225769,3.6936466693878174,-0.6375628113746643,1.9441591501235962,4.03300666809082,0.3073497712612152,0.3376162350177765,-0.2671763002872467,1.0810179710388184
183,45448,45444,0.036375317722558975,-0.08705368638038635,0.9029960632324219,0.7303209900856018,3.71551775932312,-0.5501636266708374,1.9450640678405762,4.032960414886475,0.3073746860027313,0.402446448802948,-0.24887733161449432,1.0618669986724854
184,45458,45454,0.04154043644666672,-0.10642997920513153,0.9087321162223816,0.19965271651744843,-0.9557965397834778,0.013571442104876041,1.9453328847885132,4.032296657562256,0.30741235613822937,0.4183017313480377,-0.2458491027355194,1.055799126625061
185,45468,45464,0.014582764357328415,-0.019934792071580887,1.0061649084091187,-0.4701753556728363,-1.5634779930114746,0.08981207013130188,1.946540117263794,4.0317463874816895,0.3073676824569702,0.24042187631130219,-0.25374335050582886,1.059722661972046
186,45478,45474,0.012681277468800545,0.01995288021862507,1.037145733833313,-0.3121861517429352,-2.458681344985962,-0.49881547689437866,1.949553370475769,4.031919479370117,0.3102801740169525,0.3961775302886963,-0.264059841632843,1.0535873174667358
187,45488,45484,-0.0010569957084953785,0.04962778836488724,1.032495379447937,-0.41893258690834045,-1.6521387100219727,-0.47464239597320557,1.949946641921997,4.031915664672852,0.31053993105888367,0.4598196744918823,-0.2733970284461975,1.046641230583191
188,45498,45494,-0.018946660682559013,-0.009326016530394554,1.0199795961380005,-0.18588043749332428,-1.1493537425994873,-0.4805753827095032,1.9495447874069214,4.03185510635376,0.3107702136039734,0.43494728207588196,-0.2050032615661621,1.022862434387207
189,45508,45504,0.03762979432940483,-0.1407546103000641,1.0120766162872314,1.8044229745864868,0.6534821391105652,-0.9584437608718872,1.9505703449249268,4.031582355499268,0.3102754056453705,0.47254425287246704,-0.2775121033191681,1.0425704717636108
190,45518,45514,0.008520212955772877,0.06065156310796738,1.0296849012374878,1.8804326057434082,1.3075768947601318,-0.9678241014480591,1.9503288269042969,4.031545162200928,0.310502290725708,0.48687222599983215,-0.24803608655929565,1.0389719009399414
191,45528,45524,0.02566199004650116,-0.04442902281880379,0.9508377909660339,2.185713291168213,0.1151699349284172,-0.6628785133361816,1.949832558631897,4.032345771789551,0.310712069272995,0.42384451627731323,-0.21459737420082092,1.031016230583191
192,45538,45534,-0.02499234862625599,-0.12397342175245285,1.1066348552703857,2.0330970287323,-2.130436897277832,-0.19427473843097687,1.9505603313446045,4.031659126281738,0.31127697229385376,0.5325149893760681,-0.25511690974235535,1.0260173082351685
193,45548,45544,-0.03692949190735817,-0.27350401878356934,1.1109498739242554,2.6146843433380127,5.262403964996338,-1.8037846088409424,1.9495038986206055,4.032057285308838,0.3116699457168579,0.5300648808479309,-0.2313643991947174,1.0075297355651855
194,45558,45554,0.01550601702183485,-0.08074447512626648,1.0054248571395874,2.3623507022857666,3.6774401664733887,-1.3262890577316284,1.9509766101837158,4.031304359436035,0.3119506537914276,0.4627823829650879,-0.23389209806919098,0.9981929063796997
195,45568,45564,0.025656431913375854,0.010352857410907745,0.9778609275817871,2.623081922531128,6.525386810302734,-1.3793772459030151,1.9512748718261719,4.03111457824707,0.31126102805137634,0.3864336311817169,-0.18182215094566345,0.9742655158042908
196,45578,45574,0.08755601942539215,-0.013319050893187523,0.9129456281661987,2.756194591522217,2.74151873588562,-1.2955366373062134,1.952876329421997,4.030550956726074,0.31152307987213135,0.3989766836166382,-0.20590437948703766,0.9576446413993835
197,45588,45584,0.014788384549319744,-0.009196054190397263,0.9907553195953369,1.4553905725479126,4.801351547241211,-1.8023443222045898,1.9534687995910645,4.0299153327941895,0.31182733178138733,0.3445950746536255,-0.23262499272823334,0.9433417320251465
198,45598,45594,0.05963095650076866,-0.011742961592972279,1.0052376985549927,2.437995195388794,3.5615298748016357,-2.056790590286255,1.9544472694396973,4.0307440757751465,0.3120134770870209,0.2972410023212433,-0.18144911527633667,0.9395553469657898
199,45608,45604,0.03685421869158745,-0.020748965442180634,0.987517237663269,4.187840461730957,2.9071755409240723,-2.463914632797241,1.954821228981018,4.032749176025391,0.31362593173980713,0.19127768278121948,-0.11220666021108627,0.9494032859802246
200,45618,45614,-0.019138295203447342,0.05242769792675972,1.010068655014038,4.5433478355407715,2.9159042835235596,-2.5440118312835693,1.9554569721221924,4.033548355102539,0.3139370083808899,0.2453296035528183,-0.10507778823375702,0.9268966317176819
201,45628,45624,-0.03356298804283142,0.1089058369398117,0.9856054186820984,4.290349960327148,2.3439218997955322,-1.860915184020996,1.9542417526245117,4.033477783203125,0.3143438398838043,0.14434212446212769,-0.09304030239582062,0.9129894971847534
202,45638,45634,-0.02081400714814663,0.07777661830186844,0.9466326236724854,3.5252492427825928,1.4045217037200928,-1.4131625890731812,1.9555997848510742,4.033257007598877,0.3158372938632965,0.2102314680814743,-0.00976752769201994,0.8739163875579834
203,45648,45644,-0.05252920836210251,0.07213480770587921,1.0258997678756714,2.3536903858184814,2.0988104343414307,-2.07403564453125,1.9549429416656494,4.032288551330566,0.31626632809638977,0.26937201619148254,0.05326874181628227,0.8305636644363403
204,45658,45654,0.003095469670370221,-0.002107315929606557,0.9901670217514038,2.8058364391326904,-1.5532289743423462,-1.12676203250885,1.9550501108169556,4.031155586242676,0.3166438937187195,0.19184252619743347,0.10692068934440613,0.8091151714324951
205,45668,45664,-0.005867223720997572,-0.046241551637649536,1.0433040857315063,3.1053524017333984,2.9669339656829834,-1.6547883749008179,1.956549048423767,4.031140327453613,0.3176611661911011,0.25656744837760925,0.16300132870674133,0.7809462547302246
206,45678,45674,0.0027406327426433563,-0.0036776289343833923,1.0083023309707642,2.434063196182251,-0.19409245252609253,-1.4167544841766357,1.9559171199798584,4.030092716217041,0.31815776228904724,0.30526334047317505,0.13842147588729858,0.771568238735199
207,45688,45684,-0.0056351530365645885,-0.0761156678199768,0.9849881529808044,0.7970773577690125,5.428680896759033,-1.822319507598877,1.9562054872512817,4.03070068359375,0.31866222620010376,0.16609671711921692,0.1755545735359192,0.7553494572639465
208,45698,45694,0.0023464395198971033,-0.04103134945034981,0.9784297943115234,0.41749149560928345,5.827831268310547,-1.5880682468414307,1.957395076751709,4.030457019805908,0.319092720746994,0.22488506138324738,0.19577722251415253,0.735739529132843
209,45708,45704,-0.012797772884368896,0.009953530505299568,1.007749319076538,0.290729284286499,8.237981796264648,-1.5717761516571045,1.9571044445037842,4.030350208282471,0.3210161030292511,0.09992633014917374,0.13461022078990936,0.7294105887413025
210,45718,45714,0.046272099018096924,-0.017254777252674103,0.9695664644241333,0.4361688792705536,5.601834774017334,-1.5430341958999634,1.9583208560943604,4.030785083770752,0.3214651346206665,0.020816633477807045,0.13932034373283386,0.7138513922691345
211,45728,45724,0.07579313218593597,0.004042809829115868,0.937372624874115,-0.18383130431175232,5.185904502868652,-0.8175618648529053,1.958113431930542,4.030623435974121,0.3219534456729889,-0.02727571688592434,0.1689361035823822,0.6974020004272461
212,45738,45734,0.14752981066703796,-0.019924839958548546,0.9134953618049622,0.4655196964740753,3.0123894214630127,-1.8043218851089478,1.9591355323791504,4.030815601348877,0.3202725946903229,-0.09953348338603973,0.1809021681547165,0.6948615908622742
213,45748,45744,0.02076135016977787,-0.02888491004705429,0.9675621390342712,2.400089979171753,0.922214925289154,-1.4620269536972046,1.9595638513565063,4.0313897132873535,0.32052910327911377,-0.13343848288059235,0.21218347549438477,0.6755738854408264
214,45758,45754,-0.011620662175118923,-0.015480507165193558,0.9785478711128235,3.180096387863159,0.37808626890182495,-1.4116837978363037,1.9602465629577637,4.031111717224121,0.320695698261261,-0.1490306854248047,0.261970192193985,0.6568723320960999
215,45768,45764,0.010229199193418026,-0.023196890950202942,0.9478194713592529,1.5321279764175415,0.1165066584944725,-1.6216230392456055,1.9595775604248047,4.0304951667785645,0.3196074366569519,-0.07974432408809662,0.3049278259277344,0.6413487792015076
216,45778,45774,0.036138616502285004,-0.042557019740343094,0.9323204159736633,0.6956636309623718,1.9484151601791382,-2.281221866607666,1.9597235918045044,4.030365943908691,0.31971290707588196,-0.17972101271152496,0.3271382749080658,0.6221104860305786
217,45788,45784,0.05455414950847626,-0.026263011619448662,0.9113065004348755,-1.1290090084075928,1.355375051498413,-1.5958267450332642,1.9614179134368896,4.029419898986816,0.31964126229286194,-0.19621410965919495,0.33092206716537476,0.5969058275222778
218,45798,45794,-0.005234354175627232,-0.0020309111569076777,0.9682157635688782,-1.9584959745407104,5.314081192016602,-1.937102198600769,1.9612256288528442,4.030219554901123,0.3196808397769928,-0.17605066299438477,0.2969880998134613,0.5777692198753357
219,45808,45804,0.03194019943475723,0.023074764758348465,0.9124817252159119,-3.096579074859619,2.4550602436065674,-1.3303580284118652,1.961958408355713,4.0292158126831055,0.3203645348548889,-0.2126288115978241,0.2777728736400604,0.541930615901947
220,45818,45814,0.0805840790271759,0.03992617875337601,0.8967211246490479,-3.484851360321045,6.757675647735596,-1.7732231616973877,1.9627156257629395,4.029135227203369,0.32014593482017517,-0.35139521956443787,0.2258004993200302,0.5126453042030334
221,45828,45824,0.06378626078367233,0.05047009885311127,0.9493213891983032,-1.658376932144165,1.6977156400680542,-1.050563931465149,1.9633053541183472,4.028504371643066,0.3199225664138794,-0.30597835779190063,0.1643770933151245,0.5010701417922974
222,45838,45834,0.037661563605070114,-0.03526075556874275,0.9385067224502563,-0.22997216880321503,3.5075786113739014,-1.1516042947769165,1.9635673761367798,4.028652191162109,0.31825098395347595,-0.340054988861084,0.1509547084569931,0.5044088959693909
223,45848,45844,-0.00958147644996643,-0.05186944827437401,0.9763078093528748,0.3692832589149475,1.5654462575912476,-1.0631146430969238,1.9631412029266357,4.029295444488525,0.3178267776966095,-0.2928324043750763,0.1547001153230667,0.49628642201423645
224,45858,45854,0.07405992597341537,0.018544979393482208,0.9796679019927979,2.1715564727783203,-0.6818558573722839,-1.37990403175354,1.9628881216049194,4.029494762420654,0.3174275755882263,-0.32622435688972473,0.17600105702877045,0.49224451184272766
225,45868,45864,-0.01913936249911785,0.007786144036799669,1.0055948495864868,3.451382875442505,0.8813887238502502,-1.2093137502670288,1.9628185033798218,4.029315948486328,0.3203411102294922,-0.3423105478286743,0.22126278281211853,0.46533679962158203
226,45878,45874,-0.0802556723356247,-0.004909399896860123,0.9960074424743652,3.697983503341675,-2.2429912090301514,-0.7774429321289062,1.9632987976074219,4.02943229675293,0.3200434744358063,-0.40289726853370667,0.20422597229480743,0.4803464114665985
227,45888,45884,0.001938968664035201,-0.09585408121347427,1.0222523212432861,4.504916667938232,-2.4614598751068115,-0.40923669934272766,1.963646411895752,4.028983116149902,0.3197774887084961,-0.28891950845718384,0.27621451020240784,0.47407016158103943
228,45898,45894,0.10226260870695114,-0.1705828756093979,1.00551438331604,6.059829235076904,-6.111225128173828,-0.5017019510269165,1.9630250930786133,4.02953577041626,0.3193993866443634,-0.22794018685817719,0.2885451912879944,0.4687195122241974
229,45908,45904,0.056789297610521317,-0.16289818286895752,1.0807856321334839,7.87704610824585,-5.75000524520874,-0.7315452098846436,1.9623583555221558,4.028985023498535,0.31918442249298096,-0.14057372510433197,0.40802788734436035,0.45481249690055847
230,45918,45914,0.04227585345506668,-0.08746828138828278,0.999580979347229,8.157088279724121,-7.664022445678711,0.7523542642593384,1.96202552318573,4.0281453132629395,0.31903043389320374,-0.07229868322610855,0.4957408010959625,0.42306920886039734
231,45928,45924,-0.003437105333432555,-0.07556070387363434,1.0390104055404663,7.303185939788818,-4.661215305328369,2.3689119815826416,1.9622018337249756,4.027074337005615,0.31881555914878845,0.08011088520288467,0.6683437824249268,0.4605637490749359
232,45938,45934,0.04958843067288399,0.009537857957184315,0.9408528804779053,3.3387551307678223,1.5593868494033813,4.841518878936768,1.9613823890686035,4.025405406951904,0.31653809547424316,-0.13492920994758606,0.6670724153518677,0.45878416299819946
233,45948,45944,0.0949733704328537,0.006009687203913927,0.9401441216468811,-3.9169869422912598,7.655007839202881,7.335821628570557,1.9638495445251465,4.026074409484863,0.316522479057312,-0.11787696927785873,0.6453285217285156,0.5234653949737549
234,45958,45954,0.12185882776975632,-0.07670397311449051,0.9731349945068359,-9.280293464660645,6.705181121826172,8.197813034057617,1.964542269706726,4.026256084442139,0.3162219822406769,-0.19267113506793976,0.5849313139915466,0.6010506749153137
235,45968,45964,0.01389590185135603,-0.023185675963759422,1.0060611963272095,-13.428609848022461,7.956173896789551,7.7353620529174805,1.9651141166687012,4.027104377746582,0.31862881779670715,-0.2022227793931961,0.38256677985191345,0.6730176210403442
236,45978,45974,-0.01847938634455204,-0.0640726387500763,1.0022612810134888,-12.694844245910645,5.339556694030762,6.896273136138916,1.9651507139205933,4.027125835418701,0.31840381026268005,-0.38736939430236816,0.23996393382549286,0.760952353477478
237,45988,45984,-0.006578145548701286,0.020957445725798607,0.9738981127738953,-6.597374439239502,2.4461512565612793,7.423807144165039,1.9659466743469238,4.027153968811035,0.3181391656398773,-0.4389682412147522,0.08734786510467529,0.817905843257904
238,45998,45994,0.03948989510536194,0.048686377704143524,0.9930175542831421,0.7753405570983887,-3.272712230682373,8.382434844970703,1.9669148921966553,4.02663516998291,0.3192361295223236,-0.3268762230873108,0.05869769677519798,0.9010816216468811
239,46008,46004,0.055152229964733124,-0.0073609733954072,1.039034366607666,9.058195114135742,-8.431106567382812,9.571512222290039,1.966410517692566,4.025547981262207,0.31916019320487976,-0.43904709815979004,0.16392582654953003,0.9603647589683533
