,timestamp_start,timestamp_end,acc.x,acc.y,acc.z,gyro.x,gyro.y,gyro.z,stateEstimate.x,stateEstimate.y,stateEstimate.z,stabilizer.pitch,stabilizer.roll,stabilizer.yaw
0,50933,50932,0.029135247692465782,-0.04872966930270195,1.048780918121338,-4.091261863708496,6.344841957092285,-1.7573176622390747,2.019160747528076,4.026493549346924,0.17454737424850464,1.5697307586669922,-0.7749090790748596,1.7620519399642944
1,50943,50942,0.018514281138777733,-0.0074159083887934685,1.0364545583724976,-4.4976091384887695,7.734781265258789,-1.7626316547393799,2.0186681747436523,4.026058197021484,0.1762801706790924,1.5354783535003662,-0.846821665763855,1.7515777349472046
2,50953,50952,-0.009132687002420425,-0.013231853023171425,1.0589920282363892,-3.763214111328125,8.429173469543457,-2.0081686973571777,2.017219305038452,4.024969577789307,0.1779693216085434,1.5477135181427002,-0.7702022790908813,1.6945044994354248
3,50963,50962,0.00730320205911994,-0.01626453921198845,1.0215703248977661,-1.513810396194458,8.861393928527832,-1.987082600593567,2.016594171524048,4.023194789886475,0.17873738706111908,1.3882817029953003,-0.6953938007354736,1.647753357887268
4,50973,50972,-0.06815711408853531,0.198494553565979,1.027793288230896,-1.895761251449585,9.456215858459473,-1.4101371765136719,2.0168936252593994,4.02476167678833,0.18075494468212128,1.1525142192840576,-0.8152705430984497,1.6631923913955688
5,50983,50982,0.01567438803613186,-0.04073188453912735,1.0179113149642944,-2.9890594482421875,9.452638626098633,-1.1848171949386597,2.0165414810180664,4.025243759155273,0.18254847824573517,1.0737502574920654,-0.7137859463691711,1.6188488006591797
6,50993,50992,-0.01341794803738594,-0.04488828033208847,1.0653836727142334,-4.088612079620361,8.84405517578125,-1.4643868207931519,2.016493797302246,4.025017261505127,0.18280425667762756,0.924169659614563,-0.723836362361908,1.6059156656265259
7,51003,51002,-0.0004224238800816238,0.04911413416266441,1.0490474700927734,-6.724564552307129,4.896725177764893,-1.0263434648513794,2.0171408653259277,4.0255208015441895,0.18463937938213348,0.7958104014396667,-0.8309129476547241,1.603686809539795
8,51013,51012,0.0267568938434124,-0.08108337223529816,1.0558594465255737,-5.902312755584717,2.476869821548462,-2.0497617721557617,2.0153138637542725,4.025814533233643,0.18668554723262787,0.8731076717376709,-0.9460262656211853,1.5857752561569214
9,51023,51022,-0.01663215458393097,-0.09600530564785004,1.061978816986084,-4.576104164123535,-0.8696494102478027,-1.4582931995391846,2.0149190425872803,4.025981426239014,0.18885475397109985,0.9001922011375427,-1.116183876991272,1.5743420124053955
10,51033,51032,0.014316574670374393,-0.0895758643746376,1.0939699411392212,-1.7170401811599731,0.21525859832763672,-1.864543080329895,2.014127492904663,4.027979850769043,0.19079558551311493,0.9518256783485413,-1.2261921167373657,1.563091516494751
11,51043,51042,-0.0050222123973071575,0.05714375898241997,0.9926802515983582,1.8909279108047485,3.0355300903320312,-1.550600290298462,2.0138323307037354,4.02819299697876,0.19313663244247437,0.8972201347351074,-1.198488473892212,1.5394469499588013
12,51053,51052,-0.003923435695469379,0.061857715249061584,1.078282117843628,4.318614482879639,6.002525806427002,-0.7860797047615051,2.0143866539001465,4.0298848152160645,0.19532565772533417,0.8743131160736084,-1.0599286556243896,1.5142605304718018
13,51063,51062,0.01947709359228611,-0.06153960898518562,1.0176396369934082,6.450992584228516,7.84634256362915,-0.6710630655288696,2.0145046710968018,4.0309906005859375,0.20025594532489777,0.7429869771003723,-1.087212085723877,1.5244030952453613
14,51073,51072,-0.004668263252824545,0.03994700685143471,1.0682405233383179,7.198950290679932,11.521025657653809,-0.928903341293335,2.0149893760681152,4.026637077331543,0.20270924270153046,0.5939671397209167,-0.49978572130203247,1.4631757736206055
15,51083,51082,0.05832430720329285,0.025128275156021118,0.9491718411445618,5.422247886657715,7.8467583656311035,-0.20494040846824646,2.0151541233062744,4.028268337249756,0.205349400639534,0.4250285029411316,-0.508402407169342,1.469826102256775
16,51093,51092,-0.09873752295970917,-0.10944532603025436,1.074152946472168,-0.5777174830436707,1.4660440683364868,-0.1899474561214447,2.014624834060669,4.0291218757629395,0.20667877793312073,0.3987225294113159,-0.5660156607627869,1.472259521484375
17,51103,51102,-0.03277554735541344,-0.10281307995319366,1.010265588760376,-8.373640060424805,4.075655937194824,-1.0437748432159424,2.0136897563934326,4.029255390167236,0.20923058688640594,0.45196837186813354,-0.7401094436645508,1.4659608602523804
18,51113,51112,-0.03169608488678932,-0.04791157692670822,1.0050758123397827,-13.143183708190918,3.0939676761627197,-0.2870897054672241,2.013547897338867,4.029666900634766,0.21176764369010925,0.3144708275794983,-0.9895521998405457,1.478560447692871
19,51123,51122,0.08539672940969467,-0.05654711648821831,1.0205576419830322,-11.277958869934082,2.1849608421325684,-0.1848093718290329,2.0124571323394775,4.029628276824951,0.21359139680862427,0.41618382930755615,-1.027053713798523,1.4576338529586792
20,51133,51132,0.07018841803073883,-0.05711514130234718,1.0018646717071533,-5.644049644470215,0.6325454115867615,-0.050541166216135025,2.0123543739318848,4.027960777282715,0.21598868072032928,0.3755165934562683,-1.0782489776611328,1.4569562673568726
21,51143,51142,0.0002513212093617767,-0.008617455139756203,0.9973117113113403,1.026139497756958,2.1853010654449463,0.6280494332313538,2.012462854385376,4.027741432189941,0.21841835975646973,0.32942625880241394,-1.1654064655303955,1.4636690616607666
22,51153,51152,-0.022256044670939445,-0.006715180352330208,0.9960678219795227,6.360896587371826,3.085005760192871,0.9515358209609985,2.0120410919189453,4.028656005859375,0.22078518569469452,0.33459606766700745,-1.2275060415267944,1.4728095531463623
23,51163,51162,0.035132840275764465,-0.03847241774201393,0.9737024903297424,10.132525444030762,4.246327877044678,0.8547614216804504,2.0119895935058594,4.0281291007995605,0.2213740199804306,0.24722638726234436,-1.1196272373199463,1.4864587783813477
24,51173,51172,0.08017487078905106,-0.125177264213562,0.9825019836425781,11.205156326293945,5.267532825469971,1.0100778341293335,2.0104892253875732,4.029684066772461,0.22390706837177277,0.4367481768131256,-0.8848894238471985,1.476129412651062
25,51183,51182,-0.01481596753001213,-0.011572884395718575,0.9776854515075684,10.400996208190918,5.379263401031494,1.1907051801681519,2.0035336017608643,4.029204845428467,0.22510400414466858,1.1721091270446777,-0.7456738352775574,1.390618085861206
26,51193,51192,0.04212329909205437,0.001312903710640967,0.9298884272575378,4.901124000549316,12.109490394592285,1.4749319553375244,2.0043909549713135,4.029298782348633,0.22443787753582,0.8601328730583191,-0.6626766920089722,1.42727792263031
27,51203,51202,0.045081544667482376,-7.407520752167329e-05,0.94539475440979,0.17728665471076965,18.425201416015625,1.5650302171707153,2.0042662620544434,4.030282974243164,0.22697336971759796,0.5413404107093811,-0.6737960577011108,1.4621624946594238
28,51213,51212,-0.0032445862889289856,0.0008270422113128006,0.9717074632644653,-4.188621520996094,25.378623962402344,1.1373474597930908,2.002901315689087,4.030593395233154,0.22900895774364471,0.35272517800331116,-0.751583993434906,1.4708820581436157
29,51223,51222,-0.02911684662103653,-0.008649623021483421,0.9910035133361816,-6.160224914550781,30.399948120117188,0.8860394358634949,2.0049712657928467,4.033576488494873,0.23241832852363586,-0.20707204937934875,-0.8683593273162842,1.514054298400879
30,51233,51232,0.0740106850862503,0.007707038428634405,0.9537030458450317,-3.6094605922698975,23.788227081298828,1.355733871459961,2.0039620399475098,4.03418493270874,0.23447079956531525,-0.4423167407512665,-1.0406768321990967,1.5212410688400269
31,51243,51242,0.0230766199529171,0.06110873818397522,0.9682594537734985,1.3403903245925903,16.75188446044922,1.7372173070907593,2.002086639404297,4.035159587860107,0.2364525943994522,-0.6444303393363953,-1.0605742931365967,1.5262043476104736
32,51253,51252,0.004474349319934845,-0.023575559258461,0.964026689529419,8.490193367004395,8.48873233795166,1.916825532913208,2.00176739692688,4.035243988037109,0.24228568375110626,-0.7826104760169983,-0.9681811928749084,1.544694423675537
33,51263,51262,0.00028426299104467034,-0.057590316981077194,0.9636324644088745,13.656767845153809,3.7546732425689697,1.6325349807739258,2.001314163208008,4.035158634185791,0.2445087879896164,-0.8704131841659546,-0.7772135734558105,1.5697060823440552
34,51273,51272,-0.010772505775094032,-0.02267473004758358,0.9611942172050476,15.112798690795898,-4.387417793273926,1.9666469097137451,2.0002553462982178,4.037468433380127,0.24665464460849762,-0.7831891179084778,-0.757158100605011,1.5697799921035767
35,51283,51282,0.02896331250667572,0.05209475755691528,0.9519289135932922,13.520405769348145,-5.191030979156494,1.7189345359802246,2.000776529312134,4.039869785308838,0.24889425933361053,-0.7914673089981079,-0.579533040523529,1.6015592813491821
36,51293,51292,-0.006667022593319416,0.1130344495177269,0.9833647608757019,10.269554138183594,-4.053299903869629,1.622167944908142,1.9999635219573975,4.0409040451049805,0.2509887218475342,-0.7853518128395081,-0.4481026530265808,1.6243939399719238
37,51303,51302,-0.03214089572429657,0.11074676364660263,1.0000485181808472,7.448986530303955,-2.14276385307312,0.9427888989448547,2.000556468963623,4.045166015625,0.25311344861984253,-0.8105798959732056,-0.523783266544342,1.6242040395736694
38,51313,51312,-0.01540186908096075,0.01287879142910242,0.9587032198905945,3.6273999214172363,2.8665714263916016,1.1821868419647217,2.0003132820129395,4.045495986938477,0.2551848292350769,-0.8887660503387451,-0.4137064218521118,1.6460182666778564
39,51323,51322,0.02120778150856495,-0.10101597756147385,0.942854106426239,2.931865692138672,5.415041923522949,0.4761197865009308,2.002063512802124,4.048288822174072,0.2560879588127136,-1.167732834815979,-0.41716817021369934,1.6625516414642334
40,51333,51332,0.03823214769363403,0.022309716790914536,0.9437899589538574,2.1221814155578613,6.533881187438965,-0.18851518630981445,2.0012378692626953,4.050469875335693,0.25806930661201477,-1.127539873123169,-0.5686919093132019,1.6308239698410034
41,51343,51342,0.027962511405348778,0.030515845865011215,0.9213970899581909,4.945106029510498,1.4341708421707153,0.18087056279182434,1.9990997314453125,4.0519866943359375,0.2618786096572876,-1.0532387495040894,-0.44957613945007324,1.6394416093826294
42,51353,51352,0.01003266777843237,-0.057265251874923706,0.9131316542625427,9.968884468078613,-5.099423885345459,0.17112836241722107,1.999501347541809,4.053426742553711,0.26159343123435974,-1.0790404081344604,-0.3582341969013214,1.6486403942108154
43,51363,51362,-0.009389491751790047,-0.16075637936592102,0.9528454542160034,10.659257888793945,-1.6304904222488403,0.3504822552204132,1.9991958141326904,4.053991317749023,0.2633143365383148,-1.0424165725708008,-0.28517085313796997,1.6464320421218872
44,51373,51372,0.04806668683886528,-0.06362801045179367,0.9253010153770447,12.867484092712402,-1.8942371606826782,0.5413116812705994,1.9993054866790771,4.05458402633667,0.2650744318962097,-0.9874225854873657,-0.009658809751272202,1.6750528812408447
45,51383,51382,0.02192113921046257,0.010031399317085743,0.9549842476844788,12.852678298950195,-3.9493865966796875,0.40571630001068115,1.9990019798278809,4.056398868560791,0.26669853925704956,-0.9446424245834351,-0.06492174416780472,1.6428563594818115
46,51393,51392,-0.013433246873319149,-0.008708763867616653,0.9448497891426086,8.923196792602539,-5.210931777954102,0.9489936232566833,1.9989315271377563,4.056280136108398,0.26605769991874695,-0.8900446891784668,0.09306199848651886,1.6586540937423706
47,51403,51402,-0.013269119895994663,-0.002039598999544978,0.9503808617591858,5.300585746765137,-4.116424560546875,0.9953212738037109,1.9991039037704468,4.057436466217041,0.26742979884147644,-0.9147102236747742,0.1824440211057663,1.6721833944320679
48,51413,51412,-0.022919554263353348,0.006725447718054056,0.9440097212791443,2.7191569805145264,-4.490941047668457,1.121964931488037,2.000142812728882,4.058535575866699,0.26867708563804626,-1.014328122138977,0.13859449326992035,1.6662675142288208
49,51423,51422,0.0025729036424309015,0.004602480214089155,0.9308280944824219,0.020795932039618492,-2.320009469985962,1.5664088726043701,1.9999778270721436,4.061201095581055,0.2705758213996887,-0.9444948434829712,0.06507493555545807,1.6622931957244873
50,51433,51432,0.009434927254915237,0.011654149740934372,0.8999061584472656,1.8825457096099854,-3.1045212745666504,2.2924387454986572,1.9996041059494019,4.061274528503418,0.27180245518684387,-0.8751941919326782,0.15486657619476318,1.6964302062988281
51,51443,51442,0.03620181232690811,-0.024425217881798744,0.9134553074836731,6.0903496742248535,-6.646318435668945,2.091442108154297,1.998706340789795,4.063177585601807,0.2728925049304962,-0.7876737117767334,0.20520879328250885,1.720994234085083
52,51453,51452,-0.030731841921806335,0.042192794382572174,0.9860431551933289,9.437288284301758,-6.682143688201904,2.175093650817871,1.9995397329330444,4.064137935638428,0.27232763171195984,-0.7454832792282104,0.40364810824394226,1.7626508474349976
53,51463,51462,0.011263752356171608,-0.00849565677344799,0.9587610363960266,9.988158226013184,-5.993979454040527,1.9247896671295166,1.999170184135437,4.065115451812744,0.2732006311416626,-0.7162665724754333,0.5399991869926453,1.789004921913147
54,51473,51472,0.04699531942605972,-0.18596769869327545,0.9780674576759338,7.851872444152832,-4.843269348144531,2.0159285068511963,1.9998257160186768,4.068498134613037,0.274064302444458,-0.6800647974014282,0.4229145646095276,1.7716856002807617
55,51483,51482,-0.04830857738852501,0.006783780641853809,0.9715568423271179,4.166453838348389,-3.4283108711242676,2.1392762660980225,1.9996699094772339,4.0678815841674805,0.2748948633670807,-0.5989927053451538,0.5797706246376038,1.8114103078842163
56,51493,51492,-0.001330409082584083,-0.022064751014113426,0.9274299740791321,2.401454210281372,-2.486192226409912,2.074385643005371,2.0001721382141113,4.067656517028809,0.2778642475605011,-0.6123552918434143,0.6776337623596191,1.8409903049468994
57,51503,51502,0.02261035144329071,-0.024750638753175735,0.9758354425430298,0.32545146346092224,3.409686326980591,2.261476755142212,1.999956488609314,4.069106101989746,0.2787180542945862,-0.5746505856513977,0.5930851697921753,1.8474282026290894
58,51513,51512,0.0640321895480156,0.011318178847432137,0.9909509420394897,0.2641845643520355,-4.9545979499816895,2.4884562492370605,1.9993538856506348,4.069817543029785,0.27956172823905945,-0.5357237458229065,0.6454979181289673,1.8825953006744385
59,51523,51522,0.05890084058046341,0.048315782099962234,0.9593911170959473,0.7444626688957214,-9.022970199584961,2.9739251136779785,1.9998477697372437,4.0696120262146,0.2802289128303528,-0.4584103524684906,0.6947969198226929,1.919293761253357
60,51533,51532,0.028038254007697105,-0.0013474124716594815,0.9539294838905334,0.946689784526825,-8.938766479492188,2.989439010620117,2.001011610031128,4.071105003356934,0.28098437190055847,-0.5196141600608826,0.591924250125885,1.9164903163909912
61,51543,51542,0.021298563107848167,-0.07467284053564072,0.9628263115882874,0.7933892011642456,-9.589235305786133,3.323369264602661,2.0004210472106934,4.071043968200684,0.28176164627075195,-0.33566179871559143,0.6519238948822021,1.9640039205551147
62,51553,51552,-0.017841655761003494,-0.023155832663178444,0.9768210649490356,0.7209372520446777,-9.542025566101074,3.5590720176696777,1.999948263168335,4.070751190185547,0.28265857696533203,-0.22741948068141937,0.7063890099525452,2.005600929260254
63,51563,51562,0.01788833737373352,-0.025758538395166397,0.9616214036941528,0.9273042678833008,-8.835953712463379,3.67083740234375,1.9993840456008911,4.073493957519531,0.28332987427711487,-0.12707483768463135,0.6807565093040466,2.036012887954712
64,51573,51572,0.00904919020831585,-0.02233186736702919,0.9686887264251709,0.11637114733457565,-7.9644670486450195,3.4979617595672607,2.0000271797180176,4.073965072631836,0.2839803397655487,-0.11871874332427979,0.7265768051147461,2.0659191608428955
65,51583,51582,-0.04629895091056824,0.030392730608582497,0.9918172955513,-1.3578159809112549,-6.073720932006836,2.7469236850738525,2.0001823902130127,4.075534343719482,0.28339433670043945,-0.03085448406636715,0.6684995293617249,2.0935580730438232
66,51593,51592,-0.0832824632525444,0.08265212923288345,0.9906509518623352,-1.3799148797988892,-7.359929084777832,3.492824077606201,1.9995585680007935,4.076521396636963,0.2838608920574188,0.10689602047204971,0.6771307587623596,2.1357991695404053
67,51603,51602,0.02034580335021019,-0.04605097323656082,0.9730554223060608,-1.665947437286377,-4.433801174163818,2.9407260417938232,2.003093719482422,4.077844619750977,0.2839199900627136,-0.1543019860982895,0.6052456498146057,2.1203620433807373
68,51613,51612,-0.013291232287883759,0.029936861246824265,1.0106267929077148,0.141074076294899,-5.535717010498047,2.822641134262085,2.002964496612549,4.078680515289307,0.28488191962242126,-0.02209204062819481,0.6212618350982666,2.1651511192321777
69,51623,51622,-0.006495605688542128,0.008984982036054134,0.9798005223274231,0.2065608948469162,-5.55006217956543,3.572523593902588,2.002152919769287,4.079373359680176,0.28528544306755066,0.1195194348692894,0.579900324344635,2.2042930126190186
70,51633,51632,0.022214362397789955,-0.006284160539507866,0.980131208896637,0.07531965523958206,-7.332802772521973,3.2004058361053467,2.00239634513855,4.079620361328125,0.2857719659805298,0.19162870943546295,0.6156936883926392,2.241455078125
71,51643,51642,0.05547334998846054,-0.13499976694583893,1.03266441822052,-0.1887781322002411,-9.145512580871582,3.4285380840301514,2.003742218017578,4.079965591430664,0.2861728072166443,0.1583741307258606,0.5736010074615479,2.256481409072876
72,51653,51652,0.052007999271154404,-0.09355831146240234,0.9739311933517456,-1.1925337314605713,-5.883925914764404,2.5001792907714844,2.0036401748657227,4.0809221267700195,0.2864469587802887,0.28151828050613403,0.6009767055511475,2.292088270187378
73,51663,51662,0.028335414826869965,-0.041933998465538025,0.985614001750946,-0.7094858884811401,-8.70008659362793,2.118420124053955,2.0031399726867676,4.0808258056640625,0.2869105339050293,0.4743652045726776,0.6967751979827881,2.332751512527466
74,51673,51672,0.005543609149754047,0.029669979587197304,1.0012266635894775,-0.6819802522659302,-7.835570812225342,1.8586533069610596,2.0023322105407715,4.081058979034424,0.2873716354370117,0.6549157500267029,0.7802648544311523,2.3632938861846924
75,51683,51682,-0.02133234776556492,0.05457344651222229,1.053642988204956,-1.3302011489868164,-5.422113418579102,1.3523718118667603,2.0017879009246826,4.081039905548096,0.28787562251091003,0.8080308437347412,0.7767428159713745,2.3891985416412354
76,51693,51692,0.01145101897418499,0.0075302389450371265,1.0123285055160522,-4.036118507385254,-1.3279552459716797,0.8974268436431885,2.002901554107666,4.081010341644287,0.2879387438297272,0.7217264771461487,0.7328675985336304,2.384204626083374
77,51703,51702,-0.05286599323153496,0.15802866220474243,1.0009291172027588,-6.615527629852295,2.1637701988220215,0.3736814260482788,2.0043177604675293,4.081153392791748,0.2884101867675781,0.5609264373779297,0.6392081379890442,2.368849277496338
78,51713,51712,0.030773527920246124,-0.0345495380461216,0.9631158113479614,-8.238133430480957,2.6888184547424316,0.04820551350712776,2.004380702972412,4.081582069396973,0.2888611853122711,0.5607423782348633,0.515791118144989,2.375335931777954
79,51723,51722,-0.017098795622587204,0.03138958290219307,1.0324702262878418,-7.012113571166992,0.9371732473373413,-0.14442813396453857,2.0039210319519043,4.081024646759033,0.28749004006385803,0.637493371963501,0.5459461808204651,2.3838393688201904
80,51733,51732,0.02172277122735977,-0.047421619296073914,0.9448036551475525,-5.898770809173584,0.6678623557090759,-0.3496233820915222,2.004598379135132,4.081360816955566,0.2878280282020569,0.5770975947380066,0.4429081082344055,2.3742146492004395
81,51743,51742,0.04384308680891991,-0.09073784947395325,0.973121166229248,-3.725099802017212,-1.2521113157272339,-0.31845539808273315,2.004049777984619,4.082325458526611,0.2881629168987274,0.6997660994529724,0.36938583850860596,2.3868508338928223
82,51753,51752,-0.014248567633330822,0.010990646667778492,1.051881194114685,-1.8453985452651978,-2.9409546852111816,-1.3783806562423706,2.0038344860076904,4.081104278564453,0.2899410128593445,0.7703893780708313,0.41043636202812195,2.37853741645813
83,51763,51762,0.015112332999706268,0.05349753797054291,0.9543057680130005,-0.9233070015907288,-0.366819828748703,-1.63114333152771,2.0041239261627197,4.080467224121094,0.2902945578098297,0.7649531960487366,0.4690646529197693,2.3561859130859375
84,51773,51772,-0.010585414245724678,0.03994704782962799,1.0138226747512817,-0.6839150786399841,-1.6605778932571411,-0.7124908566474915,2.003777027130127,4.0806097984313965,0.290661484003067,0.8181861639022827,0.4546399414539337,2.3518383502960205
85,51783,51782,0.006985217798501253,-0.043618202209472656,0.9780429601669312,-1.4472066164016724,-0.062189120799303055,-1.209686040878296,2.0034396648406982,4.080540180206299,0.28906935453414917,0.8296127319335938,0.4368695616722107,2.3548572063446045
86,51793,51792,0.021777711808681488,-0.052075035870075226,1.0098085403442383,-3.506005048751831,5.905090808868408,-1.4185397624969482,2.0035688877105713,4.081162452697754,0.289324551820755,0.8146543502807617,0.39321476221084595,2.3466436862945557
87,51803,51802,0.001478819060139358,-0.03494826704263687,1.0037966966629028,-5.523449897766113,14.114002227783203,-1.0902973413467407,2.0041604042053223,4.08203649520874,0.28958651423454285,0.7037236094474792,0.32073065638542175,2.332357883453369
88,51813,51812,-0.014746703207492828,0.008629481308162212,1.0089120864868164,-6.825521469116211,19.522430419921875,-0.9600904583930969,2.003152370452881,4.082213401794434,0.28984493017196655,0.7091462016105652,0.3014833629131317,2.3279383182525635
89,51823,51822,0.0596742108464241,-0.1600133627653122,1.0081596374511719,-8.182418823242188,25.598424911499023,-1.7521637678146362,2.0046727657318115,4.083170413970947,0.2925203740596771,0.4392230212688446,0.25644201040267944,2.3078720569610596
90,51833,51832,-0.04217181354761124,0.07031649351119995,1.0315014123916626,-7.118014812469482,26.07625961303711,-1.6006455421447754,2.0059731006622314,4.0845866203308105,0.2929217219352722,0.013898669742047787,0.10966188460588455,2.285721778869629
91,51843,51842,0.019826559349894524,0.0755242258310318,0.9918959736824036,-5.110287666320801,22.529571533203125,-1.4023622274398804,2.0030293464660645,4.083772659301758,0.2936645746231079,0.07183031737804413,0.13726651668548584,2.2850241661071777
92,51853,51852,-0.008475666865706444,0.028681639581918716,1.02631413936615,-2.1686201095581055,16.096195220947266,-1.6415847539901733,2.0036587715148926,4.084073543548584,0.29272857308387756,-0.228061705827713,0.04151983559131622,2.270076036453247
93,51863,51862,0.017105981707572937,-0.04435429349541664,0.990551233291626,0.1680794358253479,10.445008277893066,-1.8225473165512085,2.0037593841552734,4.083326816558838,0.293109267950058,-0.41854003071784973,0.14863209426403046,2.2433009147644043
94,51873,51872,-0.007244907319545746,-0.008823837153613567,1.0097154378890991,0.5715091228485107,6.203324794769287,-1.3957830667495728,2.0041677951812744,4.083209991455078,0.2934843897819519,-0.5899834632873535,0.12454447895288467,2.2237744331359863
95,51883,51882,-0.005901914089918137,0.012063194066286087,1.0244065523147583,-1.6722794771194458,4.132705211639404,-1.527159333229065,2.0047948360443115,4.082777976989746,0.29522794485092163,-0.6870355606079102,0.10090029984712601,2.2089602947235107
96,51893,51892,-0.02852160856127739,0.0562736913561821,0.9678811430931091,-4.294149875640869,3.8926737308502197,-1.644457459449768,2.004262924194336,4.083643436431885,0.29575419425964355,-0.680895209312439,0.04621036723256111,2.197801351547241
97,51903,51902,-0.06448905915021896,0.04015292599797249,1.0316224098205566,-4.647518634796143,5.501561641693115,-1.7680567502975464,2.003655433654785,4.083498001098633,0.2962675094604492,-0.6751773357391357,-0.0380735881626606,2.18192720413208
98,51913,51912,0.0326739102602005,-0.056265197694301605,0.9819902777671814,-5.9454803466796875,6.245062828063965,-2.002310276031494,2.0042965412139893,4.08223819732666,0.29746851325035095,-0.761662483215332,0.013367203995585442,2.165034055709839
99,51923,51922,0.01733884960412979,-0.020459748804569244,1.032334327697754,-4.356985092163086,8.9629545211792,-2.0537054538726807,2.0047318935394287,4.081618785858154,0.29797253012657166,-0.8651519417762756,-0.023185383528470993,2.1449670791625977
100,51933,51932,-0.008391040377318859,-0.04913392663002014,0.9819298386573792,-3.5819878578186035,10.89592170715332,-2.2914016246795654,2.0032317638397217,4.080418109893799,0.2986197769641876,-0.775145947933197,-0.04491669312119484,2.130821943283081
101,51943,51942,-1.1607291526161134e-05,-0.08189517259597778,0.9641925096511841,-2.6664583683013916,10.856595993041992,-1.6622645854949951,2.003648281097412,4.078774452209473,0.29916197061538696,-0.8851959109306335,0.022000540047883987,2.115921974182129
102,51953,51952,-0.016559595242142677,-0.01653771847486496,0.9894339442253113,-3.1651196479797363,10.757509231567383,-1.6454722881317139,2.0044901371002197,4.079097270965576,0.29911649227142334,-1.0700368881225586,-0.06063300743699074,2.0936460494995117
103,51963,51962,-0.02412748895585537,-0.0036458696704357862,1.0096112489700317,-6.2200398445129395,10.363285064697266,-1.5873744487762451,2.004376173019409,4.079983711242676,0.29961106181144714,-1.165876030921936,-0.1533004194498062,2.0714001655578613
104,51973,51972,0.035679467022418976,-0.014677666127681732,0.9677324891090393,-7.555053234100342,8.784695625305176,-1.9070765972137451,2.0051157474517822,4.079134941101074,0.3001392185688019,-1.251441240310669,-0.13140425086021423,2.061919689178467
105,51983,51982,0.02076003886759281,-0.01356801949441433,0.9941123723983765,-6.4542555809021,6.7376389503479,-2.0594499111175537,2.0046098232269287,4.079092502593994,0.3003994822502136,-1.3112865686416626,-0.2068556398153305,2.0427541732788086
106,51993,51992,-0.02431083470582962,0.0344131700694561,1.0075430870056152,-5.092334270477295,5.059503555297852,-2.306452512741089,2.0045671463012695,4.078610420227051,0.3008823096752167,-1.336900234222412,-0.2732163965702057,2.0213570594787598
107,52003,52002,0.02431214228272438,-0.04816168174147606,0.9697240591049194,-4.094529628753662,3.771829128265381,-2.197418451309204,2.0048842430114746,4.077997207641602,0.3013201355934143,-1.4145493507385254,-0.3169785737991333,2.000277042388916
108,52013,52012,0.04923088103532791,-0.044701721519231796,0.9827368855476379,-1.5202393531799316,3.517897367477417,-2.2551395893096924,2.0051162242889404,4.078352451324463,0.30048447847366333,-1.4801404476165771,-0.3368040919303894,1.9817466735839844
109,52023,52022,0.03263693302869797,-0.014230445958673954,0.9593327045440674,-1.1402381658554077,3.4810051918029785,-2.007382392883301,2.0058298110961914,4.078897953033447,0.3008511960506439,-1.525895118713379,-0.3991985619068146,1.9516637325286865
110,52033,52032,0.019543660804629326,-0.03907683119177818,0.963399350643158,-0.5798690319061279,2.013897657394409,-1.9726461172103882,2.0059895515441895,4.079538345336914,0.30116891860961914,-1.552900791168213,-0.43826305866241455,1.925019383430481
111,52043,52042,0.020880047231912613,-0.0476965568959713,0.9904689788818359,-1.5373409986495972,1.665832281112671,-1.992342472076416,2.0065650939941406,4.079718112945557,0.3014669716358185,-1.5697712898254395,-0.47857585549354553,1.8979359865188599
112,52053,52052,0.0016463234787806869,-0.028988707810640335,0.9922329187393188,-1.2566730976104736,0.914462685585022,-2.1901512145996094,2.0065150260925293,4.079862594604492,0.30254632234573364,-1.5763390064239502,-0.5252640843391418,1.872699499130249
113,52063,52062,-0.010931714437901974,0.007012168411165476,1.0088119506835938,-1.259523868560791,1.3049037456512451,-1.838990569114685,2.006415367126465,4.0805253982543945,0.3028395175933838,-1.568487524986267,-0.5657963752746582,1.8445866107940674
114,52073,52072,0.031065473333001137,-0.025676710531115532,0.9781235456466675,-0.9033203125,-0.03647608309984207,-1.6772953271865845,2.006272315979004,4.080019950866699,0.3031269311904907,-1.5633022785186768,-0.6000166535377502,1.819932222366333
115,52083,52082,-0.015601693652570248,-0.00021734753681812435,1.011997103691101,-0.06681346148252487,2.983161211013794,-1.6376484632492065,2.0070443153381348,4.081532001495361,0.30256780982017517,-1.5611896514892578,-0.6183292269706726,1.80062735080719
116,52093,52092,0.017318781465291977,-0.021379852667450905,0.9653506875038147,1.4497731924057007,5.764856815338135,-2.256481409072876,2.007991313934326,4.082709789276123,0.3028160035610199,-1.5812958478927612,-0.6181889772415161,1.784034252166748
117,52103,52102,0.026806192472577095,-0.04096380993723869,0.9853377342224121,2.7606449127197266,3.644340991973877,-2.0259978771209717,2.0097923278808594,4.082240104675293,0.30294886231422424,-1.7655450105667114,-0.5981842875480652,1.7757363319396973
118,52113,52112,0.009140175767242908,0.006738004274666309,0.987450361251831,4.206002712249756,1.4624146223068237,-1.7253700494766235,2.009577989578247,4.081557750701904,0.30214205384254456,-1.7004045248031616,-0.5577675700187683,1.7524313926696777
119,52123,52122,0.02340240404009819,-0.08271066844463348,0.9544298052787781,4.036555290222168,-1.6227648258209229,-1.4924663305282593,2.010669469833374,4.081723690032959,0.3021838366985321,-1.830336332321167,-0.5756016969680786,1.7286384105682373
120,52133,52132,-0.02013956569135189,-0.02051788754761219,1.0103763341903687,2.741908073425293,-3.8403897285461426,-1.287077784538269,2.010328769683838,4.081884384155273,0.30233314633369446,-1.74980890750885,-0.514689564704895,1.7118074893951416
121,52143,52142,0.00974483136087656,0.005768042989075184,1.0064913034439087,2.1318159103393555,-5.250143527984619,-1.296183466911316,2.011819362640381,4.0813069343566895,0.3023616373538971,-1.7836366891860962,-0.4688738286495209,1.708042860031128
122,52153,52152,0.0007118240464478731,0.010232697241008282,1.0147325992584229,1.973196268081665,-5.885733127593994,-1.315338373184204,2.0123953819274902,4.08114767074585,0.30360689759254456,-1.784661889076233,-0.43434715270996094,1.7018297910690308
123,52163,52162,0.013292615301907063,-0.03843526914715767,0.983882486820221,1.7319246530532837,-5.908474445343018,-1.1699388027191162,2.012286901473999,4.081704616546631,0.3038632571697235,-1.622359037399292,-0.4813087284564972,1.6637072563171387
124,52173,52172,-0.03876343369483948,-0.04728963226079941,1.021472692489624,1.1312154531478882,-6.3587117195129395,-0.9410633444786072,2.014115333557129,4.081917762756348,0.3039243817329407,-1.681155800819397,-0.45028814673423767,1.6675759553909302
125,52183,52182,0.0435941144824028,-0.05579677224159241,0.9770026803016663,1.87659752368927,-5.01102352142334,-1.296730637550354,2.0142462253570557,4.081643581390381,0.3061947226524353,-1.508549690246582,-0.42141807079315186,1.65425443649292
126,52193,52192,-0.009233420714735985,0.013183477334678173,1.0324740409851074,2.5502140522003174,-4.0859761238098145,-1.6461668014526367,2.0139284133911133,4.082995414733887,0.30652451515197754,-1.3649731874465942,-0.4597630500793457,1.620505690574646
127,52203,52202,-0.01224246434867382,-0.004962118808180094,1.0035468339920044,3.1023075580596924,-2.5311872959136963,-1.3134794235229492,2.0137596130371094,4.082761287689209,0.30685484409332275,-1.2429431676864624,-0.4089527428150177,1.6075727939605713
128,52213,52212,0.024428578093647957,-0.032939039170742035,1.006917119026184,4.065565586090088,-1.1004574298858643,-1.4036426544189453,2.016000986099243,4.083377838134766,0.30771881341934204,-1.3674781322479248,-0.41911882162094116,1.5978436470031738
129,52223,52222,-0.004235112573951483,0.015927014872431755,0.9976954460144043,4.519989967346191,1.3650760650634766,-1.5828957557678223,2.0162465572357178,4.083059787750244,0.30808863043785095,-1.3515020608901978,-0.3359355628490448,1.595007300376892
130,52233,52232,0.01283192541450262,-0.04470863193273544,0.9707695841789246,5.364091873168945,-0.6957419514656067,-1.6823172569274902,2.0207889080047607,4.083690166473389,0.3081245422363281,-1.7185275554656982,-0.31781697273254395,1.601051688194275
131,52243,52242,-0.015672355890274048,-0.005303588230162859,1.0045684576034546,4.90135383605957,-3.162479877471924,-1.5663641691207886,2.020843505859375,4.083703517913818,0.3113696575164795,-1.5914018154144287,-0.21824093163013458,1.5865005254745483
132,52253,52252,0.01610575243830681,-0.014455607160925865,0.9979808926582336,4.468864440917969,-9.081933975219727,-1.611850619316101,2.0219058990478516,4.084055423736572,0.31187742948532104,-1.569828987121582,-0.27493155002593994,1.5442813634872437
133,52263,52262,0.004191715735942125,-0.0033095248509198427,0.993742048740387,2.95341420173645,-14.289730072021484,-1.4004801511764526,2.0229389667510986,4.083836555480957,0.3124339282512665,-1.4594961404800415,-0.1896546334028244,1.5355507135391235
134,52273,52272,-0.004933000076562166,-0.0521639846265316,0.9852389097213745,2.974249839782715,-17.776697158813477,-1.3445392847061157,2.0247538089752197,4.083672046661377,0.31280621886253357,-1.4117074012756348,-0.12463212013244629,1.535398244857788
135,52283,52282,-0.041077371686697006,-0.002787432400509715,1.0127525329589844,2.5278735160827637,-16.72334861755371,-2.1437909603118896,2.024272918701172,4.083974361419678,0.31154730916023254,-1.0873031616210938,-0.06735745817422867,1.5192092657089233
136,52293,52292,0.005106003489345312,0.010371176525950432,0.9622793197631836,3.296222448348999,-18.411714553833008,-1.1993203163146973,2.022686719894409,4.084392547607422,0.31210270524024963,-0.7074661254882812,-0.08734911680221558,1.4817423820495605
137,52303,52302,0.05545036494731903,-0.12113978713750839,0.9696107506752014,1.4340779781341553,-11.827295303344727,-1.2219895124435425,2.026970148086548,4.084390640258789,0.3124125599861145,-0.8786419630050659,-0.032180577516555786,1.4861520528793335
138,52313,52312,-0.025732804089784622,-0.007208968047052622,1.0108332633972168,1.0277807712554932,-7.199169635772705,-1.8860045671463013,2.0274033546447754,4.08402156829834,0.31258055567741394,-0.6477895379066467,0.004350092262029648,1.4725148677825928
139,52323,52322,-0.02103862725198269,-0.010461837984621525,0.9762002229690552,0.7070145606994629,-2.33602237701416,-2.07641339302063,2.027627944946289,4.084663391113281,0.3129855692386627,-0.5063680410385132,-0.041241370141506195,1.4447543621063232
140,52333,52332,0.04282073304057121,-0.03605666011571884,0.9418241381645203,2.330131769180298,-2.4993627071380615,-2.522780179977417,2.02946400642395,4.085006237030029,0.313216894865036,-0.5797690153121948,-0.0076860967092216015,1.4304851293563843
141,52343,52342,-0.009485982358455658,-0.028901198878884315,0.9758967757225037,2.4546148777008057,-2.537287712097168,-2.525022506713867,2.0294668674468994,4.084859848022461,0.3150721788406372,-0.43278974294662476,0.03713209182024002,1.4062626361846924
142,52353,52352,-0.05252981558442116,0.017712846398353577,0.9835003614425659,2.706942558288574,-5.738855838775635,-2.798271656036377,2.031191110610962,4.086097240447998,0.3153698742389679,-0.5068386793136597,-0.06108836829662323,1.3718578815460205
143,52363,52362,-0.05125294625759125,0.016847683116793633,0.9758727550506592,1.8372827768325806,-5.738492965698242,-2.20563006401062,2.031825304031372,4.086025714874268,0.31578463315963745,-0.3909659683704376,-0.0016226121224462986,1.3496025800704956
144,52373,52372,-0.13806065917015076,0.11193487048149109,0.969027042388916,1.4942363500595093,-9.259797096252441,-1.8696672916412354,2.031546115875244,4.085925579071045,0.31619036197662354,-0.25412437319755554,0.04572818800806999,1.3267284631729126
145,52383,52382,-0.04504530876874924,0.0035478691570460796,0.9589912295341492,1.5822808742523193,-6.272821426391602,-1.6722216606140137,2.0351295471191406,4.085647106170654,0.31423017382621765,-0.40402957797050476,0.08553500473499298,1.3099623918533325
146,52393,52392,0.02160421758890152,-0.03654766455292702,0.9671021103858948,1.2998193502426147,-4.611973285675049,-1.6028053760528564,2.0347330570220947,4.0861358642578125,0.314506471157074,-0.18208231031894684,0.05046740546822548,1.289522647857666
147,52403,52402,0.018332138657569885,-0.006582862231880426,0.9929277300834656,1.7518796920776367,-1.9255307912826538,-1.5219863653182983,2.036041498184204,4.086363792419434,0.31459498405456543,-0.15039807558059692,0.08973991870880127,1.273581862449646
148,52413,52412,0.020707689225673676,-0.04901959374547005,0.9954096078872681,2.301934242248535,-3.0854907035827637,-1.0266140699386597,2.0378048419952393,4.0878424644470215,0.31515559554100037,-0.14397931098937988,0.12658342719078064,1.2711808681488037
149,52423,52422,0.009224913083016872,-0.04773987457156181,0.9705864787101746,1.9621058702468872,-1.5188363790512085,-1.5070555210113525,2.0383801460266113,4.087454319000244,0.3152971565723419,-0.07031121104955673,0.1695033311843872,1.2577162981033325
150,52433,52432,0.0249519944190979,-0.014318577013909817,0.9785081148147583,2.304748058319092,-1.5540199279785156,-1.6135108470916748,2.0391664505004883,4.088001728057861,0.31541818380355835,-0.00971272960305214,0.14110690355300903,1.2419759035110474
151,52443,52442,0.019350634887814522,0.11785329133272171,1.000973105430603,1.3859511613845825,-0.7461216449737549,-1.428644061088562,2.0405781269073486,4.087344646453857,0.31495821475982666,-0.03531979024410248,0.1903506964445114,1.225391149520874
152,52453,52452,0.0010222981218248606,-0.004610124044120312,0.9792147278785706,0.951572060585022,-0.6098487973213196,-1.571839690208435,2.040928363800049,4.08737325668335,0.31500473618507385,0.009703443385660648,0.22852906584739685,1.2172867059707642
153,52463,52462,0.028040064498782158,0.004409262910485268,0.9728811979293823,2.7640116214752197,-2.3017210960388184,-1.665047287940979,2.0406620502471924,4.088397979736328,0.31510990858078003,0.1311841607093811,0.11600775271654129,1.2085003852844238
154,52473,52472,0.002420884557068348,-0.043203338980674744,0.97608882188797,2.4221489429473877,-3.607842206954956,-1.5958917140960693,2.0425610542297363,4.087697505950928,0.31502434611320496,0.028989532962441444,0.17834696173667908,1.183181881904602
155,52483,52482,0.011834008619189262,-0.056093212217092514,0.9814358353614807,2.47617244720459,-1.9896827936172485,-1.932319164276123,2.044039011001587,4.087348937988281,0.31635838747024536,0.02565508708357811,0.23800161480903625,1.1637325286865234
156,52493,52492,-0.08523722738027573,0.024876361712813377,1.005698323249817,3.1075315475463867,1.4145036935806274,-1.7832527160644531,2.0437169075012207,4.087106227874756,0.3165242075920105,0.1705409437417984,0.3006812632083893,1.1458829641342163
157,52503,52502,-0.054758504033088684,0.0033335667103528976,1.0103999376296997,2.217794179916382,-0.26551854610443115,-1.518758773803711,2.045203924179077,4.086978435516357,0.3165096640586853,0.12294406443834305,0.35805800557136536,1.1243445873260498
158,52513,52512,0.04639255255460739,-0.063535176217556,0.9997832179069519,0.7487791180610657,3.860215663909912,-1.3066439628601074,2.045578718185425,4.086594104766846,0.31815028190612793,0.1471882462501526,0.39587441086769104,1.1078417301177979
159,52523,52522,0.04134127125144005,-0.021954890340566635,0.9992055296897888,-0.5125529766082764,-0.2800723612308502,-1.0900729894638062,2.0464792251586914,4.086208343505859,0.31828227639198303,0.15753868222236633,0.41358044743537903,1.0958471298217773
160,52533,52532,-0.005051534157246351,-0.053629741072654724,0.9859616756439209,-2.5354466438293457,-1.7093143463134766,-1.7130796909332275,2.0477499961853027,4.088244915008545,0.3184058666229248,0.10640162229537964,0.24675443768501282,1.0953090190887451
161,52543,52542,0.0013666499871760607,0.007826413959264755,1.001583218574524,-3.403369188308716,-2.808830976486206,-1.6965140104293823,2.04780650138855,4.088529586791992,0.3181041479110718,0.23019300401210785,0.22054696083068848,1.0954203605651855
162,52553,52552,-0.017119262367486954,0.0916495993733406,1.0062141418457031,-1.617270588874817,-0.8583194613456726,-1.7241554260253906,2.048229455947876,4.089229106903076,0.3182922601699829,0.3501491844654083,0.2702529728412628,1.0829302072525024
163,52563,52562,-0.030307989567518234,0.016287900507450104,0.9984390735626221,2.230682849884033,0.42020153999328613,-1.2606120109558105,2.0484094619750977,4.089953899383545,0.31843993067741394,0.37070098519325256,0.18741942942142487,1.0716873407363892
164,52573,52572,-0.027473721653223038,-0.11166971921920776,0.9942945241928101,4.199167728424072,3.791621685028076,-1.122040033340454,2.0494589805603027,4.089276313781738,0.3199963867664337,0.35436204075813293,0.24007751047611237,1.044973373413086
165,52583,52582,-0.0006586320814676583,-0.07022126019001007,0.9777808785438538,4.852571964263916,6.782619476318359,-1.3904136419296265,2.049760580062866,4.08945894241333,0.3202093243598938,0.36011654138565063,0.3256991505622864,1.0383602380752563
166,52593,52592,-0.02559964545071125,0.013977626338601112,1.0206449031829834,3.560598850250244,8.322874069213867,-1.520050287246704,2.0500729084014893,4.08919095993042,0.3204473853111267,0.3127368688583374,0.4147711992263794,1.0212806463241577
167,52603,52602,0.09539313614368439,0.02037716470658779,0.971567690372467,0.3265416920185089,11.277325630187988,-1.926345944404602,2.052464485168457,4.089073657989502,0.3205938935279846,0.09976524859666824,0.4720253348350525,0.9976434111595154
168,52613,52612,0.07852423936128616,-0.028205329552292824,0.964618444442749,-0.30251216888427734,5.8802924156188965,-1.6725974082946777,2.0533084869384766,4.090047836303711,0.32200881838798523,0.03562798723578453,0.4063076078891754,0.9961107969284058
169,52623,52622,0.1575353592634201,-0.1120949387550354,0.9864070415496826,-2.5173661708831787,3.528710126876831,-2.06178879737854,2.053525447845459,4.089484214782715,0.32227015495300293,0.026436077430844307,0.47552114725112915,0.9729512929916382
170,52633,52632,0.04429648444056511,-0.017517657950520515,0.987450897693634,-1.027300238609314,-2.346775531768799,-0.920038104057312,2.0549604892730713,4.090099811553955,0.32241904735565186,-0.07233649492263794,0.43811967968940735,0.9570373892784119
171,52643,52642,0.010908416472375393,-0.07338099926710129,0.9764352440834045,-0.5167650580406189,-2.8284473419189453,-0.7627332210540771,2.054988145828247,4.089351654052734,0.32205069065093994,-0.024808142334222794,0.42756685614585876,0.9348267316818237
172,52653,52652,-0.024390023201704025,-0.06877242028713226,0.9646440744400024,-0.1560819298028946,-1.5311568975448608,0.06293127685785294,2.057547092437744,4.090526103973389,0.32212430238723755,-0.13288021087646484,0.34786638617515564,0.933994472026825
173,52663,52662,-0.009282473474740982,0.04669802263379097,0.9772918224334717,-2.1135566234588623,2.3793351650238037,-0.29161542654037476,2.0587055683135986,4.0913987159729,0.3222520649433136,-0.1199336051940918,0.3327663242816925,0.9496588706970215
174,52673,52672,-0.03030356951057911,0.10327059030532837,0.9760385155677795,-2.8382809162139893,6.908116817474365,-0.8339070081710815,2.0591397285461426,4.091679096221924,0.32259857654571533,-0.09926840662956238,0.295271098613739,0.9368796944618225
175,52683,52682,-0.017323456704616547,0.020049624145030975,0.9502851963043213,0.5649233460426331,10.041101455688477,-1.1808439493179321,2.0606868267059326,4.092233180999756,0.32262614369392395,-0.22690509259700775,0.27320384979248047,0.9328501224517822
176,52693,52692,-0.009175483137369156,-0.06158583611249924,0.9563961625099182,4.250431060791016,7.668137550354004,-0.7464060187339783,2.0608632564544678,4.0918498039245605,0.3227132260799408,-0.2897970974445343,0.3144890069961548,0.9140210151672363
177,52703,52702,-0.03434688225388527,-0.0025498634204268456,0.984030544757843,7.153008937835693,1.6855417490005493,-0.1872081458568573,2.0615289211273193,4.091849327087402,0.3227895200252533,-0.3004230856895447,0.41233834624290466,0.8985313773155212
178,52713,52712,0.017709501087665558,-0.0358831062912941,0.9746575951576233,8.652284622192383,-4.473847389221191,0.1837313324213028,2.061444044113159,4.09056282043457,0.32428795099258423,-0.21479351818561554,0.5362038612365723,0.8985863327980042
179,52723,52722,0.009246699512004852,-0.004296410828828812,0.9822942018508911,6.796970367431641,-7.622503280639648,-0.5073279738426208,2.0633013248443604,4.091207027435303,0.32424524426460266,-0.28264346718788147,0.5910508632659912,0.895482063293457
180,52733,52732,0.0019093315349891782,-0.046908188611269,0.9609140157699585,1.8847084045410156,-9.970831871032715,-0.7385358810424805,2.062818765640259,4.091455459594727,0.3243491053581238,-0.13214586675167084,0.669670581817627,0.9020594954490662
181,52743,52742,-0.033435482531785965,-0.05292795971035957,0.9952324032783508,-4.323383331298828,-7.735576152801514,-1.9922378063201904,2.0619544982910156,4.092158794403076,0.32327017188072205,0.10051209479570389,0.650475263595581,0.9015757441520691
182,52753,52752,-0.011895517818629742,-0.019440408796072006,0.9720528721809387,-7.513291358947754,-4.533176898956299,-1.7765536308288574,2.0651512145996094,4.092365264892578,0.32312363386154175,-0.020373210310935974,0.6273170113563538,0.8661208152770996
183,52763,52762,0.01156673301011324,-0.04995196312665939,0.9571124315261841,-7.633654594421387,1.3116836547851562,-1.4791502952575684,2.064972162246704,4.092953205108643,0.32313287258148193,0.11525951325893402,0.48780205845832825,0.8675969839096069
184,52773,52772,-0.047190383076667786,-0.01079315785318613,0.9956566691398621,-5.713992595672607,2.6448256969451904,-0.7664626836776733,2.0648226737976074,4.0925397872924805,0.3240623474121094,0.1357174664735794,0.4364258646965027,0.853769838809967
185,52783,52782,-0.0920606404542923,-0.006712741684168577,1.0019593238830566,-2.1871049404144287,10.325996398925781,0.4289668798446655,2.066344738006592,4.093067646026611,0.323974609375,0.020580440759658813,0.43246984481811523,0.8605674505233765
186,52793,52792,-0.0171898752450943,0.002125004306435585,0.9870909452438354,-0.41124165058135986,12.230216026306152,2.0250253677368164,2.066786766052246,4.0928239822387695,0.32391560077667236,-0.07418941706418991,0.3940211236476898,0.8653154969215393
187,52803,52802,0.04321572557091713,-0.12414964288473129,0.9527038931846619,1.2733744382858276,8.922384262084961,3.6096644401550293,2.0671679973602295,4.092398643493652,0.3239126205444336,-0.1003437414765358,0.4668964445590973,0.8971850872039795
188,52813,52812,-0.01003169920295477,-0.00020649789075832814,0.9853335618972778,0.670061469078064,7.27497673034668,3.2446401119232178,2.0675628185272217,4.091777324676514,0.3228025734424591,-0.16161060333251953,0.542289137840271,0.9317023158073425
189,52823,52822,-0.05002763867378235,0.07736185938119888,1.026687741279602,0.9675242900848389,4.076112747192383,3.770354986190796,2.068063974380493,4.092021942138672,0.32265061140060425,-0.18666577339172363,0.5296505689620972,0.9786378741264343
190,52833,52832,0.018147163093090057,-0.038125284016132355,0.9405505061149597,0.4583108723163605,-0.6842472553253174,4.313155651092529,2.0689260959625244,4.092779159545898,0.3225061893463135,-0.2586379647254944,0.5157861113548279,1.0340898036956787
191,52843,52842,0.008756611496210098,-0.12034934759140015,0.9608781933784485,-2.6187844276428223,4.2599663734436035,4.600024223327637,2.069451332092285,4.092073917388916,0.3221101462841034,-0.30012673139572144,0.5539436340332031,1.0730633735656738
192,52853,52852,-0.05090237781405449,0.04779764637351036,0.9671927094459534,-4.819277286529541,2.7048051357269287,4.990762233734131,2.0697948932647705,4.092932224273682,0.3219115734100342,-0.2960117757320404,0.4641541838645935,1.1404831409454346
193,52863,52862,-0.08442918211221695,0.05302031710743904,0.9493022561073303,-9.40101146697998,6.476387023925781,6.179608345031738,2.0703649520874023,4.092578887939453,0.3216257393360138,-0.3814912438392639,0.39849838614463806,1.1917405128479004
194,52873,52872,-0.03813166171312332,0.03266191855072975,1.0055922269821167,-11.233338356018066,6.035335540771484,6.761760711669922,2.0711116790771484,4.092334747314453,0.3229413628578186,-0.4221264123916626,0.35711267590522766,1.2550067901611328
195,52883,52882,-0.014591279439628124,0.0783313512802124,0.9998279213905334,-10.694875717163086,8.641571044921875,6.857959270477295,2.0720973014831543,4.094499111175537,0.32276374101638794,-0.47441941499710083,0.13960584998130798,1.3528928756713867
196,52893,52892,0.04607011377811432,-0.06509332358837128,0.9805806875228882,-8.994208335876465,10.132577896118164,6.062702655792236,2.0725510120391846,4.093555450439453,0.32255008816719055,-0.5601895451545715,0.10034014284610748,1.4182462692260742
197,52903,52902,-0.04569185525178909,0.03560837358236313,0.9792795777320862,-5.273989200592041,9.177931785583496,6.117213249206543,2.0729427337646484,4.093240737915039,0.31852996349334717,-0.6515455842018127,0.026404693722724915,1.4812510013580322
198,52913,52912,-0.024317815899848938,-0.009334424510598183,0.9891048073768616,-2.8263633251190186,9.28382682800293,6.157863140106201,2.072856903076172,4.093307018280029,0.31806108355522156,-0.7102946043014526,-0.06854670494794846,1.5448869466781616
199,52923,52922,-0.03631734475493431,0.07153145223855972,1.0198115110397339,-0.09173358231782913,4.353013515472412,6.093771934509277,2.0744824409484863,4.092342376708984,0.3174552321434021,-0.8948593139648438,-0.037493299692869186,1.6021702289581299
200,52933,52932,0.03339667245745659,-0.04309404268860817,1.0069243907928467,-1.428450584411621,3.1009161472320557,6.551162242889404,2.075363874435425,4.092685699462891,0.3169392943382263,-0.9375752210617065,-0.06991774588823318,1.6637827157974243
201,52943,52942,0.05118130147457123,-0.06627574563026428,1.000072956085205,-0.8900497555732727,-4.1074347496032715,6.362771511077881,2.0753633975982666,4.091361045837402,0.31554028391838074,-0.8354330062866211,-0.03086361289024353,1.7316981554031372
202,52953,52952,0.018645865842700005,-0.04147450253367424,0.9683585166931152,-3.5279319286346436,-6.496228218078613,6.85837459564209,2.0768487453460693,4.09149694442749,0.31488025188446045,-0.9032518267631531,-0.01589312218129635,1.811273217201233
203,52963,52962,-0.03356076776981354,-0.09437746554613113,1.0240763425827026,-7.472283363342285,-6.32093620300293,5.21640682220459,2.076220989227295,4.091858863830566,0.31450483202934265,-0.6943135857582092,-0.13406594097614288,1.876836895942688
204,52973,52972,-0.005529867019504309,-0.03579584136605263,0.9987779855728149,-10.825830459594727,-7.975632667541504,3.789853096008301,2.077174186706543,4.092215061187744,0.31497418880462646,-0.6576387286186218,-0.15756244957447052,1.9547008275985718
205,52983,52982,-0.09108862280845642,0.053267497569322586,1.0018411874771118,-12.108924865722656,-9.306035041809082,4.214228630065918,2.079073429107666,4.092233657836914,0.3144685626029968,-0.6611176133155823,-0.23011666536331177,2.0098671913146973
206,52993,52992,-0.007950290106236935,-0.05641242861747742,1.0293415784835815,-9.338594436645508,-10.887532234191895,3.688220500946045,2.0779736042022705,4.093686580657959,0.3141648769378662,-0.4119706153869629,-0.4514651298522949,2.0582988262176514
207,53003,53002,0.034438710659742355,-0.07650350779294968,0.9961328506469727,-5.877156734466553,-9.500575065612793,4.207470417022705,2.0781755447387695,4.092668056488037,0.31218650937080383,-0.2294929325580597,-0.45596376061439514,2.100264072418213
208,53013,53012,0.013575179502367973,-0.0457921028137207,1.0192546844482422,-2.9928464889526367,-4.715465545654297,3.1305911540985107,2.0792765617370605,4.092146873474121,0.31163230538368225,-0.17957442998886108,-0.4873828887939453,2.1439411640167236
209,53023,53022,0.015380952507257462,0.04099179431796074,1.024649739265442,-1.255744218826294,-0.4363851249217987,2.6401119232177734,2.081702709197998,4.09280252456665,0.31105098128318787,-0.28569772839546204,-0.5610294342041016,2.1912450790405273
210,53033,53032,0.03145128861069679,-0.017466457560658455,1.0023773908615112,0.7345125675201416,6.219118595123291,1.2029370069503784,2.082688331604004,4.092011451721191,0.3105216324329376,-0.3170798420906067,-0.5178593397140503,2.219892978668213
211,53043,53042,-0.03670217841863632,0.04653772711753845,1.0706744194030762,0.6926424503326416,7.90186071395874,0.46218565106391907,2.083263635635376,4.091654300689697,0.3126174211502075,-0.3440127968788147,-0.5319409966468811,2.226473569869995
212,53053,53052,-0.038428716361522675,-0.05238962173461914,1.0354745388031006,-2.2875425815582275,4.747274398803711,-0.939113438129425,2.0834665298461914,4.091506004333496,0.31235602498054504,-0.3334353566169739,-0.48330384492874146,2.2366576194763184
213,53063,53062,-0.024662693962454796,0.014900409616529942,1.0236257314682007,-5.177499294281006,0.3305208683013916,-1.7981781959533691,2.08389949798584,4.091765403747559,0.3121296465396881,-0.37993302941322327,-0.5732560157775879,2.225811719894409
214,53073,53072,-0.022673171013593674,0.11454810202121735,0.9844105243682861,-7.739165306091309,-0.7570887207984924,-2.2283051013946533,2.084627628326416,4.0921711921691895,0.3115212917327881,-0.3713616132736206,-0.6988095641136169,2.2042338848114014
215,53083,53082,-0.049108996987342834,-0.07748190313577652,1.0543861389160156,-7.228272438049316,-3.5517163276672363,-2.531526803970337,2.0852441787719727,4.09251594543457,0.3112652599811554,-0.33995646238327026,-0.8436774611473083,2.175936222076416
216,53093,53092,-0.045008741319179535,-0.20272520184516907,1.0330361127853394,-2.5735273361206055,-5.0746073722839355,-2.98563551902771,2.0860469341278076,4.091367244720459,0.3110928535461426,-0.31539082527160645,-0.7881532907485962,2.1596624851226807
217,53103,53102,-0.08164530992507935,-0.04797229543328285,1.037126898765564,2.6259734630584717,-5.691294193267822,-2.9612441062927246,2.086153507232666,4.0910797119140625,0.3062053322792053,-0.16307410597801208,-0.8191329836845398,2.128289222717285
218,53113,53112,-0.05780542641878128,0.07346035540103912,1.0173397064208984,4.110452175140381,-0.4897914528846741,-2.401479721069336,2.087257146835327,4.090803623199463,0.30576133728027344,-0.19519221782684326,-0.7037075161933899,2.1088709831237793
219,53123,53122,-0.009968732483685017,0.01851499453186989,1.0413788557052612,4.362766742706299,0.7320272922515869,-2.0583972930908203,2.087111711502075,4.091940879821777,0.30540549755096436,-0.12090583890676498,-0.732582151889801,2.101747512817383
220,53133,53132,0.01872560940682888,-0.13143286108970642,1.0167597532272339,3.292078971862793,3.642333745956421,-2.5082406997680664,2.0880746841430664,4.091394424438477,0.30505895614624023,-0.1515999138355255,-0.6806702613830566,2.075322151184082
221,53143,53142,-0.03275991603732109,-0.041144225746393204,1.0594327449798584,3.416545867919922,-4.845891952514648,-2.8023390769958496,2.087667942047119,4.091182231903076,0.3058048188686371,-0.09522655606269836,-0.6425596475601196,2.0396792888641357
222,53153,53152,-0.003465017070993781,-0.05574606731534004,1.0234777927398682,1.775331735610962,5.964017391204834,-3.5463311672210693,2.091853141784668,4.091627597808838,0.30544641613960266,-0.41039153933525085,-0.609093964099884,2.053750991821289
223,53163,53162,0.060242101550102234,-0.09410808980464935,0.9663306474685669,0.11722458899021149,3.872295379638672,-4.298418998718262,2.092170000076294,4.091782569885254,0.30531030893325806,-0.41905495524406433,-0.6003445386886597,2.0106475353240967
224,53173,53172,-0.028717732056975365,-0.024314919486641884,1.0376132726669312,-2.0351991653442383,0.9590239524841309,-4.024983882904053,2.0923962593078613,4.094236373901367,0.30575883388519287,-0.375907838344574,-0.7004532217979431,2.0018153190612793
225,53183,53182,0.028755534440279007,-0.014999587088823318,1.025617003440857,-0.8322288393974304,-3.403925895690918,-4.9292192459106445,2.0943448543548584,4.093593120574951,0.3054887354373932,-0.4921703338623047,-0.6558934450149536,1.9739292860031128
226,53193,53192,-0.026829032227396965,-0.012353836558759212,1.0319181680679321,2.3275980949401855,-5.8348493576049805,-5.081508636474609,2.094521999359131,4.094275951385498,0.30543506145477295,-0.3934219777584076,-0.651720404624939,1.942160964012146
227,53203,53202,0.01885649934411049,-0.057016078382730484,1.0292291641235352,4.984018802642822,-3.166339635848999,-5.350803852081299,2.095604658126831,4.094052314758301,0.30447128415107727,-0.3642602264881134,-0.5954561829566956,1.8950034379959106
228,53213,53212,-0.005304425023496151,0.06128399446606636,1.057674527168274,7.348300457000732,-3.9315414428710938,-5.523685455322266,2.0958797931671143,4.093859672546387,0.3043913245201111,-0.27503979206085205,-0.49670958518981934,1.8365148305892944
229,53223,53222,-0.011650649830698967,-0.018608303740620613,1.0221861600875854,7.646707534790039,-4.636829853057861,-5.351525783538818,2.095970392227173,4.093333721160889,0.3044145703315735,-0.1229315772652626,-0.38121652603149414,1.7667720317840576
230,53233,53232,-0.07811310142278671,-0.00892731361091137,1.032859206199646,4.107302665710449,-0.5965555310249329,-4.084376335144043,2.0962417125701904,4.093857288360596,0.30443376302719116,-0.0572342611849308,-0.4384280741214752,1.7059448957443237
231,53243,53242,0.022872937843203545,-0.003444983158260584,0.9867463707923889,2.1891863346099854,-0.3069465458393097,-3.7040271759033203,2.099087715148926,4.095173358917236,0.3037959635257721,-0.28331953287124634,-0.46576112508773804,1.7087550163269043
232,53253,53252,0.0013683901634067297,0.06236616149544716,1.0222697257995605,1.8205232620239258,3.5726795196533203,-3.733586311340332,2.1002557277679443,4.094856262207031,0.3038083612918854,-0.2661123275756836,-0.3523156940937042,1.6880035400390625
233,53263,53262,-0.02818388305604458,0.13986694812774658,0.9889275431632996,2.637754440307617,1.7681363821029663,-3.6574835777282715,2.1004879474639893,4.095315456390381,0.30389824509620667,-0.21939386427402496,-0.39296332001686096,1.6394731998443604
234,53273,53272,0.012027861550450325,0.02463389001786709,1.0110780000686646,3.038776397705078,2.287125825881958,-3.743307113647461,2.1008076667785645,4.096327781677246,0.3046131134033203,-0.22625082731246948,-0.32878249883651733,1.6395143270492554
235,53283,53282,-0.01782255619764328,0.03306790068745613,1.016419529914856,3.544827461242676,-2.3216071128845215,-3.9387946128845215,2.1007423400878906,4.096266746520996,0.3047400116920471,-0.12486536055803299,-0.26880860328674316,1.6048305034637451
236,53293,53292,-0.05864574387669563,0.006611426826566458,1.0275580883026123,3.887028455734253,-7.898624420166016,-3.711679220199585,2.1050662994384766,4.098310947418213,0.30466964840888977,-0.35225293040275574,-0.3377896845340729,1.5928845405578613
237,53303,53302,-0.02428688108921051,-0.029064899310469627,0.9860467910766602,-0.5880029797554016,-4.627214431762695,-3.4937024116516113,2.104999303817749,4.098392009735107,0.30641287565231323,-0.160187765955925,-0.3051396906375885,1.549504280090332
238,53313,53312,0.0030204136855900288,0.006804932840168476,0.9985312819480896,-5.381407260894775,-2.2280759811401367,-3.7634437084198,2.1055796146392822,4.098718166351318,0.3066161572933197,-0.0767689049243927,-0.3433002531528473,1.5129965543746948
239,53323,53322,0.06315677613019943,-0.1285368800163269,1.0016160011291504,-9.551608085632324,-0.7102707624435425,-4.556330680847168,2.1063454151153564,4.098652362823486,0.30682751536369324,-0.033968355506658554,-0.3891768157482147,1.4783713817596436
240,53333,53332,-0.031167127192020416,-0.01674247905611992,0.968520998954773,-9.878658294677734,2.6615939140319824,-5.15122652053833,2.107029438018799,4.0993194580078125,0.3077622354030609,-0.03565942496061325,-0.5496864914894104,1.41768479347229
