,timestamp_start,timestamp_end,acc.x,acc.y,acc.z,gyro.x,gyro.y,gyro.z,stateEstimate.x,stateEstimate.y,stateEstimate.z,stabilizer.pitch,stabilizer.roll,stabilizer.yaw
0,43617,43615,-0.013139336369931698,0.003115652361884713,1.132490873336792,-2.5853798389434814,-8.786011695861816,-2.6277999877929688,2.003507614135742,4.029364109039307,0.15444102883338928,-3.2704031467437744,1.0291105508804321,1.7627437114715576
1,43627,43625,-0.008391170762479305,-0.002727146726101637,1.1544959545135498,-5.848310947418213,-10.221956253051758,-2.510911226272583,2.0019185543060303,4.029196739196777,0.14880488812923431,-3.2415385246276855,0.9719152450561523,1.7178875207901
2,43637,43635,0.012606623582541943,-0.03179645910859108,1.146859884262085,-8.721158981323242,-11.281970024108887,-2.2937211990356445,2.001248598098755,4.029249668121338,0.1481696218252182,-3.160066843032837,0.8526495695114136,1.6657624244689941
3,43647,43645,0.0214831605553627,-0.022500328719615936,1.1463888883590698,-10.55788516998291,-13.381625175476074,-2.6345622539520264,2.000706911087036,4.030515193939209,0.14770610630512238,-3.037445545196533,0.6994457244873047,1.6089677810668945
4,43657,43655,0.02385505847632885,-0.017905768007040024,1.1712074279785156,-9.613103866577148,-14.664753913879395,-2.488388776779175,1.9989218711853027,4.030202388763428,0.14590325951576233,-2.8762712478637695,0.6127063035964966,1.5966829061508179
5,43667,43665,0.00495624914765358,0.08721692115068436,1.0948132276535034,-6.359436988830566,-13.407258033752441,-2.636399745941162,1.9993572235107422,4.033339977264404,0.14569468796253204,-2.6925249099731445,0.5602117776870728,1.5821582078933716
6,43677,43675,-0.020611805841326714,0.03473977744579315,1.1500754356384277,-1.7198489904403687,-16.39107322692871,-3.0145270824432373,1.9981690645217896,4.033303260803223,0.14558309316635132,-2.6485207080841064,0.45701268315315247,1.5189969539642334
7,43687,43685,-0.0126776909455657,0.10452809184789658,1.078535556793213,-2.0553665161132812,-15.54543685913086,-1.597413420677185,1.997155785560608,4.032418251037598,0.14451996982097626,-2.414684534072876,0.5833286643028259,1.5807923078536987
8,43697,43695,0.021629419177770615,-0.004045963287353516,1.1761161088943481,-1.336949348449707,-15.42469596862793,-1.7624331712722778,1.9985437393188477,4.032133102416992,0.14446859061717987,-2.5492968559265137,0.5342175960540771,1.5164425373077393
9,43707,43705,0.015820670872926712,-0.04207412526011467,1.229933261871338,-2.6903412342071533,-15.702269554138184,-1.179119348526001,1.9981588125228882,4.032095909118652,0.14458832144737244,-2.4076290130615234,0.5010907649993896,1.4885321855545044
10,43717,43715,0.0038878447376191616,0.09637833386659622,1.149196743965149,5.299632549285889,-19.631248474121094,-1.5934529304504395,1.9976965188980103,4.034667491912842,0.1453864723443985,-2.080325126647949,0.4661087393760681,1.4624873399734497
11,43727,43725,0.006202273536473513,0.14396163821220398,1.0545251369476318,-2.110882043838501,-20.87250518798828,-1.0478748083114624,1.996677279472351,4.03385066986084,0.1442389041185379,-1.8765372037887573,0.5267690420150757,1.4773387908935547
12,43737,43735,0.029775789007544518,-0.028578754514455795,1.1879703998565674,-3.4981110095977783,-21.501001358032227,-1.3863344192504883,1.99668288230896,4.035344123840332,0.1449054628610611,-1.6422594785690308,0.39095908403396606,1.4222122430801392
13,43747,43745,0.002286053029820323,-0.010057369247078896,1.2329092025756836,-4.249622344970703,-21.339664459228516,-0.7574759721755981,1.9972971677780151,4.034529209136963,0.1454031765460968,-1.749961256980896,0.3235025405883789,1.3829472064971924
14,43757,43755,-0.00020138594845775515,0.1108594536781311,1.142708420753479,-1.3457224369049072,-21.524816513061523,-0.4196111261844635,1.997722864151001,4.036074638366699,0.14597149193286896,-1.3753228187561035,0.3477418124675751,1.3983896970748901
15,43767,43765,0.03310515359044075,0.06529679149389267,1.133780598640442,-3.700089454650879,-21.127609252929688,-0.6562682390213013,1.9983457326889038,4.038355350494385,0.1470421850681305,-1.1655775308609009,0.3573780357837677,1.4036985635757446
16,43777,43775,0.017870690673589706,-0.01907566748559475,1.1758084297180176,-3.4371249675750732,-21.225181579589844,-0.8493766188621521,1.9991391897201538,4.037458896636963,0.14814306795597076,-1.021382212638855,0.35656681656837463,1.4016103744506836
17,43787,43785,-0.0041266498155891895,0.022728249430656433,1.138690710067749,0.13446298241615295,-20.8216552734375,-0.3854146897792816,2.0002822875976562,4.0395636558532715,0.14965417981147766,-0.8619245886802673,0.2228786051273346,1.365278959274292
18,43797,43795,0.014445132575929165,0.07780660688877106,1.124459981918335,-1.9800249338150024,-20.81150245666504,-0.20952115952968597,2.000763177871704,4.039333820343018,0.15127035975456238,-0.6259443759918213,0.26565369963645935,1.3736016750335693
19,43807,43805,0.010087702423334122,0.0016996166668832302,1.167492151260376,-1.4851280450820923,-20.4713134765625,-0.11796475946903229,2.0017411708831787,4.03943395614624,0.15277080237865448,-0.5324252247810364,0.22495459020137787,1.364859700202942
20,43817,43815,-0.0071300845593214035,-0.014415968209505081,1.1612112522125244,-1.3552463054656982,-20.394207000732422,0.33678537607192993,2.0023372173309326,4.039242744445801,0.15449315309524536,-0.3517477512359619,0.19242815673351288,1.3628098964691162
21,43827,43825,-0.007907122373580933,-0.01649046503007412,1.1471625566482544,0.2390114665031433,-20.612133026123047,0.6062220335006714,2.002077102661133,4.037773132324219,0.15858705341815948,0.04466849938035011,0.37454479932785034,1.3818812370300293
22,43837,43835,0.014348573051393032,0.02735280990600586,1.1669957637786865,-1.8819711208343506,-19.940353393554688,0.46461644768714905,2.0034024715423584,4.038496017456055,0.16101855039596558,0.06522958725690842,0.18664006888866425,1.3755117654800415
23,43847,43845,0.0076020690612494946,-0.011625358834862709,1.118072271347046,-2.967499017715454,-18.503620147705078,0.2929088771343231,2.0034892559051514,4.038374900817871,0.16358305513858795,0.3712398111820221,0.13185307383537292,1.3786368370056152
24,43857,43855,0.01207333616912365,-0.022568516433238983,1.091124176979065,-2.1884896755218506,-16.848424911499023,0.3829902708530426,2.004075527191162,4.038466930389404,0.16676095128059387,0.5675941109657288,0.07978957891464233,1.3820933103561401
25,43867,43865,0.007443082518875599,-0.028653930872678757,1.07056725025177,-0.9108033776283264,-15.289936065673828,0.999851405620575,2.0076236724853516,4.040189266204834,0.1694314181804657,0.4584297835826874,0.05173105746507645,1.3950430154800415
26,43877,43875,-0.007438447792083025,-0.004103149753063917,1.0677889585494995,1.4406161308288574,-15.164712905883789,0.7373999357223511,2.007603883743286,4.042155742645264,0.17243215441703796,0.7123411297798157,0.12102028727531433,1.394765853881836
27,43887,43885,-0.00479648495092988,0.027887949720025063,1.094295859336853,2.656846046447754,-15.148398399353027,0.5866048336029053,2.0075063705444336,4.043980121612549,0.1751609742641449,0.8071730732917786,0.07332070171833038,1.4104831218719482
28,43897,43895,-0.0033259866759181023,-0.0285967867821455,1.061431646347046,3.2225704193115234,-15.869457244873047,0.32595810294151306,2.0092368125915527,4.043493270874023,0.17790758609771729,0.7761666178703308,0.1212664395570755,1.4152612686157227
29,43907,43905,-0.007244589272886515,-0.09470594674348831,0.9772657752037048,3.687086582183838,-16.680435180664062,0.4154893159866333,2.0096426010131836,4.045037746429443,0.18085826933383942,0.9215927720069885,0.2406061589717865,1.4074465036392212
30,43917,43915,0.0010156376520171762,0.03379737213253975,1.0534332990646362,2.481912851333618,-19.849185943603516,0.14419294893741608,2.0114758014678955,4.04566764831543,0.18388155102729797,1.0899982452392578,0.27761319279670715,1.4095051288604736
31,43927,43925,-0.0034262994304299355,-0.06376317143440247,0.9917917251586914,-0.23792743682861328,-18.014768600463867,0.574191153049469,2.0109477043151855,4.04732608795166,0.1895071417093277,1.4089804887771606,0.27661770582199097,1.4106941223144531
32,43937,43935,0.024876801297068596,0.05715364217758179,1.0612207651138306,-0.9035687446594238,-19.053112030029297,0.06932248920202255,2.0121710300445557,4.049403667449951,0.19279134273529053,1.6296941041946411,0.18132327497005463,1.4312448501586914
33,43947,43945,0.0009658607305027544,0.028472110629081726,1.020208716392517,-3.2255537509918213,-13.847113609313965,-0.071762815117836,2.0132579803466797,4.048002243041992,0.19605109095573425,1.612262487411499,0.27813073992729187,1.403471827507019
34,43957,43955,-0.03131666034460068,0.018371986225247383,0.9584343433380127,-3.9048075675964355,-10.179586410522461,-0.4373835325241089,2.014718532562256,4.050250053405762,0.1999552845954895,1.7495728731155396,0.1308089941740036,1.430383563041687
35,43967,43965,-0.08769422024488449,0.08440596610307693,0.9603067636489868,-4.071693420410156,-6.7308735847473145,0.05491243675351143,2.0155341625213623,4.050347805023193,0.20340006053447723,1.9500312805175781,0.19652947783470154,1.3938335180282593
36,43977,43975,-0.04096784442663193,0.04885440692305565,0.9599229693412781,-3.572036027908325,-3.428246021270752,0.45822852849960327,2.0158088207244873,4.050825595855713,0.20669250190258026,2.078737497329712,0.18776436150074005,1.3876887559890747
37,43987,43985,0.023650217801332474,-0.0237820316106081,0.9221476912498474,-2.687082052230835,-1.8534677028656006,0.7819153070449829,2.0178661346435547,4.050799369812012,0.21201945841312408,1.9406089782714844,0.10741793364286423,1.41254723072052
38,43997,43995,0.02532137557864189,-0.04012655094265938,0.923713207244873,-1.7203069925308228,1.6791014671325684,0.00218858546577394,2.0163652896881104,4.051046371459961,0.21545515954494476,2.2435452938079834,0.046846769750118256,1.421506643295288
39,44007,44005,-0.015431568026542664,0.00395513279363513,0.9565945863723755,-0.3088040053844452,5.262189865112305,-0.3757522404193878,2.020129680633545,4.05518102645874,0.21922068297863007,1.7862133979797363,-0.5268700122833252,1.6439805030822754
40,44017,44015,-0.027859926223754883,0.01673520915210247,0.9497982859611511,4.855997085571289,6.957241058349609,-1.6684845685958862,2.02018404006958,4.054386615753174,0.22466805577278137,1.7318238019943237,-0.4472344219684601,1.6084165573120117
41,44027,44025,-0.0018071990925818682,-0.030116373673081398,0.9176769852638245,10.822562217712402,4.472143650054932,-1.0764285326004028,2.020034074783325,4.0561842918396,0.22815364599227905,1.7346776723861694,-0.2826478183269501,1.5634961128234863
42,44037,44035,0.004608052782714367,-0.06802882999181747,0.8935492634773254,13.955814361572266,4.00397253036499,-1.538638710975647,2.0210814476013184,4.057087421417236,0.23148052394390106,1.614092230796814,-0.04335375130176544,1.5100058317184448
43,44047,44045,0.0005872354959137738,-0.035686835646629333,0.9194875359535217,15.712421417236328,-1.2012232542037964,-1.922154188156128,2.020691394805908,4.058876991271973,0.2347988784313202,1.6764506101608276,0.22583520412445068,1.442300796508789
44,44057,44055,-0.005945595912635326,-0.028641728684306145,0.9261981248855591,13.517190933227539,-1.3220077753067017,-2.4909560680389404,2.021056890487671,4.058608531951904,0.23756833374500275,1.773881435394287,0.483356237411499,1.3713668584823608
45,44067,44065,-0.05230109021067619,0.0019674845971167088,0.9229941368103027,9.148283958435059,-7.035229682922363,-2.692542552947998,2.020695209503174,4.058663845062256,0.2406114935874939,1.8958053588867188,0.5432183742523193,1.3631885051727295
46,44077,44075,-0.05216607823967934,0.01804869808256626,0.9118351340293884,2.3823111057281494,-3.2864463329315186,-2.9720797538757324,2.0205912590026855,4.059131145477295,0.24344226717948914,2.0231106281280518,0.7233685255050659,1.279003381729126
47,44087,44085,0.012120602652430534,0.0032272508833557367,0.8932041525840759,-3.57063889503479,-2.685737133026123,-3.2887957096099854,2.021143674850464,4.059595108032227,0.24822241067886353,1.971747636795044,0.6491327881813049,1.2766189575195312
48,44097,44095,-0.0629010796546936,0.01847391203045845,0.8999193906784058,-9.35690975189209,-2.533594846725464,-4.181483745574951,2.0201575756073,4.059720039367676,0.25108566880226135,2.0425260066986084,0.5472214818000793,1.2504509687423706
49,44107,44105,-0.15110357105731964,0.06986365467309952,0.920798122882843,-13.335013389587402,2.927959442138672,-4.359264373779297,2.02022647857666,4.058205604553223,0.25375667214393616,2.056687355041504,0.5801562070846558,1.1507480144500732
50,44117,44115,-0.08689461648464203,0.05103355273604393,0.895134449005127,-13.184792518615723,5.907753944396973,-4.301284313201904,2.0196001529693604,4.0594072341918945,0.25984880328178406,2.010091781616211,0.42103055119514465,1.1217905282974243
51,44127,44125,0.03285069763660431,-0.01758740283548832,0.8515991568565369,-11.36874008178711,8.184412956237793,-4.001362323760986,2.0195071697235107,4.059520244598389,0.26259511709213257,1.921791672706604,0.34330886602401733,1.063755989074707
52,44137,44135,0.03901929035782814,-0.06843797117471695,0.8442416787147522,-8.439275741577148,10.528585433959961,-4.5465803146362305,2.020078420639038,4.060084819793701,0.2653002440929413,1.79292631149292,0.2323066145181656,1.025945782661438
53,44147,44145,0.00866773258894682,0.010512703098356724,0.8317534923553467,-4.252959728240967,9.315147399902344,-4.065635681152344,2.0206291675567627,4.063968658447266,0.26800647377967834,1.5860021114349365,-0.2413213700056076,1.1421360969543457
54,44157,44155,-0.015362518839538097,0.03905884176492691,0.873567521572113,-0.312136173248291,9.48810863494873,-4.965593338012695,2.0214860439300537,4.062465667724609,0.2697736918926239,1.4599964618682861,0.026093846186995506,0.9871601462364197
55,44167,44165,-0.006334069184958935,-0.006237124092876911,0.88258957862854,4.875352382659912,7.475361347198486,-4.529813766479492,2.0203545093536377,4.061763286590576,0.2719781696796417,1.3494139909744263,0.054940175265073776,0.9400694966316223
56,44177,44175,0.012364729307591915,-0.04415188357234001,0.8943513631820679,7.190731048583984,5.093536376953125,-4.114926338195801,2.020153045654297,4.057799816131592,0.2740662693977356,1.275916576385498,0.5734004974365234,0.740668773651123
57,44187,44185,0.03294389322400093,-0.08245141804218292,0.9275444746017456,5.897414684295654,1.3264533281326294,-3.896899700164795,2.0204436779022217,4.064935207366943,0.27748003602027893,1.2516015768051147,-0.07267291098833084,0.9413493275642395
58,44197,44195,0.042785000056028366,-0.04004359990358353,0.9267223477363586,1.5974820852279663,0.7313510775566101,-5.377807140350342,2.01541805267334,4.063838005065918,0.279572993516922,1.675260305404663,0.018142584711313248,0.8723291754722595
59,44207,44205,0.03290732204914093,-0.019673487171530724,0.8850597143173218,-0.7004019618034363,3.58432674407959,-6.059050559997559,2.0132651329040527,4.070263385772705,0.28096237778663635,1.8359696865081787,-0.5288982391357422,0.9845986366271973
60,44217,44215,-0.03289395570755005,-0.03480296581983566,0.8977313041687012,3.0672073364257812,4.375073432922363,-5.868273735046387,2.018031597137451,4.069077491760254,0.28443053364753723,1.148870587348938,-0.37083399295806885,0.8891697525978088
61,44227,44225,0.007273112889379263,-0.041334617882966995,0.8928268551826477,8.752779960632324,11.481414794921875,-5.488552093505859,2.0156075954437256,4.067718505859375,0.28658726811408997,1.2203898429870605,-0.0747954398393631,0.7547692656517029
62,44237,44235,0.03889914229512215,-0.019457805901765823,0.8682961463928223,11.958550453186035,11.757597923278809,-4.157344341278076,2.0200412273406982,4.063500881195068,0.2888199985027313,0.7859798073768616,0.4515397846698761,0.6239389777183533
63,44247,44245,0.011782112531363964,0.003645149525254965,0.8921973705291748,11.182692527770996,8.666889190673828,-3.7810006141662598,2.019132614135742,4.065746784210205,0.2907753586769104,0.595696747303009,0.4535191059112549,0.6010253429412842
64,44257,44255,-0.02061055600643158,0.011142357252538204,0.892081618309021,7.508976459503174,4.266262531280518,-4.112826347351074,2.0124309062957764,4.0679802894592285,0.2917690873146057,1.3605338335037231,0.3032849431037903,0.6169939637184143
65,44267,44265,-0.06717653572559357,0.001598463742993772,0.9216010570526123,2.2660505771636963,1.715421199798584,-4.173703670501709,2.0112810134887695,4.07054328918457,0.29318997263908386,1.282808542251587,0.08675210922956467,0.6501786708831787
66,44277,44275,-0.0018553135450929403,0.044730041176080704,0.912459671497345,-0.4805114269256592,5.104291915893555,-4.236738681793213,2.017181634902954,4.060147762298584,0.29610443115234375,0.6153234243392944,1.1888240575790405,0.3800417482852936
67,44287,44285,-0.06463205069303513,-0.05316577106714249,0.9443252682685852,-4.899259567260742,2.4937262535095215,-3.3565866947174072,2.017197847366333,4.065871238708496,0.29836541414260864,0.5603697896003723,0.5376369953155518,0.47276976704597473
68,44297,44295,-0.013997102156281471,-0.0062381066381931305,0.9478734135627747,-10.114503860473633,3.5082974433898926,-4.206760406494141,2.0179319381713867,4.065806865692139,0.29950693249702454,0.38622531294822693,0.46518322825431824,0.44784778356552124
69,44307,44305,0.015418545342981815,0.11041738092899323,0.9532599449157715,-11.385838508605957,-0.4369584619998932,-4.351945400238037,2.0187747478485107,4.071218967437744,0.3006473481655121,0.2912636995315552,-0.11893834918737411,0.4917273223400116
70,44317,44315,0.004217118490487337,0.08409889042377472,0.9592723250389099,-9.714409828186035,-4.219894886016846,-4.0557332038879395,2.017993688583374,4.062210559844971,0.29972004890441895,0.3284381926059723,0.6140387654304504,0.3192712068557739
71,44327,44325,0.0087415287271142,0.006031573284417391,0.9356667399406433,-4.221000671386719,-8.044689178466797,-3.1215856075286865,2.015673875808716,4.069281578063965,0.30132153630256653,0.5639687180519104,-0.09596538543701172,0.3591626286506653
72,44337,44335,0.00628914637491107,-0.013916486874222755,0.9287957549095154,-0.6963405609130859,-10.216259002685547,-2.880178689956665,2.009809970855713,4.068819046020508,0.3022743761539459,1.1325113773345947,-0.15185175836086273,0.3264470398426056
73,44347,44345,-0.03244202956557274,0.013784336857497692,0.9396644830703735,3.1831374168395996,-9.170827865600586,-2.6092419624328613,2.0132555961608887,4.062007427215576,0.30079859495162964,0.8086460828781128,0.36827078461647034,0.22867688536643982
74,44357,44355,-0.06831188499927521,0.04369320720434189,0.9671535491943359,5.844916343688965,-1.6136295795440674,-2.3091509342193604,2.0073044300079346,4.066356182098389,0.30151599645614624,1.4535075426101685,0.0069773695431649685,0.24449856579303741
75,44367,44365,-0.04209708049893379,0.05764182657003403,0.9605162739753723,5.067924499511719,8.95495319366455,-1.3817193508148193,2.0074946880340576,4.067655563354492,0.3021666407585144,1.4150301218032837,-0.046832095831632614,0.2345672845840454
76,44377,44375,-0.018548766151070595,0.05148928612470627,0.9410050511360168,3.518324375152588,16.791366577148438,-1.6057157516479492,2.0158236026763916,4.062647819519043,0.30417805910110474,0.5552932024002075,0.5737031698226929,0.14528582990169525
77,44387,44385,-0.014609960839152336,0.029890773817896843,0.925380289554596,0.9329087734222412,19.51317024230957,-1.693928837776184,2.0188512802124023,4.06407356262207,0.2995462417602539,0.1426851898431778,0.4428795576095581,0.15206049382686615
78,44397,44395,-0.011243971064686775,-0.007131122052669525,0.9441914558410645,-3.418214797973633,13.50209903717041,-1.7867016792297363,2.006124258041382,4.072727203369141,0.3019593358039856,0.9578644037246704,-0.40349289774894714,0.20326675474643707
79,44407,44405,-0.012359945103526115,-0.01985393837094307,0.9847710132598877,-3.8485214710235596,8.696331977844238,-2.5462372303009033,2.0116565227508545,4.068183422088623,0.3040759861469269,0.24757762253284454,0.11211416125297546,0.12525907158851624
80,44417,44415,-0.0021712498273700476,-0.013933946378529072,0.9857650995254517,-0.6572193503379822,3.821000099182129,-1.1613858938217163,2.0184545516967773,4.0664143562316895,0.29912230372428894,-0.47109758853912354,0.29791560769081116,0.09558328241109848
81,44427,44425,0.012175479903817177,-0.16645140945911407,1.0035151243209839,1.1326825618743896,-2.6276466846466064,-0.9651566743850708,2.01702880859375,4.060832500457764,0.2992343008518219,-0.2932310402393341,0.8074425458908081,0.050329409539699554
82,44437,44435,-0.012166517786681652,-0.20538939535617828,0.9800733923912048,-0.022342031821608543,-11.702835083007812,-0.4737688899040222,1.9980045557022095,4.072912216186523,0.3035331964492798,1.5727732181549072,-0.38615867495536804,0.1082720011472702
83,44447,44445,-0.04075535014271736,-0.12142419815063477,1.0063433647155762,-3.4301328659057617,-13.951223373413086,-0.43345752358436584,1.9976521730422974,4.072592735290527,0.3001307547092438,1.623006820678711,-0.3619111478328705,0.10131563246250153
84,44457,44455,-0.05769456550478935,-0.03900831565260887,1.0419762134552002,-4.027168273925781,-0.5852857232093811,0.2951523959636688,1.9955039024353027,4.074455261230469,0.30023011565208435,1.7030580043792725,-0.37714922428131104,0.10004332661628723
85,44467,44465,0.08123079687356949,-0.03464331850409508,0.9836511611938477,1.5122605562210083,10.029831886291504,0.9008817076683044,1.9957926273345947,4.074093818664551,0.3008125424385071,1.4713754653930664,-0.35919779539108276,0.10616908222436905
86,44477,44475,-0.06847678869962692,0.009826838038861752,1.04096257686615,6.069242477416992,27.197912216186523,0.8859249949455261,1.9971662759780884,4.074979305267334,0.301631361246109,1.024455189704895,-0.2580445110797882,0.11482909321784973
87,44487,44485,-0.07414587587118149,0.057165827602148056,1.0472038984298706,9.689075469970703,38.041038513183594,1.068198800086975,1.9972188472747803,4.074569225311279,0.29693788290023804,0.9228115677833557,-0.16927120089530945,0.1091049313545227
88,44497,44495,-0.018384182825684547,0.04496435448527336,1.0249274969100952,13.459946632385254,44.023704528808594,0.9585779309272766,1.996446132659912,4.0735907554626465,0.29695436358451843,0.562163233757019,0.09672155231237411,0.10092374682426453
89,44507,44505,0.021390283480286598,-0.04130164906382561,0.9689155220985413,12.993759155273438,42.16690444946289,0.8622757792472839,1.9959473609924316,4.07389497756958,0.29694637656211853,0.10970307141542435,0.24974903464317322,0.11002174764871597
90,44517,44515,0.06224922835826874,0.015321939252316952,0.9537269473075867,9.601447105407715,36.02571105957031,0.5612908005714417,1.9936330318450928,4.074382305145264,0.2934955656528473,-0.30434906482696533,0.4033450186252594,0.12211551517248154
91,44527,44525,0.08770032227039337,-0.029330534860491753,0.8949788808822632,6.030170917510986,23.480018615722656,1.2834482192993164,1.993033766746521,4.075496196746826,0.2932221293449402,-0.6700798273086548,0.5026034712791443,0.1325845718383789
92,44537,44535,0.053735002875328064,0.06596768647432327,1.0034738779067993,-0.4364665746688843,9.11833381652832,1.756801724433899,1.9915781021118164,4.075314521789551,0.29291588068008423,-0.9856409430503845,0.6070913672447205,0.1488886922597885
93,44547,44545,0.020256219431757927,0.02683316171169281,1.0399550199508667,-4.323794364929199,-3.9065845012664795,1.6321111917495728,1.9924542903900146,4.076162338256836,0.29030841588974,-1.231174111366272,0.6121626496315002,0.16823174059391022
94,44557,44555,0.003946267534047365,-0.017098525539040565,1.0283058881759644,-7.06411600112915,-7.666970252990723,2.212368965148926,1.991296410560608,4.076394557952881,0.2897952198982239,-1.1988153457641602,0.625796914100647,0.18829062581062317
95,44567,44565,-0.0174727663397789,-0.06286986917257309,0.9957345724105835,-9.720231056213379,-5.493631362915039,2.4792914390563965,1.9899227619171143,4.077340602874756,0.2893550992012024,-1.0840712785720825,0.5091456174850464,0.20575058460235596
96,44577,44575,0.024485336616635323,-0.04815259575843811,1.0192369222640991,-8.704916000366211,-4.133449077606201,2.6118617057800293,1.9894541501998901,4.076633930206299,0.28887036442756653,-1.058222770690918,0.515509843826294,0.2388111799955368
97,44587,44585,-0.004225437995046377,-0.013655701652169228,1.0510759353637695,-6.119639873504639,0.7043883800506592,2.943716049194336,1.9884978532791138,4.076552391052246,0.2856733798980713,-1.065549612045288,0.4417746961116791,0.2656976580619812
98,44597,44595,0.02554117515683174,-0.06458936631679535,1.0088940858840942,-3.8262195587158203,5.563644886016846,2.937293529510498,1.9884005784988403,4.076942443847656,0.2850610017776489,-1.1509345769882202,0.3968234062194824,0.294743150472641
99,44607,44605,0.028942707926034927,-0.05022606998682022,1.0226367712020874,-1.6337635517120361,8.94551944732666,3.253568410873413,1.9885567426681519,4.076160907745361,0.2844838500022888,-1.3020027875900269,0.3942376673221588,0.3298390507698059
100,44617,44615,0.009637698531150818,-0.05102454498410225,1.035343885421753,-0.9226260781288147,6.314795970916748,3.193202018737793,1.9871783256530762,4.076663017272949,0.2846549153327942,-1.4053453207015991,0.34426307678222656,0.35869100689888
101,44627,44625,0.020061908289790154,-0.013114502653479576,1.0736358165740967,-1.2985858917236328,2.8964056968688965,3.315032720565796,1.9866652488708496,4.075367450714111,0.2841375768184662,-1.4733420610427856,0.4635692834854126,0.4148949682712555
102,44637,44635,0.01682654395699501,-0.02157929539680481,1.0711820125579834,-2.6654889583587646,-3.4121792316436768,3.447143077850342,1.9850162267684937,4.075353145599365,0.2837824523448944,-1.4818512201309204,0.41084957122802734,0.4402954876422882
103,44647,44645,-0.018705088645219803,-0.013853631913661957,1.1074222326278687,-4.772098064422607,-6.576645851135254,2.8973450660705566,1.9843847751617432,4.075552463531494,0.2792006731033325,-1.4807837009429932,0.41880130767822266,0.4775884747505188
104,44657,44655,0.005804357584565878,-0.05260848626494408,1.10077965259552,-6.831303596496582,-6.723413944244385,2.354938268661499,1.984520673751831,4.0761799812316895,0.2786870300769806,-1.4947932958602905,0.31062227487564087,0.4906153976917267
105,44667,44665,0.010976703837513924,-0.03893198445439339,1.098469614982605,-7.385998249053955,-9.7518310546875,2.6957476139068604,1.9832748174667358,4.074925422668457,0.2782471477985382,-1.3945568799972534,0.32783544063568115,0.533959686756134
106,44677,44675,-0.0037889264058321714,-0.014554346911609173,1.08713698387146,-7.223176956176758,-13.052997589111328,2.7427825927734375,1.9825046062469482,4.075303077697754,0.27859580516815186,-1.2580870389938354,0.1661107838153839,0.5414347648620605
107,44687,44685,0.015639599412679672,0.016996722668409348,1.0635257959365845,-7.5329461097717285,-7.8390069007873535,2.584298849105835,1.9822735786437988,4.0737457275390625,0.2783838212490082,-1.178739070892334,0.2427947223186493,0.6026621460914612
108,44697,44695,0.028298944234848022,-0.0035612385254353285,1.081822395324707,-6.4458723068237305,-4.539668560028076,2.7646729946136475,1.9830409288406372,4.073801517486572,0.2782819867134094,-1.1409484148025513,0.14822041988372803,0.6234238743782043
109,44707,44705,0.006044745910912752,-0.025894641876220703,1.0950363874435425,-5.24163293838501,-2.3300435543060303,2.590723991394043,1.982892394065857,4.073699951171875,0.2782672941684723,-1.0719165802001953,0.07572082430124283,0.6479300260543823
110,44717,44715,-0.009398376569151878,-0.04383455216884613,1.0777584314346313,-4.5754313468933105,-1.9097199440002441,2.804966688156128,1.9848370552062988,4.074645519256592,0.27749815583229065,-1.2696313858032227,-0.05661380663514137,0.6536338329315186
111,44727,44725,-0.0010710663627833128,0.0018278476782143116,1.0800448656082153,-3.6615869998931885,-2.9723334312438965,3.3038294315338135,1.9848462343215942,4.075496196746826,0.2776005268096924,-1.2212278842926025,-0.09281017631292343,0.6848800778388977
112,44737,44735,0.004347038920968771,0.027078770101070404,1.1016879081726074,-2.2742669582366943,-6.088578701019287,2.962104320526123,1.9841055870056152,4.074888706207275,0.27778568863868713,-1.1620839834213257,-0.11230632662773132,0.7213734984397888
113,44747,44745,0.021358489990234375,-0.07850183546543121,1.042838215827942,-1.0074191093444824,-9.188424110412598,2.6785449981689453,1.984860897064209,4.074979305267334,0.27831682562828064,-1.1338000297546387,-0.032677061855793,0.7775367498397827
114,44757,44755,0.03164505213499069,-0.06575226783752441,1.023584246635437,0.46689748764038086,-12.445063591003418,3.2494680881500244,1.9850894212722778,4.073587417602539,0.2786053419113159,-1.1166743040084839,0.05679440125823021,0.8293368816375732
115,44767,44765,-0.01053235400468111,0.04853957146406174,1.0128717422485352,0.5019361972808838,-10.643195152282715,2.467942476272583,1.9837347269058228,4.075590133666992,0.2790473699569702,-0.8819559216499329,0.002849849406629801,0.8452930450439453
116,44777,44775,-0.017434895038604736,0.05305807664990425,1.0382379293441772,-2.1499555110931396,-17.223934173583984,2.978438377380371,1.9837017059326172,4.075475692749023,0.27898478507995605,-0.8185617327690125,0.11249202489852905,0.8933145999908447
117,44787,44785,0.0025336816906929016,-0.0102952616289258,1.0482314825057983,-4.658807277679443,-18.92784881591797,3.268843650817871,1.9830536842346191,4.075812816619873,0.2794884145259857,-0.6913519501686096,0.01980430819094181,0.9053494334220886
118,44797,44795,0.010651567950844765,-0.08925648033618927,1.0258351564407349,-6.917609691619873,-11.293258666992188,2.779965877532959,1.9831141233444214,4.076282978057861,0.2799481153488159,-0.47034525871276855,-0.03220086917281151,0.9316384792327881
119,44807,44805,0.049316972494125366,-0.018518198281526566,0.9726104140281677,-9.6265287399292,-4.132610321044922,2.2095673084259033,1.9817317724227905,4.0766706466674805,0.28052908182144165,-0.3169506788253784,-0.19683155417442322,0.9412727952003479
120,44817,44815,0.014268632978200912,-0.036174070090055466,1.0250911712646484,-8.582953453063965,-4.461317539215088,2.119887113571167,1.9835304021835327,4.076747894287109,0.2825218439102173,-0.3259330689907074,-0.15976667404174805,0.9898998737335205
121,44827,44825,-0.017675243318080902,0.0004151095636188984,1.09469473361969,-5.796976089477539,-7.460623741149902,2.0876309871673584,1.98366117477417,4.077264785766602,0.2831573188304901,-0.3546472191810608,-0.3541954457759857,0.998197078704834
122,44837,44835,-0.049649324268102646,-0.040417544543743134,1.0386968851089478,-3.862379312515259,-5.793231010437012,2.155592918395996,1.984010100364685,4.078458786010742,0.2837364077568054,-0.35322701930999756,-0.4957667589187622,1.010546088218689
123,44847,44845,0.03393068164587021,0.042451150715351105,1.0262311697006226,-2.6435976028442383,-6.284123420715332,2.7176930904388428,1.982928991317749,4.078056335449219,0.28329336643218994,-0.21475248038768768,-0.37599265575408936,1.0525989532470703
124,44857,44855,0.026449840515851974,0.0022522208746522665,1.0238826274871826,-0.8617464900016785,-7.24531888961792,1.7054178714752197,1.9848157167434692,4.076601028442383,0.2838827967643738,-0.36586201190948486,-0.3167036175727844,1.0979220867156982
125,44867,44865,0.03546503186225891,-0.12572716176509857,1.0071710348129272,0.09914606064558029,-10.843175888061523,1.0157026052474976,1.9828073978424072,4.077483654022217,0.2846786677837372,-0.17306406795978546,-0.38338369131088257,1.1038113832473755
126,44877,44875,0.010240097530186176,-0.11032513529062271,1.0007524490356445,-1.1025211811065674,-12.25885009765625,0.9760509133338928,1.9832212924957275,4.078700065612793,0.28464171290397644,-0.022372104227542877,-0.3574232757091522,1.1143823862075806
127,44887,44885,-0.02397187240421772,-0.03447677195072174,0.9658615589141846,-3.3199081420898438,-12.718862533569336,1.5020712614059448,1.983270525932312,4.078708171844482,0.2853100597858429,0.009342996403574944,-0.4254963994026184,1.1278785467147827
128,44897,44895,-0.0024223318323493004,0.014124547131359577,1.0228906869888306,-3.4867732524871826,-14.050835609436035,2.0284230709075928,1.9828250408172607,4.080460071563721,0.28600093722343445,0.21437522768974304,-0.5184906721115112,1.1337363719940186
129,44907,44905,0.02779451571404934,0.037526361644268036,1.047916293144226,-1.7712868452072144,-14.337005615234375,1.219469666481018,1.9820473194122314,4.08010196685791,0.29094719886779785,0.4902211129665375,-0.5366837382316589,1.1437896490097046
130,44917,44915,-0.01983609050512314,-0.0012143373023718596,1.0136858224868774,-1.6717604398727417,-8.284070014953613,0.9151933789253235,1.9826207160949707,4.080046653747559,0.29193612933158875,0.5149660110473633,-0.39189913868904114,1.1741923093795776
131,44927,44925,0.038848262280225754,-0.06993086636066437,1.0370991230010986,-2.7907183170318604,-3.454925775527954,0.8517508506774902,1.982677936553955,4.079823970794678,0.2929442226886749,0.6267739534378052,-0.47561895847320557,1.1829020977020264
132,44937,44935,0.051820069551467896,-0.08553735166788101,1.0049794912338257,-2.5187671184539795,0.383604496717453,-0.014127194881439209,1.9816956520080566,4.081057548522949,0.29401469230651855,0.7332236766815186,-0.5614379048347473,1.1869888305664062
133,44947,44945,-0.05188653990626335,0.16289252042770386,0.968059241771698,-3.4385251998901367,8.568270683288574,-0.3152712285518646,1.9811218976974487,4.081878185272217,0.29811009764671326,0.7597923278808594,-0.5675969123840332,1.188733696937561
134,44957,44955,-0.014091555029153824,0.04831349849700928,0.9691559672355652,-3.3089113235473633,12.170056343078613,0.6018375754356384,1.9833308458328247,4.082885265350342,0.2993682026863098,0.514036238193512,-0.6586037278175354,1.2007458209991455
135,44967,44965,0.0509834811091423,-0.20098569989204407,0.9926542639732361,-2.832663059234619,20.312274932861328,-0.12562546133995056,1.9841490983963013,4.083510875701904,0.30054083466529846,0.34005674719810486,-0.7399153709411621,1.2070289850234985
136,44977,44975,0.007315601222217083,-0.07730810344219208,0.9872222542762756,-0.5504291653633118,20.50026512145996,-0.4995143413543701,1.9853333234786987,4.08331298828125,0.30080118775367737,0.14011125266551971,-0.736471951007843,1.203727126121521
137,44987,44985,0.02142382599413395,-0.026669254526495934,0.9625357985496521,0.9271687865257263,18.389463424682617,-0.445464551448822,1.9848589897155762,4.0840277671813965,0.3019684851169586,-0.007314939517527819,-0.7787163257598877,1.1917006969451904
138,44997,44995,0.007646171376109123,0.04938768222928047,0.9895520210266113,3.5741589069366455,16.778696060180664,-0.7874476313591003,1.9839062690734863,4.085126876831055,0.3031125068664551,-0.12339655309915543,-0.7880101799964905,1.176618218421936
139,45007,45005,0.0731639564037323,-0.005801943596452475,0.8917105793952942,6.006363391876221,4.710560321807861,-0.6445962190628052,1.984768033027649,4.085782527923584,0.3047593832015991,-0.3273792266845703,-0.7505666613578796,1.1737232208251953
140,45017,45015,-0.0021481725852936506,-0.03545964136719704,0.9412882924079895,7.738662242889404,-0.8435892462730408,-0.6065080761909485,1.984912633895874,4.0875630378723145,0.3058357834815979,-0.3809995949268341,-0.672446608543396,1.1615169048309326
141,45027,45025,-0.104719378054142,-0.050473060458898544,0.9922701716423035,6.11374568939209,2.3976030349731445,-0.46816742420196533,1.9847346544265747,4.088041305541992,0.3069003224372864,-0.33922624588012695,-0.6398455500602722,1.1501796245574951
142,45037,45035,-0.014136593788862228,-0.042401548475027084,0.9667707681655884,4.692758083343506,1.623778223991394,-1.256920337677002,1.9841350317001343,4.087489128112793,0.307902991771698,-0.23971761763095856,-0.47146937251091003,1.136622667312622
143,45047,45045,-0.08950734883546829,0.01801484264433384,0.9503301382064819,2.1817922592163086,2.7233147621154785,-0.7275524139404297,1.9852781295776367,4.089085102081299,0.31129416823387146,-0.3030581772327423,-0.48238062858581543,1.1358146667480469
144,45057,45055,-0.07112085074186325,0.02429579757153988,0.9701156616210938,-1.0294902324676514,7.639634609222412,-0.9505330324172974,1.9848361015319824,4.087574005126953,0.3123348653316498,-0.31378525495529175,-0.3827168345451355,1.1262129545211792
145,45067,45065,-0.0358387716114521,0.0793202817440033,0.962057888507843,-2.319812774658203,10.986953735351562,-1.1660435199737549,1.9872785806655884,4.088605880737305,0.3133314847946167,-0.4587952494621277,-0.41175606846809387,1.1293891668319702
146,45077,45075,0.009670748375356197,0.06836991757154465,0.9171758890151978,-2.4488484859466553,10.914722442626953,-1.2014023065567017,1.9875513315200806,4.089467525482178,0.3135058581829071,-0.6854440569877625,-0.5575525164604187,1.1102979183197021
147,45087,45085,0.024864723905920982,-0.03408321738243103,0.9199718236923218,-1.562089443206787,10.070250511169434,-0.9488685727119446,1.9864931106567383,4.089107990264893,0.31437623500823975,-0.6410680413246155,-0.580324649810791,1.1056244373321533
148,45097,45095,-0.001800420694053173,0.012812850996851921,0.9749689102172852,0.8212409615516663,6.698713302612305,-0.9054964780807495,1.9876458644866943,4.089845657348633,0.3151516914367676,-0.7713159918785095,-0.6126602292060852,1.0955302715301514
149,45107,45105,-0.04760738089680672,0.04299973323941231,1.0094504356384277,2.535782814025879,2.546198844909668,-1.144010066986084,1.9876996278762817,4.089877128601074,0.31558334827423096,-0.8551583290100098,-0.6116318106651306,1.0842081308364868
150,45117,45115,-0.07755925506353378,-0.0041270069777965546,1.0005158185958862,7.02048397064209,-2.9104526042938232,-1.5338808298110962,1.9879930019378662,4.089797496795654,0.3162882924079895,-0.8842036128044128,-0.5771124958992004,1.070642352104187
151,45127,45125,-0.08271537721157074,-0.019486909732222557,0.9844579100608826,7.866557598114014,-0.6792426109313965,-1.514367938041687,1.9874240159988403,4.088324069976807,0.31705760955810547,-0.842438817024231,-0.40681055188179016,1.0572370290756226
152,45137,45135,-0.0391286201775074,-0.025533270090818405,0.9486566185951233,6.711768627166748,-5.600102424621582,-1.3365399837493896,1.9857536554336548,4.089212417602539,0.3178676962852478,-0.7284699082374573,-0.3691454827785492,1.030020833015442
153,45147,45145,-0.059550702571868896,0.004687617998570204,0.9379856586456299,2.9865152835845947,0.24586382508277893,-0.5301946997642517,1.9858953952789307,4.089574813842773,0.3189741373062134,-0.6630992293357849,-0.2705690860748291,1.0148416757583618
154,45157,45155,-0.007688931655138731,-0.011329052038490772,0.9312116503715515,0.2057575285434723,3.3767385482788086,-0.7551112174987793,1.985870122909546,4.090168476104736,0.3196479380130768,-0.7183085680007935,-0.2243625968694687,1.0122730731964111
155,45167,45165,-0.002271751407533884,-0.04556237906217575,0.9288125038146973,-2.3536832332611084,5.004552364349365,-1.2036434412002563,1.9860965013504028,4.091281890869141,0.32027900218963623,-0.743110716342926,-0.3005133867263794,0.9990867972373962
156,45177,45175,-0.012783678248524666,-0.021539561450481415,0.9438366889953613,-3.729304552078247,4.330132484436035,-0.48608267307281494,1.9857897758483887,4.091318607330322,0.3198602497577667,-0.7946275472640991,-0.33511048555374146,0.9850397109985352
157,45187,45185,-0.008318200707435608,0.05028975009918213,0.963267982006073,-2.422081232070923,6.22374153137207,-0.6956695914268494,1.9864951372146606,4.09022331237793,0.3203255832195282,-0.8504595160484314,-0.16864697635173798,0.993341863155365
158,45197,45195,0.0011107343016192317,0.04043526574969292,0.961992084980011,-2.6248321533203125,5.047337532043457,-0.3618468940258026,1.9940698146820068,4.092570781707764,0.3203924000263214,-1.5984809398651123,-0.3842511475086212,1.0113098621368408
159,45207,45205,0.029508395120501518,0.020572654902935028,0.942301869392395,-0.7119828462600708,-0.786489725112915,-0.21828019618988037,1.9946638345718384,4.092159748077393,0.3214486539363861,-1.6581462621688843,-0.42484787106513977,1.0016610622406006
160,45217,45215,0.03429148718714714,-0.03903082758188248,0.9571164846420288,2.0095956325531006,-10.317333221435547,0.022203614935278893,1.9946693181991577,4.092172145843506,0.32198962569236755,-1.5564583539962769,-0.43931081891059875,0.9895219802856445
161,45227,45225,0.003681785659864545,-0.04005960375070572,0.9894715547561646,4.058436870574951,-16.634479522705078,0.3369799852371216,1.9943715333938599,4.090336799621582,0.3224679231643677,-1.3926477432250977,-0.25868821144104004,1.0043973922729492
162,45237,45235,0.0031390050426125526,-0.0359656997025013,0.9531145691871643,5.95298433303833,-20.505647659301758,0.3332102596759796,1.9953514337539673,4.091235160827637,0.3198222517967224,-1.2658514976501465,-0.2833101451396942,0.9982600808143616
163,45247,45245,0.05687854811549187,-0.032941192388534546,0.9065729379653931,4.347804546356201,-19.668256759643555,0.5864781141281128,1.9950716495513916,4.091894626617432,0.3200456202030182,-0.7411924600601196,-0.22133620083332062,0.9934332370758057
164,45257,45255,0.022812187671661377,-0.0051401578821241856,0.947458803653717,3.0942063331604004,-14.021195411682129,0.9953019022941589,1.9953036308288574,4.092822551727295,0.32004407048225403,-0.7498753666877747,-0.1933145672082901,0.9977707266807556
165,45267,45265,0.06925219297409058,-0.04862353950738907,0.9186043739318848,0.38905707001686096,-8.088034629821777,1.4607774019241333,1.995509386062622,4.0937652587890625,0.3201037049293518,-0.46685972809791565,-0.13989442586898804,1.0054173469543457
166,45277,45275,0.08186860382556915,-0.07840555161237717,0.969119668006897,-2.15594220161438,-2.3456263542175293,2.1044187545776367,1.9964364767074585,4.093835353851318,0.3217725455760956,-0.3704136610031128,-0.12473376095294952,1.0196388959884644
167,45287,45285,0.07852613925933838,-0.14552979171276093,0.9929240345954895,-2.3762264251708984,1.569257140159607,2.918417453765869,1.9982346296310425,4.093660354614258,0.321718692779541,-0.3758487403392792,-0.1491619497537613,1.0376869440078735
168,45297,45295,0.031831081956624985,-0.13587160408496857,1.0145237445831299,-3.0850324630737305,5.036935806274414,1.9039429426193237,1.9999291896820068,4.094214916229248,0.321574866771698,-0.45949214696884155,-0.19117414951324463,1.0629843473434448
169,45307,45305,-0.00657588941976428,-0.03353027254343033,0.9943152666091919,-2.7115495204925537,4.7076849937438965,1.8137561082839966,2.0003647804260254,4.093706130981445,0.32202985882759094,-0.44647011160850525,-0.1716393232345581,1.0876100063323975
170,45317,45315,0.017803989350795746,-0.06748048961162567,0.9692739248275757,-0.9855812788009644,5.136880397796631,1.7694988250732422,2.0019657611846924,4.093430519104004,0.32198625802993774,-0.5241940021514893,-0.23033010959625244,1.105440378189087
171,45327,45325,-0.016609633341431618,0.07882323116064072,0.9959148168563843,-0.5438598990440369,3.655183792114258,2.258666753768921,2.00287127494812,4.093729019165039,0.3219188153743744,-0.5866244435310364,-0.26215052604675293,1.1242520809173584
172,45337,45335,0.033119626343250275,0.03949630632996559,0.9306074380874634,1.1675769090652466,-2.6908562183380127,2.9843733310699463,2.004073143005371,4.093790531158447,0.319585382938385,-0.6111345291137695,-0.27493205666542053,1.1474676132202148
173,45347,45345,-0.017865503206849098,0.042454760521650314,1.0442596673965454,2.8381001949310303,-4.792555809020996,3.040151357650757,2.0037710666656494,4.0944366455078125,0.3194164037704468,-0.47388139367103577,-0.3350684940814972,1.1678372621536255
174,45357,45355,0.013547486625611782,-0.0059128412976861,1.0035110712051392,4.841510772705078,-10.588793754577637,3.7130496501922607,2.003631830215454,4.09578800201416,0.31917962431907654,-0.37337833642959595,-0.28126049041748047,1.2001270055770874
175,45367,45365,-0.06699895113706589,-0.06590243428945541,1.0530942678451538,6.084962368011475,-12.802398681640625,3.8781044483184814,2.0034828186035156,4.095763206481934,0.3189598619937897,-0.2090795487165451,-0.1911260485649109,1.238287091255188
176,45377,45375,-0.04132891818881035,-0.048846010118722916,1.0277940034866333,5.122991561889648,-5.3883843421936035,3.861675977706909,2.0035364627838135,4.095681667327881,0.31598585844039917,-0.041573189198970795,-0.09142881631851196,1.2775357961654663
177,45387,45385,0.01690605655312538,0.016066139563918114,1.0032380819320679,3.739262819290161,-0.6516743302345276,4.679272174835205,2.002650737762451,4.097050189971924,0.3156398832798004,0.1259557455778122,-0.07984104752540588,1.3140230178833008
178,45397,45395,0.06827836483716965,0.023371711373329163,0.9694215059280396,0.7711426019668579,4.739895343780518,3.8333239555358887,2.0056841373443604,4.097670555114746,0.3153420686721802,-0.022768037393689156,-0.018308278173208237,1.3655776977539062
179,45407,45405,0.009957768954336643,-0.02497764863073826,0.9955188632011414,-1.9888007640838623,7.188712120056152,3.399448871612549,2.005557060241699,4.098465442657471,0.31248751282691956,-0.027945177629590034,-0.004734509624540806,1.403511881828308
180,45417,45415,-0.008376975543797016,-0.016435086727142334,1.0358785390853882,-2.577331781387329,8.788909912109375,3.612605094909668,2.0079047679901123,4.099565505981445,0.3119601905345917,-0.22645939886569977,-0.03399955481290817,1.4367926120758057
181,45427,45425,0.02228420600295067,-0.048063673079013824,0.9928640723228455,-1.1794114112854004,7.229795932769775,3.7488980293273926,2.0074727535247803,4.100334167480469,0.3115045726299286,-0.2880021035671234,-0.07472966611385345,1.4672126770019531
182,45437,45435,0.02771933749318123,-0.013030234724283218,1.010985016822815,-0.48758429288864136,7.0548996925354,3.9319512844085693,2.008241653442383,4.10140323638916,0.31140729784965515,-0.3261238634586334,-0.09546408802270889,1.5104209184646606
183,45447,45445,0.048409055918455124,-0.031902045011520386,1.015086054801941,-0.10812750458717346,2.889671802520752,3.523495674133301,2.0081796646118164,4.101078033447266,0.3110031187534332,-0.33577466011047363,-0.09899375587701797,1.547966718673706
184,45457,45455,0.061979930847883224,-0.0028618876822292805,1.0394909381866455,1.831491231918335,-2.9471218585968018,3.398422956466675,2.0091612339019775,4.101377487182617,0.3105345666408539,-0.43546178936958313,-0.08896458148956299,1.575770616531372
185,45467,45465,0.010745923034846783,-0.07416635006666183,1.076146125793457,2.899287700653076,-4.835981369018555,3.1640145778656006,2.0109710693359375,4.102369785308838,0.3101305663585663,-0.452910453081131,-0.05369589850306511,1.615540862083435
186,45477,45475,0.010001694783568382,0.0018296047346666455,1.0416547060012817,3.4607839584350586,-6.321039199829102,3.9094369411468506,2.010899305343628,4.102962970733643,0.31304046511650085,-0.2749501168727875,-0.07690230011940002,1.651946783065796
187,45487,45485,0.006241136230528355,0.002267762552946806,1.0274087190628052,3.8161847591400146,-5.10565710067749,3.408898115158081,2.011676549911499,4.104072570800781,0.3129256069660187,-0.25774866342544556,-0.009720578789710999,1.6856590509414673
188,45497,45495,-0.00033621452166698873,0.03319767490029335,1.0644115209579468,3.3240575790405273,-3.7065722942352295,2.439607858657837,2.012737512588501,4.1045451164245605,0.31294840574264526,-0.17119455337524414,0.05432609096169472,1.7259539365768433
189,45507,45505,-0.0149711724370718,-0.05392400547862053,0.9833542108535767,1.3618745803833008,0.6651984453201294,2.679342031478882,2.0124895572662354,4.105644702911377,0.312252938747406,-0.11648838967084885,0.10564057528972626,1.759698748588562
190,45517,45515,0.041337236762046814,-0.120962955057621,1.0327941179275513,-0.7277041077613831,0.08034836500883102,3.286160469055176,2.013744354248047,4.107202053070068,0.3122555911540985,-0.12891022861003876,-0.03082956187427044,1.7889363765716553
191,45527,45525,0.09519712626934052,-0.23694226145744324,1.0775495767593384,-0.39606523513793945,0.9011605381965637,1.545870065689087,2.0146138668060303,4.106200218200684,0.31225454807281494,-0.15320652723312378,0.05009137839078903,1.8154044151306152
192,45537,45535,0.025710992515087128,-0.09553086012601852,1.0467612743377686,-0.869429886341095,4.793956756591797,1.1866557598114014,2.0162181854248047,4.106568336486816,0.3111266493797302,-0.2785068452358246,0.04161105304956436,1.8276838064193726
193,45547,45545,0.005357465706765652,-0.005814620293676853,1.0334911346435547,-0.8543794751167297,4.89328145980835,0.9443576335906982,2.016649007797241,4.106068134307861,0.31118059158325195,-0.35639387369155884,0.030183544382452965,1.8333607912063599
194,45557,45555,-0.007268671412020922,-0.03663259744644165,0.9956578016281128,-0.18474744260311127,6.728250503540039,0.9649659991264343,2.0174179077148438,4.107223033905029,0.31133875250816345,-0.34782418608665466,0.02089335210621357,1.843869924545288
195,45567,45565,0.025598673149943352,-0.03916255012154579,1.0752421617507935,1.247297763824463,-0.3029323220252991,1.2020525932312012,2.0184874534606934,4.107870101928711,0.3115387558937073,-0.40960693359375,0.03297324478626251,1.8619416952133179
196,45577,45575,0.012808011844754219,-0.012266162782907486,1.0509092807769775,3.6045916080474854,-4.338641166687012,0.7197136282920837,2.0184643268585205,4.108565807342529,0.3115970194339752,-0.2976827919483185,0.07049603015184402,1.8799138069152832
197,45587,45585,-0.04653124883770943,0.09233156591653824,0.9915837645530701,3.173537492752075,-4.191339015960693,0.5519465804100037,2.018965721130371,4.110040187835693,0.31186869740486145,-0.22568093240261078,0.13045088946819305,1.903408169746399
198,45597,45595,-0.0003921082825399935,0.024398047477006912,1.0391452312469482,2.6046299934387207,-3.9566125869750977,0.6623843908309937,2.0205936431884766,4.1100873947143555,0.3120594024658203,-0.3127197325229645,0.183411106467247,1.9060853719711304
199,45607,45605,0.03638956695795059,-0.0756482183933258,0.957648515701294,0.5854705572128296,-4.511358261108398,1.0431655645370483,2.0203680992126465,4.11152458190918,0.31167978048324585,-0.15480689704418182,0.13816069066524506,1.9238756895065308
200,45617,45615,-0.05320063978433609,-0.045711081475019455,1.081422209739685,-0.05673383176326752,-5.277683734893799,0.5600045919418335,2.0199806690216064,4.110408306121826,0.31195348501205444,-0.007247020490467548,0.22725118696689606,1.9351438283920288
201,45627,45625,-0.01715668849647045,-0.05605902895331383,1.0131608247756958,-0.6641413569450378,1.787078857421875,-0.126164510846138,2.019512891769409,4.11142110824585,0.31228676438331604,0.031064089387655258,0.1371568888425827,1.9390095472335815
202,45637,45635,-0.02350049838423729,0.006723426748067141,1.0359374284744263,-2.0344927310943604,5.175608158111572,-0.010602222755551338,2.0223848819732666,4.11257791519165,0.3155888020992279,-0.1649622768163681,0.1246652826666832,1.9384169578552246
203,45647,45645,-0.024170927703380585,-0.03381284698843956,1.0155445337295532,-1.6675318479537964,7.513372898101807,-0.12308637797832489,2.023252010345459,4.11279296875,0.3160543441772461,-0.2643883526325226,0.08742299675941467,1.9370976686477661
204,45657,45655,0.02839578315615654,-0.029970550909638405,0.9750959873199463,-1.673895001411438,6.738191604614258,0.29530829191207886,2.024096727371216,4.1137495040893555,0.3166004419326782,-0.30216121673583984,0.06267128884792328,1.9427330493927002
205,45667,45665,-0.003465360729023814,-0.02752825617790222,0.9973276853561401,-0.2144297957420349,4.098781108856201,-0.1387270987033844,2.0243961811065674,4.1138505935668945,0.3118806779384613,-0.3122776746749878,0.04834610968828201,1.9461649656295776
206,45677,45675,0.007717811968177557,-0.013655857183039188,0.9893010258674622,1.1468770503997803,0.9873222708702087,0.22129535675048828,2.024895191192627,4.113338947296143,0.31207090616226196,-0.37164005637168884,0.05522710084915161,1.9377049207687378
207,45687,45685,0.028923621401190758,-0.040640540421009064,0.9737870693206787,1.514937162399292,-1.1262321472167969,0.03054850921034813,2.0248196125030518,4.11234712600708,0.31232163310050964,-0.2953341007232666,0.16478818655014038,1.939984917640686
208,45697,45695,0.023076653480529785,-0.04864722117781639,0.9825949668884277,1.822511076927185,-3.0593957901000977,0.2088635414838791,2.0263078212738037,4.1124114990234375,0.3124192953109741,-0.3474457859992981,0.1957012116909027,1.936655879020691
209,45707,45705,0.020419422537088394,-0.06274210661649704,1.0287892818450928,1.5489517450332642,-3.951447010040283,0.452102929353714,2.0257678031921387,4.1133527755737305,0.31210777163505554,-0.2137686014175415,0.21934722363948822,1.9491403102874756
210,45717,45715,0.0530053973197937,-0.11849404126405716,0.9744093418121338,-1.1336605548858643,0.9792518615722656,-0.4509458839893341,2.027419328689575,4.113792896270752,0.31221067905426025,-0.24066627025604248,0.23161861300468445,1.9586703777313232
211,45727,45725,0.024493582546710968,-0.007287853397428989,0.9917823672294617,-2.430370807647705,0.022169584408402443,-0.16983160376548767,2.0277276039123535,4.115129470825195,0.31229183077812195,-0.24704678356647491,0.19827044010162354,1.964277982711792
212,45737,45735,0.020151646807789803,-0.05872387811541557,0.9554669260978699,-4.082051753997803,4.396442890167236,0.5805853009223938,2.0313169956207275,4.115905284881592,0.3141769468784332,-0.49221622943878174,0.14366203546524048,1.9599688053131104
213,45747,45745,0.008659884333610535,-0.042657360434532166,1.0496007204055786,-2.930410623550415,0.6167656183242798,0.5887261033058167,2.0312552452087402,4.116748332977295,0.3144131004810333,-0.4416458308696747,0.08069715648889542,1.969342827796936
214,45757,45755,-0.019242707639932632,0.05193904787302017,1.0480341911315918,-0.6387260556221008,-2.331249475479126,0.28635966777801514,2.0330870151519775,4.119171142578125,0.31454843282699585,-0.5099034905433655,0.034554459154605865,2.006864309310913
215,45767,45765,-0.051585983484983444,0.1539297103881836,1.0376158952713013,-0.08042912185192108,-0.4858369827270508,0.0386851504445076,2.032421588897705,4.118449687957764,0.31671595573425293,-0.3773970901966095,0.10056557506322861,2.0136661529541016
216,45777,45775,-0.004147354047745466,0.11497572809457779,0.9361260533332825,0.706807553768158,0.6614792346954346,0.05487065762281418,2.0333445072174072,4.119844913482666,0.317011296749115,-0.42092254757881165,0.09824898093938828,2.0254364013671875
217,45787,45785,-0.005570350214838982,0.12066810578107834,1.0154589414596558,1.6018527746200562,-3.2243456840515137,1.1173231601715088,2.033592700958252,4.121498107910156,0.3174682855606079,-0.3041723966598511,0.10316150635480881,2.0501112937927246
218,45797,45795,0.0428006649017334,0.02110106684267521,0.9914061427116394,-0.009995981119573116,-3.218634605407715,0.5733639597892761,2.0361077785491943,4.12101936340332,0.3176487982273102,-0.500607430934906,0.18839846551418304,2.0517752170562744
219,45807,45805,-0.006736737675964832,0.005780681502074003,1.0150707960128784,-1.157193899154663,-3.2650623321533203,0.8223755955696106,2.0356266498565674,4.121575355529785,0.31331881880760193,-0.3304988741874695,0.17094294726848602,2.0734527111053467
220,45817,45815,-0.010593091137707233,-0.06840573996305466,0.9780007600784302,-0.7031049132347107,-5.808382511138916,1.1209402084350586,2.0361075401306152,4.121657848358154,0.31341010332107544,-0.24136246740818024,0.1425868570804596,2.0841212272644043
221,45827,45825,-0.041742242872714996,0.0683538019657135,1.0066746473312378,-2.80070161819458,-2.638960838317871,1.0271883010864258,2.0376639366149902,4.121335506439209,0.31341060996055603,-0.2968026399612427,0.10209602862596512,2.082782506942749
222,45837,45835,0.004143759608268738,-0.029526829719543457,0.9684886932373047,-5.227510929107666,-0.5467644333839417,1.6561412811279297,2.037433624267578,4.121819496154785,0.31442099809646606,-0.15346784889698029,0.03598978370428085,2.1049258708953857
223,45847,45845,-0.0030158490408211946,-0.0040013608522713184,1.0185292959213257,-5.009405612945557,-1.009642481803894,1.1088429689407349,2.039412498474121,4.121531009674072,0.3144432306289673,-0.2796822488307953,0.0193585604429245,2.1093335151672363
224,45857,45855,-0.02671041153371334,0.0019368896028026938,0.9975957274436951,-3.7290637493133545,0.37378835678100586,1.4706158638000488,2.041590452194214,4.121699333190918,0.31440189480781555,-0.3907485008239746,0.00830153003334999,2.1200451850891113
225,45867,45865,0.018678579479455948,-0.05086895078420639,0.9756012558937073,-2.872328519821167,-0.23343908786773682,1.2367740869522095,2.042590618133545,4.121571063995361,0.3126146197319031,-0.4289359152317047,-0.06478188186883926,2.1329855918884277
226,45877,45875,-0.0225081667304039,0.02536093257367611,1.0365859270095825,-1.9798216819763184,-3.30472993850708,0.9745975136756897,2.0418262481689453,4.121963024139404,0.3127238154411316,-0.2884089946746826,-0.04304639622569084,2.168402671813965
227,45887,45885,0.03982485085725784,-0.06266121566295624,0.9872058033943176,-1.0908384323120117,-7.410737037658691,1.2012616395950317,2.0436935424804688,4.122761249542236,0.3126925230026245,-0.2801758646965027,-0.007581667974591255,2.2086822986602783
228,45897,45895,-0.02258463017642498,-0.081552654504776,1.032305359840393,1.1740765571594238,-8.573232650756836,1.0009071826934814,2.0424318313598633,4.12286901473999,0.3128558099269867,-0.05733448639512062,-0.03946327418088913,2.2162773609161377
229,45907,45905,-0.04130619019269943,-0.040402352809906006,0.9710754752159119,0.00035128265153616667,-1.5272862911224365,0.8834480047225952,2.046102285385132,4.124849319458008,0.3142179846763611,-0.251190721988678,-0.041863758116960526,2.249419689178467
230,45917,45915,-0.01744139939546585,-0.03193076699972153,1.0159945487976074,-1.9125819206237793,0.06433305889368057,0.6457468867301941,2.046396255493164,4.124471664428711,0.31435754895210266,-0.19022244215011597,-0.061206668615341187,2.2706732749938965
231,45927,45925,0.0373840294778347,-0.011588460765779018,1.0102125406265259,-3.6000559329986572,-1.1830427646636963,0.3096402585506439,2.0458738803863525,4.124625205993652,0.31461212038993835,-0.07246687263250351,0.04607482999563217,2.2989344596862793
232,45937,45935,0.031577691435813904,-0.15064656734466553,1.0254924297332764,-4.417860507965088,-2.8812708854675293,-0.020382201299071312,2.0479025840759277,4.126328468322754,0.3162919878959656,-0.09735161066055298,-0.11072657257318497,2.3273651599884033
233,45947,45945,0.005231140181422234,-0.1089007556438446,1.0341689586639404,-3.935173273086548,-0.884853720664978,0.11682367324829102,2.048210382461548,4.127503395080566,0.31654512882232666,-0.03253240883350372,-0.19785532355308533,2.327392101287842
234,45957,45955,0.07842403650283813,-0.01921510137617588,0.9428614974021912,-4.281124591827393,-2.3776278495788574,-0.05946658179163933,2.048849582672119,4.128596305847168,0.3168295919895172,0.009060635231435299,-0.19804945588111877,2.3569211959838867
235,45967,45965,-0.026055457070469856,-0.021226122975349426,1.0182723999023438,-3.4219133853912354,-0.7088411450386047,-1.0492842197418213,2.050729513168335,4.128066539764404,0.312206894159317,-0.06778335571289062,-0.19808271527290344,2.3705434799194336
236,45977,45975,0.0390748605132103,-0.0602228119969368,1.009548544883728,-1.6642658710479736,-2.9570887088775635,-0.8964045643806458,2.0519750118255615,4.129555702209473,0.31222206354141235,0.007722908165305853,-0.25520288944244385,2.3746349811553955
237,45987,45985,-0.00996304489672184,0.014625643379986286,1.0076152086257935,-0.38432231545448303,-4.629644393920898,-0.5824007391929626,2.052586793899536,4.129591941833496,0.31221500039100647,0.09559124708175659,-0.2967503070831299,2.3666749000549316
238,45997,45995,0.0018207456450909376,-0.03999323025345802,1.0059677362442017,-0.6786580681800842,-4.489343166351318,-0.5081413388252258,2.054516315460205,4.129477024078369,0.3103000521659851,0.04446794465184212,-0.3137660622596741,2.3618533611297607
239,46007,46005,-0.02698720246553421,0.005959290079772472,1.0122642517089844,1.9281741380691528,-3.7620351314544678,-0.08229462057352066,2.054551124572754,4.129630088806152,0.31020107865333557,0.15317794680595398,-0.24395644664764404,2.3702168464660645
