,timestamp_start,timestamp_end,acc.x,acc.y,acc.z,gyro.x,gyro.y,gyro.z,stateEstimate.x,stateEstimate.y,stateEstimate.z,stabilizer.pitch,stabilizer.roll,stabilizer.yaw
0,39696,39694,0.0336834080517292,-0.01987941563129425,0.9727857708930969,-1.6425135135650635,0.6133795976638794,-1.058186411857605,2.0630133152008057,4.074498176574707,0.1833328753709793,1.8846014738082886,0.056531183421611786,1.304924488067627
1,39706,39704,0.016182078048586845,-0.03636699542403221,0.956791341304779,-1.0761032104492188,3.4005801677703857,-1.0925507545471191,2.0623648166656494,4.073904037475586,0.1855437010526657,1.956773281097412,0.10114414244890213,1.287345051765442
2,39716,39714,0.003324338234961033,-0.024503840133547783,0.9782543182373047,-0.49035021662712097,7.339257717132568,-1.398079752922058,2.062871217727661,4.075156211853027,0.1876710206270218,1.7815282344818115,0.044995617121458054,1.2767360210418701
3,39726,39724,-0.02538280561566353,0.08094910532236099,0.950370728969574,0.25697898864746094,11.107874870300293,-1.8813235759735107,2.063567876815796,4.0755767822265625,0.18738749623298645,1.2456384897232056,0.16490407288074493,1.1931207180023193
4,39736,39734,0.025479286909103394,-0.008444823324680328,0.9427193999290466,0.2353864163160324,12.626660346984863,-1.973623275756836,2.066664457321167,4.074745178222656,0.18960344791412354,1.6386338472366333,0.11242281645536423,1.229553461074829
5,39746,39744,-0.010267287492752075,-0.014679038897156715,0.9906583428382874,0.4553435742855072,10.95201301574707,-2.354365110397339,2.064558506011963,4.075845241546631,0.1924085170030594,1.5151352882385254,0.11730479449033737,1.2074944972991943
6,39756,39754,0.021629663184285164,-0.01075240783393383,0.9977893233299255,0.5449772477149963,7.228572845458984,-3.5291566848754883,2.0705535411834717,4.08750057220459,0.1950918287038803,0.3987481892108917,-1.563088059425354,1.452566385269165
7,39766,39764,-0.011223522014915943,-0.0249874759465456,0.9897134304046631,5.993170738220215,0.8472428917884827,-4.664100646972656,2.071333169937134,4.088995933532715,0.1953788697719574,0.47048789262771606,-1.230294108390808,1.3655179738998413
8,39776,39774,-0.0031044520437717438,-0.022795990109443665,0.9908785820007324,17.676538467407227,-6.42584753036499,-3.7210662364959717,2.0708394050598145,4.089269638061523,0.1996198296546936,0.712908923625946,-0.8585705161094666,1.28781259059906
9,39786,39784,0.021525977179408073,0.0931580662727356,0.9845272302627563,28.721023559570312,-12.584087371826172,-2.621478796005249,2.068568706512451,4.09127950668335,0.2034473568201065,0.8050919771194458,-0.6350494623184204,1.2633039951324463
10,39796,39794,0.026494741439819336,0.11531408876180649,0.9531183242797852,34.35973358154297,-13.176559448242188,-1.7408686876296997,2.0679872035980225,4.09052038192749,0.20191164314746857,1.1792818307876587,0.011191841214895248,1.1996771097183228
11,39806,39804,0.06802809983491898,-0.004883142653852701,0.9491657614707947,34.34455871582031,-11.822566032409668,-0.7186794877052307,2.0676214694976807,4.092616081237793,0.20373809337615967,1.5088051557540894,0.2957816421985626,1.1918138265609741
12,39816,39814,0.004609639756381512,-0.0435900017619133,1.0024590492248535,26.44700813293457,-1.7554867267608643,-1.0276751518249512,2.06655216217041,4.095035076141357,0.20537492632865906,1.5485641956329346,0.7941206693649292,1.1626298427581787
13,39826,39824,0.025879953056573868,-0.08143608272075653,0.9914188981056213,17.51336097717285,-0.6087469458580017,-1.2577235698699951,2.0660500526428223,4.094931602478027,0.2059604674577713,1.5577038526535034,1.017334222793579,1.1518113613128662
14,39836,39834,-0.03233623504638672,0.0363910086452961,0.9870165586471558,5.994511604309082,10.160152435302734,-2.4432497024536133,2.0655932426452637,4.096561431884766,0.2076205164194107,1.5250383615493774,1.1537141799926758,1.1375755071640015
15,39846,39844,-0.07610682398080826,0.014356892555952072,1.0020840167999268,-5.4560065269470215,16.519548416137695,-2.19295597076416,2.0663089752197266,4.100455284118652,0.21091637015342712,1.5872468948364258,1.2469502687454224,1.1220555305480957
16,39856,39854,-0.004932616837322712,0.03953895345330238,0.9424691200256348,-10.665687561035156,17.569067001342773,-2.5766642093658447,2.0649616718292236,4.099823951721191,0.21072550117969513,1.4120457172393799,1.2800543308258057,1.0840661525726318
17,39866,39864,0.0028913519345223904,-0.018785960972309113,1.0661413669586182,-12.646827697753906,10.856180191040039,-1.0784748792648315,2.0641908645629883,4.0995612144470215,0.2104226052761078,1.154726505279541,1.1650863885879517,1.0530991554260254
18,39876,39874,0.045950956642627716,-0.09841730445623398,1.0961672067642212,-7.272347927093506,13.384296417236328,-2.5704166889190674,2.0644643306732178,4.099392890930176,0.21201589703559875,1.2041486501693726,1.1044511795043945,1.0563634634017944
19,39886,39884,-0.019825616851449013,0.0003193684678990394,1.0374757051467896,-0.4651520252227783,12.039325714111328,-3.849790334701538,2.0634236335754395,4.100454330444336,0.213453471660614,1.0916991233825684,1.1962813138961792,1.0146185159683228
20,39896,39894,-0.04789905622601509,0.06980723142623901,0.9857523441314697,4.366766929626465,8.439957618713379,-2.8109874725341797,2.062328338623047,4.099162578582764,0.2129925787448883,0.8839407563209534,1.2876273393630981,0.9601637125015259
21,39906,39904,-0.002176123671233654,0.07528016716241837,0.9627947211265564,4.420651912689209,5.900027751922607,-1.9435402154922485,2.06160569190979,4.098416328430176,0.21463048458099365,0.8074259757995605,1.3957947492599487,0.9291704297065735
22,39916,39914,-0.030369574204087257,-0.05436772480607033,1.0433896780014038,1.9129332304000854,5.376039981842041,-1.461366891860962,2.0615742206573486,4.098487854003906,0.21608495712280273,0.8986795544624329,1.4680168628692627,0.9353319406509399
23,39926,39924,0.003950177691876888,-0.03631366789340973,1.0368902683258057,-3.4736506938934326,9.219697952270508,-1.1363619565963745,2.0600063800811768,4.097609519958496,0.21662728488445282,0.7885448336601257,1.4620219469070435,0.9148058295249939
24,39936,39934,0.03588942810893059,-0.07049214094877243,1.008259892463684,-8.422393798828125,8.350707054138184,-0.3449053168296814,2.0595717430114746,4.099132537841797,0.21815678477287292,0.8168115019798279,1.4351236820220947,0.9292778968811035
25,39946,39944,-0.0017396596958860755,-0.037171151489019394,1.0139427185058594,-12.632604598999023,10.335411071777344,-0.8686656951904297,2.0573880672454834,4.097716331481934,0.2210436910390854,0.7255362868309021,1.3319422006607056,0.9253174662590027
26,39956,39954,-0.03056105598807335,0.03311345726251602,0.9914342164993286,-14.724284172058105,10.32862663269043,-0.5601210594177246,2.057788372039795,4.098689079284668,0.221144899725914,0.5617062449455261,1.1926445960998535,0.9068854451179504
27,39966,39964,-0.05940849706530571,0.08801188319921494,0.9898345470428467,-15.865671157836914,10.997122764587402,0.20784294605255127,2.0577356815338135,4.099612236022949,0.22315360605716705,0.6245316863059998,1.0675103664398193,0.9400510787963867
28,39976,39974,-0.01706043817102909,-0.005444059614092112,1.0199998617172241,-14.452638626098633,14.526945114135742,-0.6405051946640015,2.0555334091186523,4.099721908569336,0.22460521757602692,0.4529620110988617,0.9636299014091492,0.9288674592971802
29,39986,39984,0.048071883618831635,-0.05374820902943611,1.024164080619812,-9.308890342712402,12.519508361816406,-1.400284767150879,2.055314064025879,4.099155426025391,0.22621828317642212,0.29640981554985046,0.7696032524108887,0.9161279797554016
30,39996,39994,0.011159946210682392,-0.03788744658231735,1.0215092897415161,-4.8369059562683105,11.74509334564209,-1.3438225984573364,2.0544073581695557,4.098335266113281,0.2262839823961258,0.1807279735803604,0.6887785196304321,0.9046382308006287
31,40006,40004,-0.009585188701748848,0.014436164870858192,1.0093399286270142,-2.257887125015259,9.721717834472656,-0.8038157224655151,2.0538840293884277,4.097383975982666,0.22778654098510742,0.05427542328834534,0.7199631333351135,0.8933268785476685
32,40016,40014,0.0024886284954845905,0.029717514291405678,1.0236637592315674,-1.2996101379394531,10.466266632080078,-0.30607661604881287,2.052258253097534,4.100154399871826,0.22933098673820496,-0.12401213496923447,0.7452691197395325,0.8869933485984802
33,40026,40024,0.0041678231209516525,-0.03630147874355316,0.9766703248023987,-1.038532018661499,11.697772026062012,-0.2883966565132141,2.051990270614624,4.099913120269775,0.2309424728155136,-0.22468848526477814,0.7783258557319641,0.8865153193473816
34,40036,40034,0.027719760313630104,-0.05795320123434067,0.9760851263999939,-2.1850438117980957,9.337546348571777,-0.09672971069812775,2.050856351852417,4.098823070526123,0.2324473261833191,-0.3148132860660553,0.7664682865142822,0.8861504197120667
35,40046,40044,0.028491593897342682,-0.07663334161043167,1.0199737548828125,-4.78396463394165,2.621401786804199,0.02862044982612133,2.049882173538208,4.100040912628174,0.23400594294071198,-0.3802015483379364,0.6270046830177307,0.8767905831336975
36,40056,40054,-0.018758593127131462,-0.0434252992272377,1.0767416954040527,-6.444077968597412,-2.0353751182556152,0.5261647701263428,2.0495872497558594,4.100555419921875,0.23509538173675537,-0.38693976402282715,0.5773797035217285,0.8815693259239197
37,40066,40064,-0.052543334662914276,-0.009046265855431557,1.0635253190994263,-8.56831169128418,-0.7622660994529724,0.7268832921981812,2.04968523979187,4.102965354919434,0.23664522171020508,-0.10386314243078232,0.490927129983902,0.9275809526443481
38,40076,40074,-0.023880407214164734,-0.01616470143198967,0.9923645257949829,-9.720720291137695,5.123819828033447,0.7345836162567139,2.0457353591918945,4.101865291595459,0.23817652463912964,-0.1326318085193634,0.4002738893032074,0.9335318207740784
39,40086,40084,0.023624362424016,0.003206954337656498,0.9971232414245605,-9.516603469848633,10.809104919433594,0.12792883813381195,2.0471975803375244,4.104773044586182,0.24008621275424957,-0.4280897080898285,0.2743377685546875,0.9048091769218445
40,40096,40094,0.06460122019052505,-0.04002232477068901,0.9810214042663574,-7.017881393432617,13.016716003417969,-0.2932332456111908,2.047609806060791,4.106197834014893,0.2426372766494751,-0.6174576878547668,0.2664557993412018,0.9062907099723816
41,40106,40104,0.05671382695436478,-0.0006571653066202998,1.014384150505066,-4.75844144821167,10.373189926147461,-0.4500942826271057,2.0460097789764404,4.105659008026123,0.244385227560997,-0.6428877115249634,0.2841112017631531,0.9254238605499268
42,40116,40114,0.004495845176279545,-0.010091294534504414,0.9987514019012451,-4.5256876945495605,6.479331970214844,-0.04713078960776329,2.0456974506378174,4.1065826416015625,0.24609637260437012,-0.8440663814544678,0.1633436679840088,0.9027186036109924
43,40126,40124,-0.021248742938041687,0.02428303100168705,0.9850603938102722,-5.460479736328125,3.9692256450653076,-0.13325029611587524,2.045987606048584,4.106938362121582,0.24623258411884308,-0.9808538556098938,0.11768343299627304,0.8988264799118042
44,40136,40134,-0.019819654524326324,-0.003314852947369218,0.9324946403503418,-6.806619167327881,2.7767996788024902,0.17254115641117096,2.0471794605255127,4.10849142074585,0.24784445762634277,-1.0716761350631714,0.05370980128645897,0.8951670527458191
45,40146,40144,0.03751162439584732,-0.0672258734703064,0.9430469870567322,-7.2909345626831055,-0.024788642302155495,0.472627192735672,2.0482165813446045,4.1095499992370605,0.24940922856330872,-1.1072711944580078,-0.021186379715800285,0.8957685828208923
46,40156,40154,0.012312216684222221,-0.07455488294363022,0.9852337837219238,-5.869507312774658,-8.271391868591309,0.3597014248371124,2.047924757003784,4.111155033111572,0.2535431683063507,-1.0378986597061157,-0.01313216146081686,0.9176069498062134
47,40166,40164,-0.03194402903318405,-0.008241214789450169,0.9750127196311951,-5.128950119018555,-8.818380355834961,0.49937862157821655,2.0472757816314697,4.1102070808410645,0.25678545236587524,-0.9258955121040344,-0.21693354845046997,0.8904829025268555
48,40176,40174,0.01670145057141781,0.005221354775130749,1.0050904750823975,-3.634608745574951,-12.772293090820312,0.6487237215042114,2.046259641647339,4.11170768737793,0.2568725347518921,-0.7780550718307495,-0.09404812753200531,0.9350109100341797
49,40186,40184,-0.070341557264328,-0.010950521565973759,1.0390491485595703,-2.657749891281128,-12.274447441101074,0.011106827296316624,2.045701503753662,4.110970973968506,0.25850626826286316,-0.6695645451545715,-0.12900063395500183,0.9381067156791687
50,40196,40194,-0.09493343532085419,-0.0034409360960125923,1.017478108406067,-1.2817400693893433,-10.165800094604492,0.14662332832813263,2.044748067855835,4.108635425567627,0.25932297110557556,-0.4933042526245117,-0.0598953478038311,0.960978090763092
51,40206,40204,-0.025095762684941292,0.04362839087843895,0.976324737071991,-3.568258047103882,-3.9284937381744385,0.23283442854881287,2.0444047451019287,4.109870910644531,0.26096004247665405,-0.4540347754955292,-0.012703866697847843,0.9746634364128113
52,40216,40214,-0.012721099890768528,0.033687692135572433,0.9543493986129761,-6.586406230926514,1.9732643365859985,-0.17900758981704712,2.044426679611206,4.109105587005615,0.26256293058395386,-0.49940425157546997,-0.09460923075675964,0.966792106628418
53,40226,40224,0.03850175440311432,0.010523959062993526,0.9445169568061829,-9.353364944458008,5.100277900695801,-0.5488753914833069,2.043447971343994,4.110713958740234,0.26277369260787964,-0.5966203808784485,-0.2899640202522278,0.9359849691390991
54,40236,40234,0.10695965588092804,-0.019439805299043655,0.9522209763526917,-10.528071403503418,4.999248027801514,-0.7876192331314087,2.0436198711395264,4.1112494468688965,0.2642904818058014,-0.7682936787605286,-0.42457833886146545,0.9203663468360901
55,40246,40244,0.0943077877163887,-0.07887238264083862,0.9671978950500488,-8.40049934387207,0.13271741569042206,-1.6266820430755615,2.0444419384002686,4.111471176147461,0.26571425795555115,-0.8006904125213623,-0.5425549745559692,0.9038324952125549
56,40256,40254,-0.012184095568954945,0.005497837904840708,0.9680440425872803,-5.432126045227051,-2.212956190109253,-2.080106496810913,2.0439741611480713,4.111473560333252,0.2670494019985199,-0.8430882692337036,-0.6880683898925781,0.8752448558807373
57,40266,40264,0.0006333888159133494,0.024212392047047615,0.9734355211257935,-1.05996835231781,-6.828915119171143,-2.318225622177124,2.045114278793335,4.113753795623779,0.2683735191822052,-0.8151931762695312,-0.7604232430458069,0.8510750532150269
58,40276,40274,0.004494949243962765,0.03732818365097046,0.9453734159469604,2.0827019214630127,-10.972114562988281,-1.9868322610855103,2.045179843902588,4.1139678955078125,0.2696472108364105,-0.7214372158050537,-0.7586154341697693,0.8333239555358887
59,40286,40284,-0.028697874397039413,0.0588277131319046,0.934442937374115,4.949305534362793,-13.86125373840332,-1.9021378755569458,2.0447754859924316,4.113250255584717,0.27156272530555725,-0.4809458255767822,-0.5641242265701294,0.8409162163734436
60,40296,40294,-0.030753767117857933,0.0953739732503891,0.9550685286521912,5.548012733459473,-13.823358535766602,-0.7603761553764343,2.0441179275512695,4.111703872680664,0.2728748917579651,-0.2480030655860901,-0.506960928440094,0.8215217590332031
61,40306,40304,0.021871626377105713,-0.07630545645952225,0.9851675033569336,4.657156467437744,-10.863781929016113,-1.4315460920333862,2.0429861545562744,4.111857891082764,0.27405527234077454,-0.12924718856811523,-0.3813762664794922,0.825840413570404
62,40316,40314,0.03011154755949974,-0.03486177697777748,0.9305059313774109,2.6296584606170654,-7.387488842010498,-1.6042108535766602,2.0429797172546387,4.111440658569336,0.27517834305763245,-0.033446889370679855,-0.3430537283420563,0.8116762042045593
63,40326,40324,0.040153276175260544,-0.08165490627288818,0.9128463864326477,-1.6951358318328857,-1.8907898664474487,-1.3171378374099731,2.042520523071289,4.11313533782959,0.2804053723812103,-0.01935000531375408,-0.4102204442024231,0.7872580289840698
64,40336,40334,0.02473238669335842,-0.11611577123403549,0.9460965394973755,-3.7186222076416016,0.38548052310943604,-1.819941759109497,2.0436582565307617,4.1128668785095215,0.2829849123954773,-0.01291489228606224,-0.636533260345459,0.7440734505653381
65,40346,40344,0.019759340211749077,-0.04055791720747948,0.9705910086631775,-5.132864475250244,1.8497358560562134,-1.4730186462402344,2.0435545444488525,4.114964008331299,0.28304821252822876,-0.038740236312150955,-0.49774494767189026,0.7495066523551941
66,40356,40354,0.02396017499268055,-0.1440010368824005,0.9856334328651428,-2.8080782890319824,2.1355483531951904,-1.9417636394500732,2.0437071323394775,4.113403797149658,0.2841911017894745,-0.058914005756378174,-0.5404646992683411,0.7321031093597412
67,40366,40364,0.025435887277126312,0.06357546895742416,0.9449570775032043,0.18926577270030975,-0.5191317796707153,-2.163022994995117,2.0501973628997803,4.110040664672852,0.28539660573005676,-0.6743119955062866,-0.22158731520175934,0.8045224547386169
68,40376,40374,-0.016897592693567276,-0.056968700140714645,0.9863649606704712,0.30656203627586365,-5.601828098297119,-2.964761734008789,2.0494446754455566,4.110847473144531,0.2867770195007324,-0.6167296767234802,-0.27620697021484375,0.7663793563842773
69,40386,40384,-0.012805597856640816,-0.03343256935477257,0.9797881245613098,-1.5402026176452637,-16.368942260742188,-3.0277316570281982,2.0492613315582275,4.112170219421387,0.2883288860321045,-0.6380264759063721,-0.27192866802215576,0.7491200566291809
70,40396,40394,-0.0873270332813263,-0.04723329469561577,0.9896957278251648,-3.843637228012085,-21.952035903930664,-2.7470672130584717,2.0508453845977783,4.111886501312256,0.28932511806488037,-0.4214727580547333,-0.3052332401275635,0.7210512161254883
71,40406,40404,-0.08112260699272156,0.03154894709587097,0.9228219985961914,-7.157324314117432,-26.465614318847656,-2.104780912399292,2.049570322036743,4.1117472648620605,0.290870726108551,0.14204785227775574,-0.4724007844924927,0.6610134243965149
72,40416,40414,-0.05343696475028992,0.0917973667383194,0.9161041975021362,-7.44635009765625,-28.523542404174805,-1.2317347526550293,2.0488879680633545,4.111689567565918,0.2920396029949188,0.24149608612060547,-0.4976028800010681,0.6688081622123718
73,40426,40424,0.0011248684022575617,-0.0337965153157711,0.9425981044769287,-7.24075174331665,-22.009593963623047,-1.0761370658874512,2.050877809524536,4.110201835632324,0.2941736578941345,0.6297162175178528,-0.5905835628509521,0.6464372277259827
74,40436,40434,-0.016891971230506897,0.053774118423461914,0.9482713937759399,-6.298882484436035,-9.792672157287598,-0.9580414891242981,2.0491724014282227,4.111068248748779,0.29521384835243225,0.6297162175178528,-0.5905835628509521,0.6464372277259827
75,40446,40444,-0.053710345178842545,0.0686597153544426,0.9501488208770752,-3.6901535987854004,4.0098347663879395,-0.8618393540382385,2.0496723651885986,4.111685276031494,0.2962096929550171,0.7602630257606506,-0.7740974426269531,0.6251463890075684
76,40456,40454,-0.01717638038098812,0.10190189629793167,0.9613112807273865,-0.8152875900268555,15.778459548950195,-0.19548700749874115,2.049656629562378,4.111091136932373,0.2988039553165436,0.5800026655197144,-0.831087052822113,0.6202287673950195
77,40466,40464,-0.012638450600206852,0.10998572409152985,0.9622860550880432,2.3246829509735107,23.896825790405273,-0.7754687070846558,2.0505337715148926,4.110511302947998,0.2997593879699707,0.5800026655197144,-0.831087052822113,0.6202287673950195
78,40476,40474,-0.01783084310591221,-0.0041686431504786015,0.9617781639099121,3.659214973449707,20.317394256591797,-0.14688952267169952,2.051370859146118,4.109734058380127,0.3006402850151062,0.10794812440872192,-0.7941836714744568,0.6048954129219055
79,40486,40484,0.019437192007899284,0.07615835219621658,0.9712073802947998,4.237471103668213,17.888166427612305,-0.6451906561851501,2.0512919425964355,4.110046863555908,0.29839688539505005,0.10794812440872192,-0.7941836714744568,0.6048954129219055
80,40496,40494,0.004937686491757631,0.03223156929016113,0.969545304775238,3.615920305252075,5.7720770835876465,0.1693153977394104,2.0503127574920654,4.1088409423828125,0.2991303503513336,-0.022555606439709663,-0.7097964882850647,0.5807379484176636
81,40506,40504,0.007629618514329195,-0.013318494893610477,0.9930693507194519,3.694387197494507,-1.138475775718689,0.18657797574996948,2.050213098526001,4.110893726348877,0.2998497784137726,-0.022555606439709663,-0.7097964882850647,0.5807379484176636
82,40516,40514,0.03839927911758423,-0.10981211811304092,0.9858198165893555,3.4370315074920654,-5.956929683685303,0.7034553289413452,2.0507359504699707,4.113119125366211,0.30054038763046265,0.008193272165954113,-0.8251556158065796,0.5697734355926514
83,40526,40524,0.05951797962188721,-0.162092387676239,0.9737495183944702,2.121415376663208,-6.4036102294921875,0.9462504386901855,2.0502891540527344,4.113096714019775,0.30203932523727417,0.12258663773536682,-0.7728990316390991,0.5658605098724365
84,40536,40534,0.055167004466056824,-0.17876611649990082,0.9702616333961487,2.742060661315918,0.18688620626926422,0.20520074665546417,2.051645040512085,4.113723278045654,0.3027305603027344,0.19157741963863373,-0.727688729763031,0.5713361501693726
85,40546,40544,0.00781081710010767,-0.02805655263364315,0.9827873110771179,3.1340079307556152,3.598794937133789,0.7539193034172058,2.0510666370391846,4.113650321960449,0.3034404218196869,0.21099220216274261,-0.7022246718406677,0.574604332447052
86,40556,40554,0.005746918264776468,-0.13958792388439178,1.0228170156478882,4.777431964874268,6.536459922790527,1.054722547531128,2.052366256713867,4.113765716552734,0.3044087290763855,0.09140623360872269,-0.6541650295257568,0.5867123603820801
87,40566,40564,-0.017122378572821617,-0.14095911383628845,1.0310734510421753,5.024833679199219,13.039841651916504,0.1050153449177742,2.052901029586792,4.113478660583496,0.30508142709732056,0.0016799659933894873,-0.5862574577331543,0.59810471534729
88,40576,40574,-0.005745036527514458,-0.04214068129658699,0.9992743134498596,4.839213848114014,15.847846984863281,0.5461458563804626,2.0529730319976807,4.11572790145874,0.3058535158634186,-0.031127391383051872,-0.5905671715736389,0.5889503359794617
89,40586,40584,0.02257453463971615,-0.030421540141105652,0.9593631029129028,4.225264549255371,15.016667366027832,0.03411368653178215,2.0536491870880127,4.117125034332275,0.3060798645019531,-0.27755630016326904,-0.6288228034973145,0.5971084833145142
90,40596,40594,0.026268448680639267,-0.04062972590327263,0.9535083174705505,5.0114922523498535,12.032058715820312,-0.04681513458490372,2.054661989212036,4.118373394012451,0.3067142367362976,-0.438309907913208,-0.5839155912399292,0.5975521802902222
91,40606,40604,0.019576476886868477,-0.009356961585581303,0.9705559015274048,5.52703332901001,8.559623718261719,0.08056964725255966,2.05460524559021,4.12022590637207,0.30742788314819336,-0.4691399037837982,-0.5629191398620605,0.5848652720451355
92,40616,40614,0.003507556626573205,0.011766158044338226,0.978820264339447,6.767578125,5.60745096206665,0.022508282214403152,2.0562477111816406,4.1218438148498535,0.30731698870658875,-0.6915172934532166,-0.5290112495422363,0.5913746356964111
93,40626,40624,-0.03968609869480133,-0.07430257648229599,1.0253653526306152,8.843582153320312,3.875044584274292,0.16619275510311127,2.0567634105682373,4.123903751373291,0.30783921480178833,-0.7468190789222717,-0.5562867522239685,0.5859150886535645
94,40636,40634,-0.03827238455414772,-0.03640507534146309,0.9879854917526245,11.19978141784668,0.15370295941829681,0.334939569234848,2.056349515914917,4.12394380569458,0.3083941340446472,-0.7276830077171326,-0.36252477765083313,0.593252420425415
95,40646,40644,0.024872267618775368,-0.048698339611291885,0.9443091154098511,12.321394920349121,-0.05597275123000145,0.2970429062843323,2.056168556213379,4.124401092529297,0.3090425431728363,-0.7434315085411072,-0.24664287269115448,0.5962074995040894
96,40656,40654,0.02426290325820446,-0.11158658564090729,0.9381657838821411,12.017547607421875,0.49737349152565,0.4315386712551117,2.0564486980438232,4.1266632080078125,0.3101021349430084,-0.6990137696266174,-0.24600373208522797,0.5866297483444214
97,40666,40664,0.025898518040776253,-0.09560271352529526,0.9407060742378235,11.579266548156738,2.9773521423339844,0.8281154632568359,2.05611515045166,4.12559700012207,0.31069400906562805,-0.6527829766273499,0.007761288899928331,0.6037366390228271
98,40676,40674,-0.04241179674863815,-0.04867248237133026,0.9842255115509033,9.37126350402832,5.562878131866455,0.4241926372051239,2.056835889816284,4.127166748046875,0.311307430267334,-0.6703720092773438,0.13953588902950287,0.6123819947242737
99,40686,40684,-0.030196521431207657,0.022242728620767593,1.022404432296753,5.754217624664307,6.316792964935303,-0.08076125383377075,2.05757999420166,4.129086971282959,0.30915650725364685,-0.7226094603538513,0.08917655795812607,0.6036510467529297
100,40696,40694,-0.021094562485814095,0.04777800664305687,1.0108591318130493,3.5651259422302246,5.822602272033691,-0.3782326281070709,2.057171583175659,4.130212783813477,0.3094772398471832,-0.7914305329322815,0.14590221643447876,0.6040909886360168
101,40706,40704,-0.026726946234703064,0.04164682701230049,0.9589033722877502,1.1303095817565918,4.921518325805664,0.29837989807128906,2.058908224105835,4.1309661865234375,0.30977505445480347,-0.9204159379005432,0.20160335302352905,0.6071074604988098
102,40716,40714,0.007475773338228464,-0.034184444695711136,0.9600769877433777,1.7384196519851685,3.387691020965576,0.3403516709804535,2.059196949005127,4.131729602813721,0.3061148226261139,-1.0277036428451538,0.26263517141342163,0.6150471568107605
103,40726,40724,-0.006059570703655481,-0.005051339976489544,0.9934738874435425,5.015937805175781,2.5121326446533203,0.22103530168533325,2.0603930950164795,4.131600379943848,0.30612635612487793,-1.0639641284942627,0.2812232971191406,0.6185458302497864
104,40736,40734,-0.03426721692085266,0.12184081226587296,0.9642087817192078,6.806038856506348,0.27793318033218384,0.21530196070671082,2.060516357421875,4.13281774520874,0.3061600625514984,-1.155650019645691,0.3151642680168152,0.621802568435669
105,40746,40744,-0.008349446579813957,0.052479349076747894,0.9711533784866333,7.275659084320068,-1.4367876052856445,1.049512505531311,2.0614075660705566,4.131785869598389,0.3060757517814636,-1.1578253507614136,0.37569284439086914,0.6263083815574646
106,40756,40754,0.007822505198419094,0.03906383365392685,0.9993294477462769,7.828779697418213,-1.3020005226135254,1.1893976926803589,2.0601789951324463,4.130861759185791,0.3066568076610565,-1.1544924974441528,0.438567191362381,0.6386772394180298
107,40766,40764,0.0010336022824048996,0.030941717326641083,1.0094066858291626,7.068427562713623,-2.141306161880493,1.4967492818832397,2.0610010623931885,4.131975173950195,0.3065895736217499,-1.1377187967300415,0.5150555372238159,0.6506034731864929
108,40776,40774,0.018210450187325478,-0.10521047562360764,0.9836551547050476,5.4138336181640625,-3.1455307006835938,1.6684118509292603,2.0626399517059326,4.134397983551025,0.306477814912796,-1.0822752714157104,0.6441682577133179,0.6750501990318298
109,40786,40784,-0.034187283366918564,-0.229669988155365,1.048182725906372,3.564281463623047,-6.775791645050049,1.9621574878692627,2.0626158714294434,4.134963035583496,0.3077855408191681,-1.0902847051620483,0.6679617762565613,0.689215362071991
110,40796,40794,-0.07083667069673538,-0.27526581287384033,1.071555495262146,1.9345974922180176,-3.955467700958252,1.5157806873321533,2.063011884689331,4.137335300445557,0.3078223466873169,-0.9377944469451904,0.7417250275611877,0.7179387211799622
111,40806,40804,-0.020151354372501373,-0.17620134353637695,0.9768140316009521,-0.07814005762338638,0.30443841218948364,1.5748567581176758,2.0624139308929443,4.13798713684082,0.3080246150493622,-0.9076291918754578,0.7653502225875854,0.7330560684204102
112,40816,40814,-0.012739276513457298,-0.03838338330388069,0.9593157172203064,-1.8685411214828491,-0.4115663766860962,1.476686954498291,2.0627148151397705,4.137594699859619,0.3080996572971344,-0.920660674571991,0.7821537852287292,0.7510397434234619
113,40826,40824,0.004077563993632793,0.018465446308255196,1.0304136276245117,-3.3362772464752197,-0.1108124852180481,2.683100938796997,2.0633068084716797,4.137975215911865,0.308230996131897,-0.9968729019165039,0.7549664378166199,0.7569485306739807
114,40836,40834,0.07428210228681564,-0.13143864274024963,1.0185571908950806,-3.257059097290039,-2.0537571907043457,2.3887228965759277,2.0648233890533447,4.138509750366211,0.30831506848335266,-0.9776046276092529,0.7923466563224792,0.791660487651825
115,40846,40844,0.021012188866734505,-0.11051476746797562,1.027999758720398,-3.350024461746216,-1.6072996854782104,2.38848614692688,2.0649969577789307,4.138643264770508,0.3085368871688843,-0.9653676748275757,0.761027991771698,0.8146296739578247
116,40856,40854,0.01670953817665577,-0.04024193435907364,1.012083649635315,-2.1389317512512207,-1.7501170635223389,2.446444034576416,2.0666487216949463,4.138847827911377,0.3053881525993347,-0.9805431962013245,0.6221538186073303,0.8177862763404846
117,40866,40864,-0.013161410577595234,0.06785352528095245,0.9824626445770264,-0.998529314994812,-1.578859806060791,2.561431407928467,2.067267656326294,4.139847755432129,0.30543363094329834,-0.8611922264099121,0.6804674863815308,0.8664653301239014
118,40876,40874,0.023828931152820587,0.1039513349533081,0.9126754403114319,-0.10965266078710556,-2.4583797454833984,3.094816207885742,2.0672616958618164,4.139092445373535,0.3055477440357208,-1.121303915977478,0.667346715927124,0.8626487851142883
119,40886,40884,0.03475559130311012,0.12349627166986465,0.9708396792411804,-0.1802878975868225,-2.831634521484375,3.744359254837036,2.070221185684204,4.13780403137207,0.30339494347572327,-0.9522132873535156,0.6621648073196411,0.9105777144432068
120,40896,40894,0.015302027575671673,0.08765672892332077,1.0254952907562256,1.0487315654754639,-6.19264030456543,4.074697494506836,2.0696208477020264,4.137646675109863,0.3033321797847748,-0.909209668636322,0.6598510146141052,0.9481129050254822
121,40906,40904,-0.014286285266280174,-0.05871637538075447,1.0363694429397583,0.8572114706039429,-6.986635684967041,4.339577674865723,2.0702757835388184,4.137092590332031,0.3032137453556061,-0.9385896325111389,0.6782614588737488,0.979499340057373
122,40916,40914,-0.003863458288833499,-0.008432798087596893,1.0317240953445435,-1.1802564859390259,-5.694916248321533,5.084380149841309,2.0730607509613037,4.13658332824707,0.30394095182418823,-0.7895082235336304,0.6766681671142578,1.0283583402633667
123,40926,40924,0.008625918067991734,-0.03456920385360718,1.019126534461975,-2.824626922607422,-6.4632649421691895,5.642942428588867,2.0737364292144775,4.136691093444824,0.30394914746284485,-0.6542389392852783,0.6476399898529053,1.0826663970947266
124,40936,40934,-0.02832668647170067,0.017772262915968895,1.0522582530975342,-4.928470611572266,-6.650509357452393,6.044040203094482,2.073996067047119,4.136946678161621,0.3039719760417938,-0.597128689289093,0.6204348206520081,1.1360746622085571
125,40946,40944,0.050709035247564316,-0.1028565838932991,1.0675076246261597,-4.711150169372559,-6.789319038391113,5.690197944641113,2.0766494274139404,4.1363372802734375,0.3038438558578491,-0.6104167699813843,0.5737893581390381,1.1843457221984863
126,40956,40954,0.008418099023401737,-0.05981825292110443,1.0625252723693848,-3.811426877975464,-4.2545671463012695,5.385497570037842,2.076805830001831,4.137020587921143,0.3022567331790924,-0.7227118611335754,0.5736780166625977,1.2258795499801636
127,40966,40964,0.03567381575703621,0.005885977763682604,0.9834249019622803,-2.285466194152832,-0.7244382500648499,5.198831081390381,2.079615592956543,4.136810779571533,0.3021377623081207,-0.555833637714386,0.5086715221405029,1.2897268533706665
128,40976,40974,0.055586978793144226,-0.013418630696833134,0.9359037280082703,-2.1052064895629883,-3.959155797958374,5.600528240203857,2.0799930095672607,4.13796854019165,0.3023838996887207,-0.5467521548271179,0.4827354848384857,1.3414009809494019
129,40986,40984,0.04717300459742546,-0.08702563494443893,1.0017240047454834,-0.6839315295219421,-10.162005424499512,6.093383312225342,2.081557035446167,4.138015270233154,0.3014904260635376,-0.6142966747283936,0.505411684513092,1.3872032165527344
130,40996,40994,-0.00928466022014618,-0.028093116357922554,1.03874671459198,-0.10898204147815704,-10.986042976379395,6.642392635345459,2.0829083919525146,4.137139797210693,0.30137962102890015,-0.5143083930015564,0.49918803572654724,1.445564866065979
131,41006,41004,-0.007967526093125343,-0.090780109167099,1.050962209701538,0.9606069922447205,-10.9942626953125,7.060332775115967,2.08428955078125,4.137190818786621,0.3012670576572418,-0.29357969760894775,0.47020530700683594,1.5255529880523682
132,41016,41014,-0.007147892378270626,0.04455484449863434,0.9503479599952698,-1.1891536712646484,-6.832181453704834,7.259724140167236,2.083153486251831,4.137130260467529,0.30373090505599976,-0.31408244371414185,0.5279362201690674,1.5774637460708618
133,41026,41024,0.00875862967222929,0.12254264205694199,1.0097485780715942,-5.047321796417236,-6.887078762054443,6.0321269035339355,2.0858726501464844,4.137416362762451,0.303747296333313,-0.12476467341184616,0.5388763546943665,1.6600712537765503
134,41036,41034,0.01410757191479206,0.03055700659751892,1.055816411972046,-6.248953342437744,-6.217247486114502,5.33467435836792,2.0861799716949463,4.137219429016113,0.3039626181125641,-0.03753044083714485,0.4259527325630188,1.7283047437667847
135,41046,41044,-0.06025407463312149,0.07198723405599594,1.0177947282791138,-5.786959171295166,-6.040886402130127,6.138674736022949,2.087568521499634,4.140564918518066,0.301082968711853,-0.11206861585378647,0.3795759975910187,1.7821557521820068
136,41056,41054,-0.014649934135377407,0.03531617671251297,1.0714197158813477,-6.483447074890137,-5.4711151123046875,6.867050647735596,2.0882253646850586,4.138842582702637,0.3009481132030487,0.12395276129245758,0.4044002592563629,1.8552820682525635
137,41066,41064,0.016251306980848312,0.042560555040836334,1.1229898929595947,-2.7982850074768066,-5.510112762451172,6.06899881362915,2.0869243144989014,4.138553142547607,0.30120840668678284,0.1807921826839447,0.29604455828666687,1.914121389389038
138,41076,41074,-0.03189392760396004,0.03161660209298134,1.0824414491653442,-1.993834376335144,0.5394853353500366,6.140666961669922,2.0883772373199463,4.1406073570251465,0.301423579454422,0.22358275949954987,0.261772096157074,1.9910162687301636
139,41086,41084,-0.04795664921402931,0.12226440012454987,0.9776164293289185,-1.582781434059143,2.0572257041931152,5.811933994293213,2.090808629989624,4.139964580535889,0.3042791485786438,0.07954905182123184,0.23552793264389038,2.038086175918579
140,41096,41094,-0.02425662986934185,0.07374520599842072,1.0203592777252197,-3.5215821266174316,2.856884479522705,5.893700122833252,2.0926594734191895,4.140138149261475,0.3047391474246979,0.0656244084239006,0.2211787849664688,2.093437433242798
141,41106,41104,0.00020677722932305187,-0.053918708115816116,1.064884901046753,-4.475259780883789,-2.5798065662384033,5.9021782875061035,2.092778205871582,4.137696743011475,0.3052808344364166,0.15666675567626953,0.2867707312107086,2.1604936122894287
142,41116,41114,-0.033854447305202484,-0.03669024258852005,1.064336895942688,-4.703583240509033,-4.900497913360596,5.5865960121154785,2.093510150909424,4.138728618621826,0.30738407373428345,0.24227821826934814,0.17763429880142212,2.2250280380249023
143,41126,41124,-0.08136411756277084,0.06265000998973846,0.9863718152046204,-7.056506633758545,-2.874727725982666,5.882150650024414,2.0940372943878174,4.138994216918945,0.3082045912742615,0.18213202059268951,0.19818907976150513,2.272609233856201
144,41136,41134,-0.026171252131462097,0.10673166066408157,0.9873616695404053,-8.944276809692383,-3.9349963665008545,5.3447699546813965,2.095315933227539,4.137786388397217,0.3088952600955963,0.20897185802459717,0.10439451783895493,2.330961227416992
145,41146,41144,-0.02654450573027134,0.03050166182219982,1.0240933895111084,-6.7470855712890625,-5.128322601318359,4.769923686981201,2.0967254638671875,4.138400554656982,0.30941301584243774,0.24835442006587982,0.012460651807487011,2.385733127593994
146,41157,41154,-0.08875977993011475,0.0736074298620224,0.9900277256965637,-4.327566623687744,-3.4232661724090576,4.98041296005249,2.0986387729644775,4.138575553894043,0.3101770281791687,0.21132014691829681,-0.04834460839629173,2.44651198387146
147,41166,41164,-0.04082057252526283,0.0844964012503624,0.9235110282897949,-2.689516067504883,-4.4137396812438965,5.478474140167236,2.1002326011657715,4.139204025268555,0.31082072854042053,0.3367054760456085,-0.07653134316205978,2.5007553100585938
148,41176,41174,-0.02139688841998577,0.014701706357300282,0.995612621307373,-2.271991014480591,-4.434514999389648,5.032510280609131,2.101365327835083,4.139904499053955,0.3116454780101776,0.3795517385005951,-0.08569220453500748,2.5656800270080566
149,41186,41184,-0.022098958492279053,-0.03127460181713104,1.060335636138916,-1.344093918800354,-3.870006799697876,5.0330047607421875,2.1026439666748047,4.1393585205078125,0.3103671371936798,0.416672021150589,-0.08182486146688461,2.6141247749328613
150,41196,41194,-0.01571289449930191,-0.07906384766101837,1.0117003917694092,-1.8689879179000854,0.6687770485877991,4.345999717712402,2.10416579246521,4.138484477996826,0.3109787106513977,0.48799264430999756,-0.15043379366397858,2.6673166751861572
151,41206,41204,-0.06890618801116943,-0.00115109677426517,0.9952553510665894,-1.6813287734985352,2.5367398262023926,3.9052865505218506,2.10496187210083,4.138647079467773,0.3116764426231384,0.5066619515419006,-0.1404992938041687,2.707974672317505
152,41216,41214,0.04943381994962692,-0.020999740809202194,0.8970814347267151,-3.8088862895965576,6.312227725982666,3.5352306365966797,2.105379104614258,4.137862682342529,0.31103456020355225,0.25301453471183777,-0.15501409769058228,2.740809202194214
153,41226,41224,0.08062297850847244,-0.13162772357463837,0.9403482675552368,-5.404071807861328,4.346316337585449,3.0161848068237305,2.1085591316223145,4.138833522796631,0.3113348186016083,0.30550602078437805,-0.1926489770412445,2.7933247089385986
154,41236,41234,0.037999458611011505,-0.1822904348373413,0.9664850234985352,-6.0051069259643555,2.273005723953247,2.3846330642700195,2.1082022190093994,4.137844562530518,0.3118996024131775,0.363751083612442,-0.3237358629703522,2.8193461894989014
155,41246,41244,-0.002682959660887718,-0.1080671176314354,0.9506022334098816,-5.264588356018066,1.691145420074463,2.4578263759613037,2.108100652694702,4.1393914222717285,0.31264230608940125,0.27222874760627747,-0.3049766421318054,2.8469467163085938
156,41256,41254,0.01408237311989069,0.0032919326331466436,0.9518356919288635,-4.584190845489502,-0.8015280365943909,1.5610191822052002,2.1089935302734375,4.137128829956055,0.31293848156929016,0.25195300579071045,-0.3593616485595703,2.8685107231140137
157,41266,41264,-0.06548026204109192,0.05225783959031105,1.0152682065963745,-2.864098310470581,-4.578005313873291,1.6040966510772705,2.1080987453460693,4.13655424118042,0.31338822841644287,0.4484677016735077,-0.46006301045417786,2.880082845687866
158,41276,41274,-0.06590637564659119,0.022549251094460487,1.0552411079406738,-1.5111714601516724,-5.18110466003418,1.3691524267196655,2.108445882797241,4.136962413787842,0.3155377209186554,0.3879716396331787,-0.4541500210762024,2.9024922847747803
159,41286,41284,-0.0615159273147583,0.07301322370767593,1.0535873174667358,0.3317558169364929,0.7664443850517273,1.0660442113876343,2.110414505004883,4.136447906494141,0.3159523606300354,0.52325040102005,-0.4995638430118561,2.915961265563965
160,41296,41294,-0.05758735537528992,0.1793966144323349,0.9767862558364868,-0.9808791875839233,5.06887149810791,1.477474570274353,2.110898733139038,4.136022090911865,0.3166063129901886,0.41552218794822693,-0.5374761819839478,2.931577682495117
161,41306,41304,-0.05149891972541809,-0.015289225615561008,0.9985300898551941,-1.8984298706054688,10.305769920349121,1.5217863321304321,2.112578868865967,4.13568639755249,0.3170790672302246,0.32734349370002747,-0.5088077783584595,2.9396655559539795
162,41316,41314,0.014837515540421009,-0.062279071658849716,1.0032117366790771,-2.4779739379882812,5.282718181610107,1.5941954851150513,2.1140904426574707,4.136148452758789,0.3178766071796417,0.24080023169517517,-0.4192460775375366,2.952627182006836
163,41326,41324,0.038363706320524216,-0.05852813646197319,0.9522584676742554,-3.347285270690918,4.764072895050049,1.691042423248291,2.115809917449951,4.1355438232421875,0.3184603452682495,0.17801707983016968,-0.4484521746635437,2.9876298904418945
164,41336,41334,0.0011786771938204765,-0.09016479551792145,0.9384178519248962,-5.006529808044434,2.1345579624176025,1.9039294719696045,2.1158530712127686,4.136420726776123,0.3189827501773834,0.22350972890853882,-0.45509788393974304,2.985802412033081
165,41346,41344,-0.013680767267942429,-0.03506862372159958,0.9566270709037781,-5.896967887878418,-0.8115986585617065,2.622805118560791,2.1162025928497314,4.135676860809326,0.318076491355896,0.15371327102184296,-0.5864519476890564,3.0058183670043945
166,41356,41354,0.032589565962553024,-0.1891944855451584,0.9900084733963013,-5.332805156707764,-5.330974578857422,3.1497726440429688,2.1169545650482178,4.135592937469482,0.3183915913105011,0.14786063134670258,-0.4779193699359894,3.0215904712677
167,41366,41364,-0.01945713721215725,-0.13980229198932648,1.0470285415649414,-4.322480201721191,-6.363218307495117,2.857964515686035,2.118065357208252,4.134343147277832,0.3186683654785156,0.10349932312965393,-0.5314024686813354,3.06463885307312
168,41376,41374,-0.034250661730766296,-0.06570201367139816,1.0098180770874023,-2.56636118888855,1.1020703315734863,2.9500136375427246,2.1196742057800293,4.134535789489746,0.3175666034221649,0.1680149883031845,-0.6400663256645203,3.1189334392547607
169,41386,41384,0.05407046526670456,-0.1299229860305786,0.9381576180458069,-2.420079231262207,2.2016584873199463,3.5109214782714844,2.1200435161590576,4.1360368728637695,0.3178664445877075,0.16688431799411774,-0.6482294201850891,3.154366970062256
170,41396,41394,-0.009162970818579197,0.062314700335264206,0.9323419332504272,-2.839294672012329,2.25136137008667,3.8505771160125732,2.120492458343506,4.136391639709473,0.3180859386920929,0.2400696873664856,-0.6572623252868652,3.1898629665374756
171,41406,41404,-0.002654776908457279,0.08502545207738876,0.9997997283935547,-3.960266351699829,1.121196985244751,3.3257524967193604,2.120361804962158,4.135510444641113,0.31836551427841187,0.24099957942962646,-0.6766607165336609,3.2264516353607178
172,41416,41414,-0.09120981395244598,0.1402328908443451,0.979107141494751,-3.0021770000457764,-0.36493542790412903,3.8078906536102295,2.1208672523498535,4.135558128356934,0.3165911138057709,0.020918238908052444,-0.6959719061851501,3.287982940673828
173,41426,41424,-0.06494549661874771,0.04605266824364662,0.9773854613304138,-3.168855905532837,2.058065176010132,3.6388237476348877,2.1241986751556396,4.135138511657715,0.3164903223514557,0.020677920430898666,-0.7251907587051392,3.3256888389587402
174,41436,41434,0.051491715013980865,-0.048716913908720016,0.9497384428977966,-3.905117988586426,0.22965079545974731,3.0854310989379883,2.123398542404175,4.135171890258789,0.31665700674057007,0.19535280764102936,-0.8887315988540649,3.350463628768921
175,41446,41444,0.07339632511138916,-0.17208921909332275,1.0291030406951904,-2.8311119079589844,-0.10290095210075378,2.689563274383545,2.1236016750335693,4.135103225708008,0.3133162260055542,0.13026989996433258,-0.8972969651222229,3.3809049129486084
176,41456,41454,0.029929783195257187,-0.09703141450881958,0.9858667254447937,-0.9886865615844727,-2.1267290115356445,2.6470954418182373,2.1249170303344727,4.134801387786865,0.31305164098739624,0.1372814029455185,-0.9231365323066711,3.4090709686279297
177,41466,41464,0.0061963824555277824,-0.05754399672150612,0.9451563358306885,0.4906509518623352,0.40540698170661926,2.103088140487671,2.1241190433502197,4.1342573165893555,0.3129488229751587,0.2747510075569153,-0.9561392664909363,3.4060869216918945
178,41476,41474,-0.029412399977445602,0.013138433918356895,1.0243726968765259,0.7734259366989136,-1.1574736833572388,1.9286245107650757,2.1262431144714355,4.133370876312256,0.3091816008090973,0.1338612139225006,-0.8898674845695496,3.4394476413726807
179,41486,41484,0.031284186989068985,-0.10839539021253586,0.9928684234619141,1.6169300079345703,-0.28280651569366455,2.284278154373169,2.1263160705566406,4.132330417633057,0.30875152349472046,0.15784487128257751,-0.8236377835273743,3.4548797607421875
180,41496,41494,0.01778690330684185,-0.18798474967479706,1.0123085975646973,1.7863576412200928,-0.8363133072853088,2.0283851623535156,2.127929210662842,4.1323561668396,0.3082645833492279,0.13178645074367523,-0.8301979303359985,3.4851090908050537
181,41506,41504,0.0007045534439384937,-0.03292391076683998,0.9752255082130432,-1.2284061908721924,3.6913628578186035,1.628156065940857,2.1287341117858887,4.13238525390625,0.30776533484458923,0.10174257308244705,-0.8312235474586487,3.5098979473114014
182,41516,41514,0.00041844972292892635,-0.047535404562950134,0.9896851181983948,-3.0058109760284424,2.679048776626587,1.311751365661621,2.1291422843933105,4.133219242095947,0.310651570558548,0.15270976722240448,-0.8814570307731628,3.5306715965270996
183,41526,41524,-0.001826341263949871,-0.006703704595565796,1.0287744998931885,-4.132822036743164,1.6411772966384888,1.3122138977050781,2.1294844150543213,4.133460998535156,0.31050899624824524,0.28988274931907654,-0.8501556515693665,3.5370066165924072
184,41536,41534,0.01762234978377819,-0.07639061659574509,1.0314319133758545,-3.653860330581665,0.3923831284046173,1.1569688320159912,2.1293752193450928,4.133212089538574,0.310301274061203,0.2017381340265274,-0.9404281973838806,3.561933994293213
185,41546,41544,-0.0619911253452301,0.06137219816446304,1.0624157190322876,-1.992794394493103,2.0394792556762695,0.4938001334667206,2.1311233043670654,4.133362293243408,0.3095799386501312,0.19031423330307007,-0.974593997001648,3.5792784690856934
186,41556,41554,0.023024696856737137,-0.04765872657299042,0.9757314920425415,0.4894963502883911,4.750380516052246,-0.28913211822509766,2.132549524307251,4.1313910484313965,0.3093187212944031,0.07664287090301514,-0.8626323938369751,3.564099073410034
187,41566,41564,-0.011177662760019302,0.03712482377886772,0.9762771725654602,2.5077221393585205,3.551490068435669,0.638988196849823,2.1324009895324707,4.132084846496582,0.309192955493927,0.0398462638258934,-0.8756392598152161,3.5605382919311523
188,41576,41574,-0.07903166860342026,0.15964791178703308,0.9866103529930115,3.052842855453491,4.295938491821289,0.49982160329818726,2.133676052093506,4.13225793838501,0.30688899755477905,0.0016601990209892392,-0.8433961272239685,3.5816848278045654
189,41586,41584,-0.04698661342263222,0.008905038237571716,1.0599898099899292,2.957850694656372,1.8938021659851074,0.22987785935401917,2.1335580348968506,4.132199764251709,0.30661794543266296,0.036637358367443085,-0.8208836317062378,3.5781466960906982
190,41596,41594,-0.00010726380423875526,-0.04429616779088974,1.0350717306137085,0.5946127772331238,0.9364027976989746,-0.1829390674829483,2.1352052688598633,4.133350372314453,0.30625036358833313,0.11428019404411316,-0.8854671716690063,3.579026937484741
191,41606,41604,0.018611229956150055,0.006959082093089819,1.038107991218567,-0.26836320757865906,0.1117563396692276,-0.5100091099739075,2.1343770027160645,4.13322639465332,0.30476510524749756,0.10984121263027191,-0.8798997402191162,3.575169801712036
192,41616,41614,0.01527008693665266,-0.16007578372955322,1.045941710472107,-0.3450903594493866,-0.5224634408950806,-0.7904524207115173,2.1356382369995117,4.13432502746582,0.3044765889644623,0.04604888707399368,-0.9082006812095642,3.5910208225250244
193,41626,41624,0.001501095131970942,-0.03819834440946579,1.0429142713546753,0.7078405022621155,-0.9351897239685059,-0.9505312442779541,2.137336015701294,4.134986400604248,0.30419105291366577,0.05076735466718674,-0.9098582863807678,3.5928492546081543
194,41636,41634,-0.043189339339733124,0.03335045650601387,1.0392605066299438,1.8459789752960205,1.8954999446868896,-0.826104462146759,2.1371982097625732,4.135509490966797,0.30399030447006226,0.15533806383609772,-0.885620653629303,3.5811383724212646
195,41646,41644,0.010032129473984241,0.04617569223046303,1.1033910512924194,3.476407289505005,3.5897574424743652,-0.841574490070343,2.137699842453003,4.137199878692627,0.30214062333106995,0.11792690306901932,-0.8428781628608704,3.6333513259887695
196,41656,41654,0.03387943282723427,0.039090346544981,1.108474850654602,4.702547073364258,6.314610004425049,-1.1051369905471802,2.138504981994629,4.13720178604126,0.3019394874572754,0.11632256954908371,-0.7760366797447205,3.6139817237854004
197,41666,41664,0.03996796905994415,-0.11213931441307068,1.0847663879394531,3.8842475414276123,8.05288314819336,-0.4272410273551941,2.139683246612549,4.1388092041015625,0.3019033372402191,0.04963972792029381,-0.729762613773346,3.6351468563079834
198,41676,41674,0.05573588237166405,-0.15929675102233887,1.0873584747314453,3.598813056945801,7.440253257751465,-2.0051894187927246,2.1410467624664307,4.1397705078125,0.3011853098869324,-0.2801643908023834,-0.7998315691947937,3.6497902870178223
199,41686,41684,-0.01114987675100565,-0.05472281202673912,1.0506693124771118,3.0853004455566406,6.377911567687988,-2.2074344158172607,2.143439292907715,4.138581275939941,0.3011341691017151,-0.21217717230319977,-0.7356849908828735,3.5967440605163574
200,41696,41694,0.0008924001595005393,-0.019307570531964302,1.0187325477600098,3.6913082599639893,5.255476474761963,-2.0029594898223877,2.143317937850952,4.138340950012207,0.30141833424568176,-0.29279932379722595,-0.7451151013374329,3.577507734298706
201,41706,41704,0.008215892128646374,-0.09182843565940857,1.0347118377685547,3.4114742279052734,0.35070690512657166,-1.4862971305847168,2.143979072570801,4.139598369598389,0.3023993670940399,-0.34282657504081726,-0.7115210294723511,3.5740861892700195
202,41716,41714,0.04107217490673065,-0.1779002994298935,1.0462286472320557,5.4470648765563965,-3.008498430252075,-1.6682167053222656,2.1438803672790527,4.140244960784912,0.30267754197120667,-0.1415477842092514,-0.6617506146430969,3.5395798683166504
203,41726,41724,-0.009510915726423264,-0.0346200093626976,1.043739914894104,7.033517837524414,-3.3567349910736084,-1.845088005065918,2.143589496612549,4.139328956604004,0.3030177354812622,-0.24457494914531708,-0.5412328243255615,3.5239553451538086
204,41736,41734,-0.019268041476607323,-0.01681937463581562,1.0280345678329468,6.4758758544921875,-1.3621448278427124,-2.0432207584381104,2.1453707218170166,4.138526439666748,0.30329132080078125,-0.2119572013616562,-0.4702058732509613,3.4966464042663574
205,41746,41744,0.0015130842803046107,-0.061966363340616226,1.0117980241775513,8.199326515197754,-0.0641656443476677,-2.2432990074157715,2.1464779376983643,4.138369083404541,0.3070552349090576,-0.19928251206874847,-0.34854158759117126,3.493299961090088
206,41756,41754,-0.017677318304777145,0.03318195417523384,1.0048247575759888,4.893098831176758,0.14448967576026917,-2.0485267639160156,2.1470954418182373,4.1381378173828125,0.307538777589798,-0.27735966444015503,-0.2092382311820984,3.4614310264587402
207,41766,41764,-0.04896564409136772,0.0625530257821083,1.0691266059875488,1.2349416017532349,1.2701798677444458,-2.327699899673462,2.1488239765167236,4.139586448669434,0.3080906271934509,-0.2333976924419403,-0.27047961950302124,3.4362802505493164
208,41776,41774,0.022922346368432045,-0.07393752783536911,1.0691989660263062,-0.30675074458122253,1.0980507135391235,-2.547577381134033,2.148451328277588,4.138973236083984,0.3097827434539795,-0.23657278716564178,-0.255633682012558,3.4016435146331787
209,41786,41784,0.0010824031196534634,0.03726053982973099,0.945061445236206,-1.2325609922409058,0.846686065196991,-2.0550620555877686,2.1488428115844727,4.139232635498047,0.31048303842544556,-0.3225003778934479,-0.2569864094257355,3.3860466480255127
210,41796,41794,-0.028760777786374092,0.020156003534793854,1.0061590671539307,0.34071213006973267,0.16639912128448486,-2.15511155128479,2.1504158973693848,4.1394171714782715,0.311111718416214,-0.3927958607673645,-0.32873499393463135,3.36444354057312
211,41806,41804,0.011267568916082382,-0.05888295918703079,0.9830130338668823,1.381559133529663,-0.17149335145950317,-2.238348960876465,2.152045726776123,4.140590667724609,0.3131944537162781,-0.22252589464187622,-0.29756784439086914,3.3445301055908203
212,41816,41814,0.005561897065490484,-0.04357251524925232,1.019280195236206,3.541614055633545,-2.4198529720306396,-1.7459545135498047,2.1510980129241943,4.140594959259033,0.3141421377658844,-0.2599339485168457,-0.314225971698761,3.3344082832336426
213,41826,41824,-0.012631796300411224,-0.017276285216212273,0.9921430349349976,5.106170177459717,-3.1598668098449707,-1.76405668258667,2.1520256996154785,4.140812397003174,0.31490612030029297,-0.19830460846424103,-0.2230709195137024,3.3002431392669678
214,41836,41834,0.013092312961816788,0.06877516955137253,0.9805271029472351,6.182441711425781,-4.599192142486572,-2.5418269634246826,2.1524577140808105,4.140124797821045,0.31573912501335144,-0.16619572043418884,-0.16798169910907745,3.2577459812164307
215,41846,41844,0.008174515329301357,-0.06132069602608681,0.9433303475379944,5.529637336730957,-3.9862124919891357,-2.826204299926758,2.1538639068603516,4.140291690826416,0.3165346086025238,-0.17180465161800385,-0.07040704041719437,3.24466872215271
216,41856,41854,0.06244548410177231,-0.09242810308933258,0.9019268155097961,3.2406139373779297,-2.439345598220825,-3.1590020656585693,2.154036283493042,4.139732360839844,0.3173004388809204,-0.1392233669757843,-0.019383756443858147,3.210235357284546
217,41866,41864,-0.00831834226846695,0.08427806943655014,1.0033875703811646,3.1051082611083984,-2.411942481994629,-3.072073459625244,2.1534626483917236,4.140535354614258,0.3180229067802429,-0.2157554179430008,-0.001236767740920186,3.1861636638641357
218,41876,41874,0.002744388999417424,-0.044689957052469254,1.0239601135253906,1.2584598064422607,-1.0847184658050537,-2.4093918800354004,2.1564695835113525,4.140514850616455,0.31853559613227844,-0.08829833567142487,-0.030466748401522636,3.1481552124023438
219,41886,41884,0.0674610286951065,-0.1813550442457199,1.0407884120941162,1.3042287826538086,0.8448799848556519,-2.515774965286255,2.1565229892730713,4.140937805175781,0.31927022337913513,-0.07205729931592941,-0.06791817396879196,3.125068426132202
220,41896,41894,-0.010771448723971844,-0.13575883209705353,1.025272250175476,1.6782984733581543,0.11034353077411652,-2.0170905590057373,2.157241106033325,4.141350269317627,0.3199198246002197,-0.06657323986291885,-0.05637761950492859,3.0940961837768555
221,41906,41904,0.05902452394366264,-0.08922354876995087,0.9004102945327759,3.7956807613372803,2.0787644386291504,-2.166337251663208,2.158207416534424,4.141524314880371,0.3171798586845398,-0.15516380965709686,0.043773967772722244,3.0708248615264893
222,41916,41914,-0.0809992253780365,0.15773682296276093,0.850721001625061,3.6710121631622314,1.462358832359314,-1.7403112649917603,2.1597886085510254,4.14072322845459,0.31752243638038635,-0.15891067683696747,0.08651193231344223,3.0429413318634033
223,41926,41924,-0.05275474861264229,0.16801027953624725,0.8940048813819885,1.1933010816574097,0.9304145574569702,-1.3706732988357544,2.160721778869629,4.140563011169434,0.31777459383010864,-0.15258005261421204,0.1003713458776474,3.015615463256836
224,41936,41934,-0.004016051068902016,-0.014043588191270828,0.9459651112556458,-0.13222351670265198,-0.029516873881220818,-0.8712999224662781,2.1611685752868652,4.140838146209717,0.3179246485233307,-0.06722813099622726,0.050752099603414536,3.0047144889831543
225,41946,41944,-0.05351278558373451,0.08157511800527573,1.039431095123291,-1.5285781621932983,-3.2690579891204834,-1.4799760580062866,2.160956859588623,4.141541481018066,0.31552764773368835,-0.027361245825886726,0.05525225028395653,2.994032144546509
226,41956,41954,-0.11622392386198044,0.15572141110897064,1.011860966682434,-0.6462858319282532,-4.250433444976807,-0.6997848749160767,2.1612305641174316,4.141643524169922,0.3155083954334259,0.01036715880036354,0.0437036007642746,2.979764461517334
227,41966,41964,0.007032809313386679,-0.061092641204595566,0.9480226039886475,-0.5539196133613586,-4.308038711547852,0.11508788168430328,2.162869453430176,4.141385555267334,0.3154374659061432,-0.08221783488988876,0.06857649981975555,2.9614994525909424
228,41976,41974,-0.01967763900756836,-0.016149526461958885,1.0389541387557983,0.984541118144989,-1.8908754587173462,-0.10057050734758377,2.16400408744812,4.141319751739502,0.3098204433917999,0.07498135417699814,0.08971647173166275,2.9692087173461914
229,41986,41984,-0.03959549590945244,0.07376419007778168,1.0327763557434082,1.9574509859085083,-0.6935660243034363,0.4159073531627655,2.1641712188720703,4.141289710998535,0.30955907702445984,0.03326937556266785,0.05254533514380455,2.9641382694244385
230,41996,41994,-0.021382233127951622,-0.01896609365940094,1.0243221521377563,1.5465686321258545,2.661093235015869,0.19454476237297058,2.165249824523926,4.141861438751221,0.3091992437839508,0.10785329341888428,0.10115110129117966,2.97074818611145
231,42006,42004,-0.0009342324919998646,-0.09694363176822662,0.9349963665008545,1.150993824005127,4.420344829559326,-0.43025219440460205,2.165518045425415,4.141757011413574,0.30956119298934937,0.13369955122470856,0.14320649206638336,2.973794460296631
232,42016,42014,0.021194610744714737,-0.04781479761004448,0.9777349829673767,0.1533464938402176,6.785287380218506,-0.614627480506897,2.1658809185028076,4.141530990600586,0.3092769980430603,0.046519871801137924,0.17008627951145172,2.96630597114563
233,42026,42024,0.0666496679186821,-0.0864565521478653,1.0048705339431763,-0.9232468008995056,5.288493633270264,-1.2635586261749268,2.1666548252105713,4.141102313995361,0.3089052736759186,-0.05520913749933243,0.17027641832828522,2.94294810295105
234,42036,42034,0.01126531045883894,-0.02275264449417591,0.9911015033721924,-1.9153196811676025,3.3360049724578857,-1.2077932357788086,2.167874813079834,4.14108419418335,0.30797550082206726,-0.044567693024873734,0.15632669627666473,2.9350898265838623
235,42046,42044,0.006652486976236105,-0.061314988881349564,1.0280706882476807,-0.7833892703056335,2.433208703994751,-1.8144372701644897,2.167996644973755,4.141114711761475,0.30766016244888306,-0.16065645217895508,0.14573761820793152,2.913429021835327
236,42056,42054,0.08697261661291122,-0.03785960003733635,0.9315560460090637,-0.31433817744255066,2.303072452545166,-2.0608460903167725,2.169983148574829,4.141256332397461,0.3071560561656952,-0.11975722014904022,0.14490467309951782,2.8645269870758057
237,42066,42064,0.056590963155031204,-0.10256974399089813,0.9962911009788513,0.4350089132785797,0.7975019812583923,-2.3438096046447754,2.17014217376709,4.140201091766357,0.3067820072174072,-0.2984251379966736,0.15408790111541748,2.8419454097747803
238,42076,42074,0.025392616167664528,-0.061863355338573456,0.9914464354515076,-0.06562264263629913,-0.24597769975662231,-2.623584032058716,2.171644687652588,4.1397576332092285,0.3063066601753235,-0.19930465519428253,0.16865286231040955,2.7997329235076904
239,42086,42084,0.007031620014458895,0.01776796020567417,1.0124094486236572,-0.6210349798202515,-0.45487192273139954,-2.099482774734497,2.171751022338867,4.139669418334961,0.30596208572387695,-0.19755184650421143,0.16907045245170593,2.776618719100952
240,42096,42094,0.0033088414929807186,-0.009329981170594692,1.0042668581008911,-0.9320675730705261,-0.4746769070625305,-2.667914390563965,2.170884132385254,4.138912677764893,0.3055649399757385,-0.09934370219707489,0.08678378909826279,2.735137939453125
