,timestamp_start,timestamp_end,acc.x,acc.y,acc.z,gyro.x,gyro.y,gyro.z,stateEstimate.x,stateEstimate.y,stateEstimate.z,stabilizer.pitch,stabilizer.roll,stabilizer.yaw
0,37976,37971,0.007724713999778032,-0.045894019305706024,1.1381069421768188,-6.010441303253174,4.712167263031006,1.0193617343902588,1.8835231065750122,3.8474364280700684,0.1646316796541214,-0.012226869352161884,0.8446292281150818,3.6023807525634766
1,37986,37981,0.028930027037858963,-0.022812992334365845,1.118709683418274,-5.60725212097168,2.925598621368408,0.8443487882614136,1.8832411766052246,3.847275495529175,0.16595640778541565,-0.03822004050016403,0.7390918731689453,3.6157193183898926
2,37996,37991,0.02655147574841976,-0.02863246761262417,1.0763145685195923,-4.653008460998535,1.2976348400115967,0.9021347761154175,1.8828827142715454,3.846245527267456,0.1673704832792282,-0.12333723157644272,0.6421265602111816,3.616168260574341
3,38006,38001,0.010116007179021835,-0.02016558311879635,1.0324676036834717,-6.332042694091797,2.5609052181243896,1.1478121280670166,1.8823065757751465,3.8434226512908936,0.1691480278968811,-0.09470422565937042,1.1497740745544434,3.664552927017212
4,38016,38011,0.018385933712124825,-0.15250638127326965,1.1005557775497437,-0.9979494214057922,-6.063986301422119,0.7437557578086853,1.8823093175888062,3.841857433319092,0.17035256326198578,-0.12369770556688309,1.2032173871994019,3.679205894470215
5,38026,38021,0.04869595170021057,0.01564343459904194,1.1017563343048096,-6.594359874725342,-3.0164074897766113,1.3538450002670288,1.8813064098358154,3.8408141136169434,0.17199207842350006,-0.07768265902996063,1.0493794679641724,3.680056571960449
6,38036,38031,0.0018194805597886443,0.13656313717365265,1.1461541652679443,-14.081835746765137,-6.571736812591553,0.43428942561149597,1.8809407949447632,3.8400774002075195,0.17374156415462494,0.0408889576792717,0.9835483431816101,3.7033824920654297
7,38046,38041,-0.010758270509541035,-0.03949236869812012,1.1249668598175049,-17.5062313079834,-5.654667377471924,0.7929115295410156,1.8812838792800903,3.8387067317962646,0.17598754167556763,-0.12646856904029846,0.7402206659317017,3.66162109375
8,38056,38051,0.03657860681414604,-0.08282109349966049,1.0801081657409668,-19.877866744995117,-2.905160903930664,0.43138387799263,1.8798189163208008,3.838094711303711,0.17809396982192993,-0.19425292313098907,0.3780163526535034,3.627579927444458
9,38066,38061,0.02084529772400856,-0.07676582783460617,1.1164381504058838,-16.8601131439209,-4.141988277435303,0.14625591039657593,1.879285454750061,3.8393776416778564,0.18057921528816223,-0.11982656270265579,0.2258245050907135,3.6444597244262695
10,38076,38071,0.016692612320184708,-0.059172123670578,1.1224256753921509,-10.452422142028809,-2.7485437393188477,0.0601755790412426,1.8760089874267578,3.8336236476898193,0.18286746740341187,-0.034442245960235596,0.3255051374435425,3.6811602115631104
11,38086,38081,-6.262899842113256e-05,0.04501153528690338,1.120937466621399,-4.646242618560791,-10.362586975097656,0.4296395778656006,1.8755115270614624,3.835745334625244,0.18535639345645905,0.043152883648872375,0.13261562585830688,3.6794021129608154
12,38096,38091,0.011775277554988861,0.0334993414580822,1.1622394323349,-1.2571487426757812,-8.650941848754883,-0.6270055770874023,1.8782248497009277,3.8353052139282227,0.18667744100093842,0.029854457825422287,0.18051917850971222,3.6818411350250244
13,38106,38101,-0.013709291815757751,0.02013366110622883,1.006174921989441,-4.226146697998047,-2.725714683532715,-0.43148472905158997,1.8783622980117798,3.8358991146087646,0.18937738239765167,0.02012075111269951,0.04489835351705551,3.660163164138794
14,38116,38111,0.0055994573049247265,-0.026693006977438927,0.9814103245735168,-6.543680667877197,-8.147111892700195,-0.2922845184803009,1.8794444799423218,3.8371775150299072,0.19216428697109222,0.11503090709447861,-0.16602163016796112,3.643277883529663
15,38126,38121,0.010348732583224773,-0.1185075044631958,1.0996359586715698,-7.2982964515686035,-10.378852844238281,-0.8857453465461731,1.8802518844604492,3.8367745876312256,0.19314424693584442,0.16679978370666504,-0.24930815398693085,3.635399103164673
16,38136,38131,0.00615583686158061,-0.1360975056886673,1.0789000988006592,-7.451210975646973,-3.8480677604675293,-1.995036005973816,1.8818434476852417,3.8394014835357666,0.1957470029592514,0.3805401027202606,-0.349094957113266,3.628941297531128
17,38146,38141,0.03456517308950424,-0.05158968269824982,0.9861857295036316,-6.939533710479736,1.683699369430542,-1.8811379671096802,1.881799578666687,3.8392980098724365,0.19840776920318604,0.37866446375846863,-0.5143539905548096,3.6040830612182617
18,38156,38151,0.09778361767530441,-0.02900891937315464,0.995604932308197,-2.8106937408447266,-1.3588290214538574,-1.6512597799301147,1.8811941146850586,3.8399949073791504,0.2006949484348297,0.5393345952033997,-0.5756760835647583,3.586167097091675
19,38166,38161,0.016630744561553,-0.013128542341291904,0.9967435598373413,0.23379096388816833,0.08472083508968353,-2.079540729522705,1.8819165229797363,3.840181350708008,0.20341680943965912,0.40354445576667786,-0.7221216559410095,3.567129135131836
20,38176,38171,0.012241058051586151,-0.13404805958271027,0.9739865660667419,3.023662567138672,1.422383427619934,-1.8404868841171265,1.8819538354873657,3.839214324951172,0.20615534484386444,0.40792596340179443,-0.6569297313690186,3.5513553619384766
21,38186,38181,0.01203786302357912,-0.03520340844988823,0.9786795973777771,5.9276442527771,-0.039136987179517746,-1.708869457244873,1.8868412971496582,3.843492269515991,0.20867662131786346,-0.23419690132141113,-1.0430835485458374,3.5501174926757812
22,38196,38191,0.02329813875257969,-0.01777806133031845,0.9568560123443604,7.391321182250977,-2.877915382385254,-1.8257371187210083,1.886922001838684,3.8444008827209473,0.2109633833169937,-0.14994023740291595,-0.9792311191558838,3.5263593196868896
23,38206,38201,-0.01434838306158781,-0.005105112679302692,0.9832669496536255,8.80236530303955,-5.850983619689941,-2.3797690868377686,1.886979341506958,3.8458266258239746,0.213809996843338,-0.02502596378326416,-0.8884771466255188,3.4985389709472656
24,38216,38211,0.06782538443803787,-0.06905801594257355,0.9199306964874268,11.513778686523438,-15.97575569152832,-2.003401279449463,1.8885235786437988,3.8459994792938232,0.21643206477165222,-0.04451395198702812,-0.6996303796768188,3.493360757827759
25,38226,38221,0.015295818448066711,-0.07807496935129166,1.0215911865234375,10.529651641845703,-12.29799747467041,-2.888746976852417,1.8873943090438843,3.8447070121765137,0.21944129467010498,0.28756970167160034,-0.4843998849391937,3.4603960514068604
26,38236,38231,0.04364224150776863,-0.04395061358809471,0.8943507075309753,10.135876655578613,-17.199871063232422,-2.4332690238952637,1.8869154453277588,3.8466756343841553,0.22196486592292786,0.45228666067123413,-0.3607024848461151,3.4374938011169434
27,38246,38241,0.014675012789666653,-0.02010583132505417,0.9313198328018188,7.419771194458008,-13.70198917388916,-2.396921157836914,1.8868958950042725,3.845031976699829,0.22441579401493073,0.496783971786499,0.1679570972919464,3.4454152584075928
28,38256,38251,0.007359027396887541,-0.022268738597631454,0.9473446607589722,2.109771728515625,-8.711048126220703,-2.4662868976593018,1.8841623067855835,3.8464550971984863,0.22731472551822662,0.8551027178764343,0.03819987550377846,3.3951947689056396
29,38266,38261,-0.010577558539807796,0.029716335237026215,0.9945849776268005,-4.585809707641602,-4.039005756378174,-2.5195252895355225,1.8838117122650146,3.844822645187378,0.22949185967445374,1.0354399681091309,0.27391257882118225,3.366105318069458
30,38276,38271,0.05406208336353302,-0.042832668870687485,0.8920478820800781,-9.655989646911621,-2.8739354610443115,-1.8389954566955566,1.8829396963119507,3.8462636470794678,0.2318345308303833,1.1956849098205566,0.1685132086277008,3.3338823318481445
31,38286,38281,0.0654444545507431,-0.19354644417762756,0.893049955368042,-12.69740104675293,1.8785797357559204,-2.46926212310791,1.8883272409439087,3.8475215435028076,0.23522639274597168,0.49726366996765137,-0.09181057661771774,3.3516173362731934
32,38296,38291,0.0330665297806263,-0.017254892736673355,0.9542605876922607,-13.62906551361084,7.165811061859131,-2.7250783443450928,1.88526451587677,3.8468027114868164,0.23885582387447357,0.5067425966262817,-0.24584266543388367,3.325129508972168
33,38306,38301,0.04099962115287781,0.1192779690027237,0.9342116117477417,-11.732420921325684,7.28571081161499,-1.9710948467254639,1.88514244556427,3.8475239276885986,0.2412506490945816,0.5150196552276611,-0.47860386967658997,3.2957301139831543
34,38316,38311,0.039210136979818344,0.1797076016664505,0.9407532811164856,-5.749172210693359,2.6211905479431152,-1.6404682397842407,1.8853750228881836,3.8474528789520264,0.24371886253356934,0.5259070992469788,-0.45196622610092163,3.2654504776000977
35,38326,38321,0.05033004283905029,0.13273638486862183,0.9420512914657593,1.5087097883224487,-4.0816802978515625,-1.8754621744155884,1.8855081796646118,3.847656488418579,0.24435310065746307,0.6057127118110657,-0.4872330129146576,3.2402265071868896
36,38336,38331,0.03815648332238197,0.016628006473183632,0.9467907547950745,7.0197248458862305,-9.932223320007324,-2.52584171295166,1.8863896131515503,3.847496271133423,0.24639564752578735,0.6366956233978271,-0.48040106892585754,3.221895933151245
37,38346,38341,-0.03530096262693405,0.00729964766651392,0.9805822372436523,8.551594734191895,-12.108314514160156,-2.529414415359497,1.8862924575805664,3.847736358642578,0.24842004477977753,0.8294503092765808,-0.382874995470047,3.189133882522583
38,38356,38351,0.04131981357932091,-0.0470428392291069,0.9281757473945618,9.423251152038574,-12.393136024475098,-3.884364366531372,1.885525107383728,3.847867250442505,0.25126317143440247,0.9754391312599182,-0.2589012682437897,3.16391658782959
39,38366,38361,-0.14492017030715942,0.13139715790748596,0.9425615668296814,3.925726890563965,-6.627057075500488,-2.6707000732421875,1.886709213256836,3.8486452102661133,0.2532568573951721,1.0437273979187012,-0.21182595193386078,3.1368374824523926
40,38376,38371,-0.022233419120311737,0.0008584111928939819,0.891052782535553,-1.8382956981658936,3.0511960983276367,-3.4018001556396484,1.8872443437576294,3.85115385055542,0.2551605701446533,1.114766240119934,-0.15604276955127716,3.110788345336914
41,38386,38381,0.01683313027024269,0.02397824637591839,0.8452509045600891,-5.002660274505615,1.7342345714569092,-2.881577730178833,1.8881837129592896,3.8515164852142334,0.256940633058548,1.1362669467926025,-0.18733805418014526,3.0861594676971436
42,38396,38391,-0.04358740523457527,0.013536226004362106,0.9804738759994507,-7.630575180053711,7.984788417816162,-3.170198440551758,1.888007640838623,3.853287935256958,0.25900787115097046,1.1140795946121216,-0.2756670117378235,3.0576019287109375
43,38406,38401,0.0026899361982941628,0.006543312221765518,0.9638108611106873,-7.382594108581543,10.271441459655762,-2.2251088619232178,1.8897231817245483,3.855828046798706,0.26063793897628784,1.087653636932373,-0.39647549390792847,3.0286333560943604
44,38416,38411,0.0904722660779953,-0.14493857324123383,0.9738805294036865,-3.7628321647644043,7.1945271492004395,-2.0346875190734863,1.8896868228912354,3.8570845127105713,0.2622624933719635,1.0875935554504395,-0.4364028871059418,2.992919445037842
45,38426,38421,0.03486794978380203,-0.1620609164237976,1.0287190675735474,-0.7588576078414917,7.191099643707275,-2.869072198867798,1.8893208503723145,3.858290910720825,0.2619875371456146,1.0211633443832397,-0.5072522759437561,2.969672918319702
46,38436,38431,-0.006427036132663488,-0.006531307008117437,0.9645690321922302,4.174952507019043,0.7647466659545898,-2.6661744117736816,1.8871805667877197,3.8601486682891846,0.2633703351020813,1.037734866142273,-0.5915982723236084,2.946852445602417
47,38446,38441,-0.007602238561958075,-0.17577645182609558,0.9425309896469116,7.437864303588867,5.8890910148620605,-3.234023332595825,1.8855582475662231,3.8620569705963135,0.2649320960044861,1.020417332649231,-0.5185993313789368,2.911367893218994
48,38456,38451,0.0237689558416605,-0.06809283792972565,0.9451093077659607,9.442102432250977,6.358171463012695,-3.233546257019043,1.8856109380722046,3.861503839492798,0.26808878779411316,0.8225246071815491,-0.31855425238609314,2.8751139640808105
49,38466,38461,0.02498728223145008,0.007992913946509361,0.9633474946022034,9.127514839172363,1.6219837665557861,-2.7477550506591797,1.8847436904907227,3.8641374111175537,0.26962611079216003,0.7750840783119202,-0.39044642448425293,2.8596982955932617
50,38476,38471,0.0500456728041172,0.08248770982027054,0.9523733258247375,6.256817817687988,5.780546188354492,-3.2399609088897705,1.8847135305404663,3.8620808124542236,0.2711745500564575,0.6883700489997864,-0.016914386302232742,2.8092992305755615
51,38486,38481,0.035655077546834946,0.026743518188595772,0.9358033537864685,3.3769547939300537,6.241531848907471,-3.2081587314605713,1.8840311765670776,3.862971782684326,0.2726236879825592,0.5924073457717896,-0.007788605522364378,2.7906382083892822
52,38496,38491,0.11157778650522232,-0.2654714286327362,0.8846743106842041,-1.9186407327651978,-0.34547460079193115,-2.8862855434417725,1.8825008869171143,3.865795850753784,0.2724592089653015,0.4969502389431,-0.12090364098548889,2.773226022720337
53,38506,38501,-0.025817429646849632,-0.05799273028969765,0.9532956480979919,-4.574664115905762,-0.12047018855810165,-3.1685707569122314,1.8822788000106812,3.8645737171173096,0.27368542551994324,0.47144562005996704,0.0699862614274025,2.7319018840789795
54,38516,38511,-0.02445332705974579,0.013342458754777908,0.9618166089057922,-5.96195125579834,0.43215861916542053,-2.690074920654297,1.8815335035324097,3.874384880065918,0.2754572629928589,0.46303337812423706,-1.1241881847381592,2.7631032466888428
55,38526,38521,0.0296378992497921,-0.06440114229917526,0.9605556130409241,-1.2162238359451294,-0.6276642084121704,-3.453626871109009,1.881034016609192,3.862609386444092,0.2812071144580841,0.6113906502723694,0.3641411066055298,2.652749538421631
56,38536,38531,-0.09367170929908752,0.17348182201385498,0.9799773693084717,6.331363201141357,1.2818866968154907,-2.5194504261016846,1.8818316459655762,3.865635871887207,0.2831791341304779,0.5255300402641296,-0.0035487599670886993,2.6401660442352295
57,38546,38541,-0.08278481662273407,0.14937573671340942,0.918982982635498,7.2621541023254395,3.792524814605713,-1.9818952083587646,1.8798121213912964,3.8653807640075684,0.2845248281955719,0.6417007446289062,0.07242479920387268,2.613142728805542
58,38556,38551,0.017132777720689774,-0.024597248062491417,0.9339921474456787,3.3775439262390137,7.193402290344238,-1.9889066219329834,1.8759024143218994,3.865490436553955,0.28379929065704346,0.9932847023010254,0.09062233567237854,2.5868752002716064
59,38566,38561,-0.009397134184837341,0.015647107735276222,1.0007591247558594,-0.36152490973472595,12.632009506225586,-2.161135673522949,1.8752610683441162,3.8657822608947754,0.2851424217224121,0.8050714135169983,0.05875920131802559,2.5738260746002197
60,38576,38571,0.0024666436947882175,-0.014355137012898922,0.9530758857727051,-4.788909912109375,18.373369216918945,-2.1026206016540527,1.8747246265411377,3.865792751312256,0.2862453758716583,0.6924417614936829,0.045714836567640305,2.5546786785125732
61,38586,38581,-0.05652131512761116,-0.05310041457414627,1.0157029628753662,-7.385170936584473,18.96083641052246,-1.8046666383743286,1.8747175931930542,3.8661210536956787,0.2851225435733795,0.4974842071533203,-0.033590834587812424,2.5361063480377197
62,38596,38591,-0.08645372837781906,-0.1191440150141716,0.9881139993667603,-7.354643821716309,16.8619441986084,-1.9214304685592651,1.8738876581192017,3.866804361343384,0.28606900572776794,0.2827175557613373,-0.15155412256717682,2.518282651901245
63,38606,38601,-0.06323271244764328,-0.12150687724351883,0.9813755750656128,-5.210329055786133,13.967803001403809,-1.19514000415802,1.873131275177002,3.867032051086426,0.2870404124259949,0.15593846142292023,-0.19917789101600647,2.498488664627075
64,38616,38611,-0.01819394901394844,0.12814638018608093,0.9580788016319275,-1.639342188835144,10.034276962280273,-1.4639184474945068,1.8713669776916504,3.8681628704071045,0.28793421387672424,0.014376195147633553,-0.27989792823791504,2.4848263263702393
65,38626,38621,0.017273344099521637,0.03182801604270935,0.9424484372138977,2.392395496368408,5.390293121337891,-1.352724552154541,1.8700178861618042,3.868913173675537,0.28624996542930603,0.01758250966668129,-0.22264528274536133,2.4693105220794678
66,38636,38631,0.006157838273793459,-0.020351750776171684,0.9733603000640869,4.276367664337158,4.190507888793945,-0.7876060009002686,1.8692834377288818,3.8688347339630127,0.28689101338386536,-0.07285931706428528,-0.18822471797466278,2.4566476345062256
67,38646,38641,0.03986276313662529,0.022572362795472145,0.9900882244110107,5.304844379425049,2.0350840091705322,-0.6717883944511414,1.8689850568771362,3.86855411529541,0.28749069571495056,-0.12884895503520966,-0.11648746579885483,2.4473557472229004
68,38656,38651,0.013793695718050003,0.012640861794352531,0.9842274785041809,3.6478347778320312,3.6288723945617676,-1.5088393688201904,1.8691579103469849,3.8697307109832764,0.28582945466041565,-0.2340165376663208,-0.19339825212955475,2.4365243911743164
69,38666,38661,-0.06691368669271469,0.08135339617729187,0.9127001762390137,0.7592889666557312,5.192863941192627,-0.7185790538787842,1.8689155578613281,3.870742082595825,0.28631097078323364,-0.35181447863578796,-0.2034025490283966,2.423306703567505
70,38676,38671,-0.019522882997989655,0.033176932483911514,0.9890781044960022,-0.7619081735610962,5.453121185302734,-1.1948131322860718,1.8667281866073608,3.870912551879883,0.2867414951324463,-0.2754669785499573,-0.18163645267486572,2.412386655807495
71,38686,38681,-0.02095491625368595,0.003770349081605673,1.0071405172348022,-0.7132550477981567,5.943339824676514,-0.5996197462081909,1.8668885231018066,3.869842052459717,0.285104364156723,-0.43767663836479187,-0.18365122377872467,2.401768445968628
72,38696,38691,-0.05577782914042473,-0.04553396254777908,1.0324113368988037,0.05413796380162239,14.54498291015625,-1.0809953212738037,1.8661487102508545,3.8703606128692627,0.28535786271095276,-0.4652317464351654,-0.18493293225765228,2.3947794437408447
73,38706,38701,-0.020366812124848366,-0.004024198278784752,1.0255342721939087,0.5200274586677551,21.216480255126953,-0.7071053981781006,1.8668103218078613,3.870398998260498,0.2856200337409973,-0.6883668899536133,-0.24323566257953644,2.38061785697937
74,38716,38711,0.03313380479812622,-0.0891491249203682,1.0255253314971924,2.0711939334869385,22.445680618286133,-0.7835962772369385,1.8672919273376465,3.87030029296875,0.2859429717063904,-0.9291049242019653,-0.2156120389699936,2.373459815979004
75,38726,38721,0.018060168251395226,-0.08836787939071655,1.0446804761886597,3.864239454269409,23.210098266601562,-1.1262198686599731,1.86575186252594,3.8708410263061523,0.28520509600639343,-1.054297924041748,-0.16576515138149261,2.3666059970855713
76,38736,38731,-0.002002179389819503,0.03952521085739136,1.0584397315979004,4.595053672790527,20.924211502075195,-1.4533662796020508,1.8649353981018066,3.870941400527954,0.2855060398578644,-1.3425880670547485,-0.08954289555549622,2.360914707183838
77,38746,38741,0.025027234107255936,-0.03946828842163086,0.943626344203949,4.983450412750244,20.379058837890625,-1.6985465288162231,1.8643794059753418,3.8706345558166504,0.2858120799064636,-1.5774625539779663,-0.003578003728762269,2.3526079654693604
78,38756,38751,0.023867303505539894,0.1598290652036667,1.0190941095352173,4.043168067932129,14.604540824890137,-1.163525104522705,1.8632071018218994,3.8724584579467773,0.28365740180015564,-1.7591722011566162,-0.06745640188455582,2.319383382797241
79,38766,38761,0.0458400659263134,0.060723092406988144,0.9672629237174988,2.4011430740356445,5.656035900115967,-0.9554160833358765,1.861668348312378,3.871105194091797,0.28389492630958557,-1.7703678607940674,0.014041402377188206,2.31412935256958
80,38776,38771,0.006361520849168301,0.01875162683427334,1.0396462678909302,1.0932281017303467,2.810303211212158,-0.9514873027801514,1.8610920906066895,3.871664524078369,0.2840259373188019,-1.9049842357635498,0.06495606899261475,2.3100855350494385
81,38786,38781,0.029218880459666252,-0.032799944281578064,1.0007070302963257,0.08103914558887482,0.8445162773132324,-0.46858105063438416,1.8600125312805176,3.8717033863067627,0.2865523099899292,-1.9756747484207153,0.09052537381649017,2.3045570850372314
82,38796,38791,-0.04673788323998451,0.03889941796660423,1.0666502714157104,-1.0633034706115723,-0.19843468070030212,-0.4428289532661438,1.8596067428588867,3.872056722640991,0.2868812084197998,-2.019440174102783,0.09594234079122543,2.300187110900879
83,38806,38801,0.02992963418364525,-0.06792178750038147,1.0371872186660767,-1.3081403970718384,2.5275063514709473,-0.958575963973999,1.8599255084991455,3.8714516162872314,0.28722694516181946,-2.0533945560455322,0.0831323117017746,2.2922894954681396
84,38816,38811,-0.021358612924814224,-0.012673013843595982,1.0507651567459106,0.5605753660202026,2.4717659950256348,-1.0464906692504883,1.8598850965499878,3.874026298522949,0.2876662015914917,-2.1158809661865234,-0.08283695578575134,2.238482713699341
85,38826,38821,0.004245214629918337,-0.0560474619269371,1.0055967569351196,1.490842342376709,5.602479934692383,-1.0247267484664917,1.8610317707061768,3.87502121925354,0.28965216875076294,-2.1772639751434326,-0.046206507831811905,2.2372395992279053
86,38836,38831,0.04486759006977081,-0.05641903728246689,0.9427198767662048,3.0534582138061523,6.080366134643555,-0.7737937569618225,1.8614295721054077,3.87485933303833,0.2901790738105774,-2.261129140853882,0.008810951374471188,2.240851640701294
87,38846,38841,0.05798143893480301,-0.10025225579738617,0.9589599370956421,4.879578590393066,2.1990270614624023,-0.6469889283180237,1.8612035512924194,3.876161813735962,0.29064446687698364,-2.3232245445251465,-0.061556294560432434,2.198798418045044
88,38856,38851,0.04083840548992157,-0.131278857588768,1.0539885759353638,6.507940769195557,-2.2446534633636475,-0.34916770458221436,1.8612675666809082,3.8757753372192383,0.2911989688873291,-2.320127010345459,0.0581979900598526,2.2143776416778564
89,38866,38861,0.018130140379071236,-0.09801600873470306,1.0558080673217773,5.954807758331299,-4.254223823547363,-0.8025437593460083,1.8606380224227905,3.8750321865081787,0.29182469844818115,-2.254049777984619,0.18868014216423035,2.232518434524536
90,38876,38871,-0.0037547361571341753,0.024756597355008125,1.0244131088256836,5.415197849273682,-2.9968342781066895,-0.7224544882774353,1.8617303371429443,3.8769493103027344,0.29236578941345215,-2.31329083442688,0.07514265924692154,2.1605238914489746
91,38886,38881,0.0418626107275486,0.12940821051597595,0.967533528804779,3.009429454803467,-5.814259052276611,-0.728443443775177,1.861708402633667,3.8763763904571533,0.2914184033870697,-2.21211314201355,0.18742471933364868,2.1763193607330322
92,38896,38891,0.003967614378780127,0.055507246404886246,1.0194792747497559,0.9616195559501648,-4.294381141662598,-1.49092698097229,1.8613024950027466,3.876070737838745,0.2919614017009735,-2.086862802505493,0.2562517523765564,2.1836795806884766
93,38906,38901,-0.0203501395881176,0.015850739553570747,1.0313246250152588,-0.16925252974033356,-5.5460638999938965,-1.5511949062347412,1.8602222204208374,3.8762404918670654,0.29249104857444763,-1.9698296785354614,0.2854403257369995,2.17806339263916
94,38916,38911,-0.10019226372241974,0.06285183876752853,1.0392866134643555,-1.0251787900924683,-3.7373952865600586,-1.5111360549926758,1.8594403266906738,3.8759942054748535,0.2922869324684143,-1.8568837642669678,0.2979568839073181,2.171405076980591
95,38926,38921,-0.07028193771839142,0.08567719161510468,0.9743189811706543,-1.9287197589874268,0.14236825704574585,-1.2821273803710938,1.8595683574676514,3.8771843910217285,0.2927679121494293,-1.859544277191162,0.2914275527000427,2.1588006019592285
96,38936,38931,-0.04173619672656059,0.0515967532992363,1.0477098226547241,-1.3630272150039673,1.8557544946670532,-1.511035442352295,1.8613710403442383,3.8778955936431885,0.293270468711853,-1.9867525100708008,0.19784429669380188,2.115267038345337
97,38946,38941,0.03835535794496536,-0.06768938899040222,0.9628670811653137,0.525814414024353,1.6475419998168945,-1.3741174936294556,1.8615144491195679,3.8777706623077393,0.29379162192344666,-2.042145013809204,0.20285895466804504,2.1065473556518555
98,38956,38951,0.0007121451781131327,0.032811153680086136,1.049670934677124,1.944769024848938,1.112349271774292,-1.1619421243667603,1.8634121417999268,3.876437187194824,0.2956535518169403,-2.160093307495117,0.31597813963890076,2.1271119117736816
99,38966,38961,0.06672993302345276,-0.07291434705257416,0.9099568724632263,3.5360567569732666,-5.338071823120117,-1.7095693349838257,1.8615854978561401,3.8772594928741455,0.2963428795337677,-2.0985920429229736,0.2124139666557312,2.06912899017334
100,38976,38971,0.014117979444563389,-0.02988848090171814,0.9717125296592712,2.967226505279541,-11.878432273864746,-1.4943019151687622,1.8613849878311157,3.878460645675659,0.29701486229896545,-1.9286472797393799,0.2116406261920929,2.0438179969787598
101,38986,38981,0.003545418381690979,-0.0034749230835586786,1.0060577392578125,1.4570237398147583,-16.853816986083984,-2.016655445098877,1.8641235828399658,3.8792436122894287,0.2963142693042755,-2.0390188694000244,0.27947139739990234,2.0329556465148926
102,38996,38991,0.02603340521454811,-0.05481525883078575,0.9873031377792358,-0.05350000411272049,-18.21980857849121,-2.499051332473755,1.862944483757019,3.8791422843933105,0.29700446128845215,-1.6671425104141235,0.31799349188804626,2.029025077819824
103,39006,39001,-0.014361066743731499,0.04289788007736206,1.0677138566970825,-1.0793132781982422,-16.619218826293945,-2.890979051589966,1.862160086631775,3.8802855014801025,0.2974916398525238,-1.4475775957107544,0.3315252363681793,2.0099668502807617
104,39016,39011,0.03970102220773697,-0.06329528987407684,0.9254018068313599,-1.1457674503326416,-15.391666412353516,-2.4862916469573975,1.86467707157135,3.879992961883545,0.2969900667667389,-1.4934417009353638,0.3238984942436218,1.9736464023590088
105,39026,39021,0.026300273835659027,-0.1268824338912964,1.018918752670288,-0.15281184017658234,-5.746169090270996,-3.3257265090942383,1.8653854131698608,3.8803491592407227,0.2973380982875824,-1.429872751235962,0.321042537689209,1.9464017152786255
106,39036,39031,0.005869382061064243,0.014004840515553951,1.0240368843078613,1.8050678968429565,-0.07646607607603073,-3.1442646980285645,1.865959644317627,3.880959987640381,0.2978132367134094,-1.3328773975372314,0.3346700072288513,1.9193569421768188
107,39046,39041,0.1109461560845375,0.0009761060937307775,0.9248664975166321,2.7363979816436768,0.67292320728302,-3.4312703609466553,1.8681772947311401,3.882204055786133,0.298069030046463,-1.4772826433181763,0.3028608560562134,1.864980936050415
108,39056,39051,0.002403822261840105,-0.013817335478961468,0.9992521405220032,2.714414119720459,1.9062349796295166,-3.3443405628204346,1.8681617975234985,3.8819961547851562,0.297758013010025,-1.3800179958343506,0.36282649636268616,1.845723032951355
109,39066,39061,0.06993738561868668,-0.11454719305038452,0.978480875492096,3.274946928024292,-3.8384056091308594,-3.045584201812744,1.867675542831421,3.880953311920166,0.29809024930000305,-1.352368712425232,0.4217970073223114,1.8227462768554688
110,39076,39071,0.014014877378940582,-0.04518179967999458,0.9599154591560364,1.5765522718429565,-10.379249572753906,-2.489032506942749,1.8698972463607788,3.8807716369628906,0.2982865869998932,-1.381893515586853,0.47590556740760803,1.794577717781067
111,39086,39081,-0.0026741325855255127,-0.047564130276441574,0.9427908658981323,-0.09870223701000214,-10.769706726074219,-2.546334743499756,1.8704547882080078,3.8807802200317383,0.2998930513858795,-1.1899555921554565,0.501491367816925,1.7727805376052856
112,39096,39091,0.031769461929798126,-0.00022236444056034088,0.9410778284072876,-1.325631856918335,-17.247989654541016,-1.948697805404663,1.871504306793213,3.8818359375,0.3002158999443054,-1.016653060913086,0.4961899518966675,1.749497413635254
113,39106,39101,-0.0008452688343822956,0.03639702871441841,1.048163890838623,-3.1532251834869385,-13.504220008850098,-2.0494163036346436,1.8743551969528198,3.8824915885925293,0.30033236742019653,-1.0154666900634766,0.39395251870155334,1.6982277631759644
114,39116,39111,0.00553418044000864,-0.01653478667140007,1.0047918558120728,-3.0927369594573975,-10.293355941772461,-1.861561894416809,1.87427818775177,3.882721424102783,0.3045921325683594,-0.823838472366333,0.3539975881576538,1.6780426502227783
115,39126,39121,-0.018034739419817924,-0.04658184573054314,0.9861506223678589,-1.2943828105926514,-7.430041313171387,-1.629494071006775,1.8751394748687744,3.8827033042907715,0.30510273575782776,-0.687886118888855,0.31618380546569824,1.658635139465332
116,39136,39131,-0.003141538007184863,0.02571023628115654,1.0189311504364014,0.6136447191238403,-5.954002857208252,-2.2772576808929443,1.8765769004821777,3.8821325302124023,0.30560216307640076,-0.6051502823829651,0.3094032406806946,1.6420739889144897
117,39146,39141,-0.004665834829211235,0.1283680647611618,0.9610015749931335,2.0886635780334473,-1.4181421995162964,-2.2607743740081787,1.876763105392456,3.8828084468841553,0.3002082109451294,-0.5622421503067017,0.33438023924827576,1.6230831146240234
118,39156,39151,-0.033793073147535324,0.21363241970539093,1.0188653469085693,3.920576572418213,-1.2227933406829834,-1.956973671913147,1.8776657581329346,3.882932662963867,0.30029964447021484,-0.575416624546051,0.3863120973110199,1.6046411991119385
119,39166,39161,0.03532428294420242,-0.1829739362001419,0.9649347066879272,4.452963829040527,-1.48011314868927,-1.623433232307434,1.8782455921173096,3.882646083831787,0.3004462718963623,-0.5013987421989441,0.4572295546531677,1.602611780166626
120,39176,39171,-0.011778028681874275,-0.08147718757390976,1.021233081817627,3.321645498275757,-2.7362589836120605,-1.1660171747207642,1.8795431852340698,3.8831868171691895,0.3005387783050537,-0.5079266428947449,0.5284175276756287,1.5876123905181885
121,39186,39181,0.011220717802643776,-0.03164801001548767,0.979647159576416,-0.1162169799208641,-5.947737216949463,-0.5800798535346985,1.881029725074768,3.8825814723968506,0.2989911139011383,-0.5590856075286865,0.5728592872619629,1.5794984102249146
122,39196,39191,-0.006234990898519754,-0.0018039082642644644,1.0156527757644653,-4.193869590759277,-9.091773986816406,0.03503241017460823,1.8821693658828735,3.883786916732788,0.2989446818828583,-0.5468828082084656,0.5507033467292786,1.569929599761963
123,39206,39201,0.035892780870199203,-0.013758725486695766,0.9923574924468994,-7.158646106719971,-11.688163757324219,0.38687124848365784,1.8807132244110107,3.883361339569092,0.2992405593395233,-0.25621357560157776,0.4663388729095459,1.5800540447235107
124,39216,39211,-0.019691824913024902,-0.009962225332856178,1.0147473812103271,-8.760616302490234,-14.488572120666504,1.286250352859497,1.8823797702789307,3.8839056491851807,0.29778459668159485,-0.16568085551261902,0.3381474018096924,1.5790449380874634
125,39226,39221,0.030789393931627274,-0.12235865741968155,1.0029973983764648,-8.570380210876465,-10.77565860748291,1.3581591844558716,1.884751319885254,3.8834621906280518,0.297671914100647,-0.12494173645973206,0.2664761543273926,1.584816813468933
126,39236,39231,0.012501128017902374,-0.003936203196644783,0.9592159986495972,-6.308982849121094,-7.972903251647949,1.7068678140640259,1.8841552734375,3.8830819129943848,0.29784131050109863,0.1687326729297638,0.203060582280159,1.610222339630127
127,39246,39241,0.014016149565577507,0.003066086443141103,1.024471640586853,-4.553636074066162,0.044208209961652756,1.422756314277649,1.8876441717147827,3.8843047618865967,0.29774701595306396,0.021517496556043625,0.0990549623966217,1.6120272874832153
128,39256,39251,0.0505223385989666,0.006349610164761543,0.9966380000114441,-1.611978530883789,-0.7326921820640564,1.689785361289978,1.8875219821929932,3.883998394012451,0.29782092571258545,0.17195789515972137,0.034594375640153885,1.6355046033859253
129,39266,39261,-0.011986016295850277,-0.002485616598278284,1.112424612045288,0.25794529914855957,-5.306003093719482,1.213915467262268,1.8878886699676514,3.883870840072632,0.2978346645832062,0.24322333931922913,0.022027913480997086,1.65471613407135
130,39276,39271,-0.054221127182245255,0.00309873023070395,1.115440845489502,-1.3288984298706055,-4.665740489959717,1.3816827535629272,1.890701413154602,3.8828186988830566,0.2979130446910858,0.2073327749967575,0.09721455723047256,1.6600456237792969
131,39286,39281,0.031550951302051544,0.0358530655503273,0.9919636845588684,-3.671190023422241,-3.357332706451416,1.2000739574432373,1.8914707899093628,3.8831257820129395,0.2988602817058563,0.3010998070240021,0.05090842768549919,1.6837611198425293
132,39296,39291,0.01160199660807848,0.050402410328388214,0.9979925155639648,-3.578946590423584,-4.122788906097412,0.3790398836135864,1.892242431640625,3.884131669998169,0.2991082966327667,0.3936533033847809,-0.012858170084655285,1.6989446878433228
133,39306,39301,0.011014066636562347,-0.09645190089941025,1.0396331548690796,-3.7836287021636963,-2.379620313644409,-0.7418504357337952,1.8946661949157715,3.884340286254883,0.2992165982723236,0.26835840940475464,-0.07209121435880661,1.6981067657470703
134,39316,39311,0.025659406557679176,-0.03487091138958931,0.9967540502548218,-1.4154913425445557,-3.5452699661254883,-1.3548426628112793,1.894146203994751,3.883509635925293,0.300193190574646,0.42429542541503906,-0.04942838102579117,1.6884956359863281
135,39326,39321,-0.012034950777888298,-0.06900542229413986,1.095418095588684,0.4184069335460663,0.368955135345459,-1.9070806503295898,1.8947526216506958,3.88342022895813,0.30052998661994934,0.487723171710968,-0.06673263013362885,1.675023078918457
136,39336,39331,0.035068850964307785,-0.09174645692110062,0.9414497017860413,1.0952028036117554,7.340064525604248,-2.3377418518066406,1.8970000743865967,3.883424758911133,0.30079132318496704,0.3529897928237915,-0.05917002633213997,1.6525378227233887
137,39346,39341,0.0400908961892128,0.05929447337985039,1.024597406387329,2.3417978286743164,9.948275566101074,-2.6540729999542236,1.9000357389450073,3.882394790649414,0.3035745918750763,0.21099118888378143,0.03260821849107742,1.6185132265090942
138,39356,39351,0.08928223699331284,-0.005875711794942617,0.9727234244346619,3.8351383209228516,7.539812088012695,-1.8382550477981567,1.9013645648956299,3.8814949989318848,0.30402541160583496,0.11968697607517242,0.07203413546085358,1.5846869945526123
139,39366,39361,-0.05628354102373123,-0.002115073846653104,1.049347162246704,0.981410801410675,5.469353675842285,-0.6354925036430359,1.9017359018325806,3.881334066390991,0.3045331835746765,0.05402935668826103,0.11336556822061539,1.5686460733413696
140,39376,39371,0.02681313082575798,0.007311725057661533,1.0036375522613525,-2.0616612434387207,-0.40203866362571716,-0.7072421908378601,1.9024487733840942,3.882770299911499,0.3050493896007538,0.02014928311109543,0.11190406233072281,1.585081934928894
141,39386,39381,-0.04547438770532608,0.0723799392580986,1.0563427209854126,-6.428359508514404,-7.2433366775512695,-1.6670141220092773,1.9032440185546875,3.88369083404541,0.30525529384613037,0.07866492867469788,0.0515470877289772,1.592591404914856
142,39396,39391,-0.03256068378686905,-0.019537867978215218,1.0899560451507568,-10.22706127166748,-11.187477111816406,-3.4443719387054443,1.902090311050415,3.8853204250335693,0.3059993386268616,0.2994828522205353,-0.08152957260608673,1.580593466758728
143,39406,39401,-0.024437349289655685,-0.1061842143535614,1.0423836708068848,-7.456468105316162,-5.863248348236084,-4.54577112197876,1.904348373413086,3.88594388961792,0.3065941631793976,0.32401931285858154,-0.24292044341564178,1.552342414855957
144,39416,39411,0.01960083097219467,-0.021926051005721092,1.0168503522872925,-1.901125431060791,-1.3240127563476562,-4.698629856109619,1.905790090560913,3.8848257064819336,0.30884361267089844,0.3615228831768036,-0.20178203284740448,1.4837709665298462
145,39426,39421,0.03937229514122009,0.04094460606575012,1.0396682024002075,5.978189468383789,-0.6213128566741943,-3.9657628536224365,1.907238245010376,3.884155511856079,0.3095978796482086,0.3333909809589386,-0.21332915127277374,1.4377121925354004
146,39436,39431,-0.010135700926184654,-0.01818074844777584,0.9835456013679504,10.037455558776855,-0.7932285666465759,-3.1051111221313477,1.9075959920883179,3.884035587310791,0.31052297353744507,0.44406595826148987,-0.10763144493103027,1.38448166847229
147,39446,39441,-0.024449801072478294,-0.07579707354307175,0.9875566959381104,8.767355918884277,2.972093343734741,-0.891582727432251,1.9099857807159424,3.883592128753662,0.3107300400733948,0.24727481603622437,-0.022250235080718994,1.3632838726043701
148,39456,39451,0.004918314050883055,-0.12165404111146927,1.0110965967178345,4.430816650390625,3.1231563091278076,0.15532909333705902,1.9101133346557617,3.884002208709717,0.31162938475608826,0.32646414637565613,0.03426061570644379,1.3498194217681885
149,39466,39461,0.00988247711211443,-0.1395271122455597,0.9888745546340942,-1.0026260614395142,1.6871007680892944,0.7709307074546814,1.910315990447998,3.8845748901367188,0.31250759959220886,0.38706839084625244,0.08769140392541885,1.3439152240753174
150,39476,39471,-0.04858345165848732,0.00728836003690958,1.0073963403701782,-4.021186351776123,-0.6531409621238708,1.298241376876831,1.9114980697631836,3.885474443435669,0.31255000829696655,0.3917093575000763,-0.01817256025969982,1.374224066734314
151,39486,39481,-0.018016086891293526,0.06496001034975052,0.9412894248962402,-3.6205854415893555,-3.9068756103515625,1.8959698677062988,1.911374568939209,3.8852405548095703,0.3125206530094147,0.3603888154029846,-0.0881442129611969,1.3993531465530396
152,39496,39491,-0.03593643009662628,0.10130561143159866,1.0158922672271729,-0.2867639660835266,-4.064990520477295,2.418123722076416,1.9104249477386475,3.8849027156829834,0.31333160400390625,0.5333395600318909,-0.05095607042312622,1.4067840576171875
153,39506,39501,0.0002949761983472854,0.09783108532428741,1.0074597597122192,5.106014728546143,-2.5329160690307617,3.0835704803466797,1.913655161857605,3.884813070297241,0.31465569138526917,0.45753929018974304,-0.02995913289487362,1.431463599205017
154,39516,39511,0.009805419482290745,0.015985118225216866,0.9680320620536804,9.099258422851562,2.0842397212982178,4.015148162841797,1.9128390550613403,3.8856239318847656,0.3161929249763489,0.5689837336540222,-0.0021326234564185143,1.474211573600769
155,39526,39521,0.02763824537396431,-0.024301279336214066,0.9265505075454712,10.256629943847656,7.927864074707031,3.448251962661743,1.9134469032287598,3.884955406188965,0.31695088744163513,0.5227404832839966,0.15960456430912018,1.5032579898834229
156,39536,39531,-0.0690024197101593,0.09954413026571274,0.9562065601348877,6.534818649291992,15.90296745300293,2.8434855937957764,1.9140660762786865,3.884885787963867,0.3176872134208679,0.4509375989437103,0.2413041889667511,1.5388346910476685
157,39546,39541,0.03639892116189003,0.0594649612903595,0.8227757811546326,3.246358633041382,19.540203094482422,2.625293493270874,1.915141224861145,3.88531231880188,0.31856435537338257,0.2679820656776428,0.2543638050556183,1.573876142501831
158,39556,39551,0.11107911914587021,0.0758851170539856,0.8786734938621521,1.5075045824050903,19.21481704711914,2.517296314239502,1.9157770872116089,3.8855066299438477,0.31918585300445557,0.038423921912908554,0.23017579317092896,1.6008833646774292
159,39566,39561,0.1269632875919342,-0.07322359830141068,0.9072381854057312,3.348567008972168,12.055328369140625,1.7011311054229736,1.9169403314590454,3.8846542835235596,0.31961965560913086,-0.1552216112613678,0.3475494384765625,1.6101404428482056
160,39576,39571,0.15318958461284637,-0.12923720479011536,0.8884648680686951,2.840712785720825,4.0318450927734375,0.4884709417819977,1.9173088073730469,3.8848140239715576,0.31803396344184875,-0.2446935623884201,0.39749571681022644,1.6384811401367188
161,39586,39581,0.015223484486341476,-0.0041351765394210815,0.9570228457450867,1.6009037494659424,7.013758659362793,-0.6788794994354248,1.9175643920898438,3.8862876892089844,0.31823158264160156,-0.22050988674163818,0.35916024446487427,1.6499403715133667
162,39596,39591,0.16027690470218658,0.0037792036309838295,0.8320813775062561,-0.8459133505821228,-3.808851718902588,-0.9665570259094238,1.9187942743301392,3.8859751224517822,0.31823208928108215,-0.186612069606781,0.3787997364997864,1.6406725645065308
163,39606,39601,0.14351655542850494,-0.10741115361452103,0.8925377726554871,-2.875958204269409,-9.133817672729492,-1.5988831520080566,1.9179669618606567,3.8858652114868164,0.3184055984020233,-0.02877713367342949,0.3550611138343811,1.6406710147857666
164,39616,39611,0.041529010981321335,-0.07927526533603668,0.914615273475647,-3.7276597023010254,-9.821111679077148,-0.9248878359794617,1.9198895692825317,3.8868603706359863,0.3180809020996094,-0.03597283735871315,0.29623621702194214,1.6267749071121216
165,39626,39621,-0.01985922083258629,0.028197510167956352,1.0031882524490356,-2.6662745475769043,-8.277339935302734,-0.02570079080760479,1.920163869857788,3.887500524520874,0.31780141592025757,0.11676973104476929,0.23896324634552002,1.6394404172897339
166,39636,39631,-0.008540095761418343,-0.022036617621779442,1.0296375751495361,0.7045807838439941,-6.858758449554443,0.7998074889183044,1.9206870794296265,3.8882083892822266,0.31744423508644104,0.23878668248653412,0.2138603925704956,1.640317440032959
167,39646,39641,0.01946837082505226,-0.1372736692428589,0.9743718504905701,1.181680679321289,-2.905299186706543,1.7344425916671753,1.9205734729766846,3.8887276649475098,0.31467780470848083,0.3069441318511963,0.23250094056129456,1.6615240573883057
168,39656,39651,-0.04871521517634392,-0.12195960432291031,1.0738941431045532,-1.161905288696289,8.073629379272461,1.5000606775283813,1.9200059175491333,3.8885715007781982,0.3141985833644867,0.3543649911880493,0.2431381195783615,1.7055423259735107
169,39666,39661,0.004703304264694452,-0.0917888656258583,0.9806044697761536,-1.552907943725586,10.573097229003906,1.286020040512085,1.92043137550354,3.8900983333587646,0.3137127161026001,0.17092932760715485,0.21496407687664032,1.7206815481185913
170,39676,39671,-0.01706906035542488,0.05665239691734314,0.9527135491371155,-4.1353654861450195,16.156095504760742,2.310469388961792,1.9205764532089233,3.8904483318328857,0.31182485818862915,0.017818670719861984,0.17614836990833282,1.7583563327789307
171,39686,39681,0.03787077218294144,-0.11451200395822525,0.9951919317245483,-4.689056873321533,11.649186134338379,2.956094980239868,1.921115756034851,3.8922789096832275,0.3112909197807312,-0.10500569641590118,0.11033163219690323,1.7854537963867188
172,39696,39691,0.030536910519003868,-0.1522158831357956,1.0389701128005981,-6.707490921020508,5.5030598640441895,2.002166986465454,1.9225949048995972,3.8936097621917725,0.31066426634788513,-0.28964757919311523,0.10442038625478745,1.8421896696090698
173,39706,39701,0.019667990505695343,-0.03204885125160217,1.0185511112213135,-8.014326095581055,-2.7055017948150635,1.2893122434616089,1.9228171110153198,3.8937857151031494,0.3096262514591217,-0.2822687029838562,-0.017792170867323875,1.8774726390838623
174,39716,39711,-0.01167431753128767,-0.057514239102602005,1.0044114589691162,-11.216157913208008,-5.613495349884033,2.4461445808410645,1.922015905380249,3.8948326110839844,0.3115772306919098,-0.1669401079416275,-0.08388522267341614,1.8794828653335571
175,39726,39721,0.0573543943464756,-0.14251168072223663,1.0063835382461548,-9.71505069732666,-4.504683017730713,1.6525496244430542,1.9228571653366089,3.8930585384368896,0.3111920952796936,-0.09620239585638046,-0.04052380472421646,1.90888512134552
176,39736,39731,-0.013492896221578121,0.03068772330880165,0.9920958280563354,-5.218044757843018,-1.1092199087142944,3.228100061416626,1.9230049848556519,3.8946127891540527,0.3108469247817993,0.028875604271888733,-0.19577883183956146,1.9300779104232788
177,39746,39741,-0.04522073641419411,0.11485091596841812,1.099899172782898,-1.1835567951202393,8.401653289794922,3.248322010040283,1.923736572265625,3.894712448120117,0.31098800897598267,-0.02117782086133957,-0.2657003402709961,1.979341745376587
178,39756,39751,0.023972900584340096,-0.00739295594394207,1.0086764097213745,-1.2796716690063477,15.673335075378418,3.161956310272217,1.9240506887435913,3.8940646648406982,0.31098848581314087,-0.16108164191246033,-0.20810554921627045,1.9956022500991821
179,39766,39761,0.04860888794064522,0.06181395426392555,1.0349736213684082,-2.781216621398926,17.824792861938477,2.574122190475464,1.9262021780014038,3.893529176712036,0.3104686439037323,-0.38004326820373535,-0.2454768568277359,2.026442050933838
180,39776,39771,-0.013524701818823814,0.10295486450195312,1.1000454425811768,-4.8448710441589355,16.987794876098633,1.6137747764587402,1.9260979890823364,3.892643928527832,0.31116965413093567,-0.5423321723937988,-0.30513256788253784,2.032301902770996
181,39786,39781,-0.042171064764261246,0.1677303910255432,1.0331124067306519,-6.75999641418457,10.855764389038086,1.3031835556030273,1.926253080368042,3.893073558807373,0.3111322820186615,-0.7403165102005005,-0.4021606743335724,2.0507917404174805
182,39796,39791,-0.07759740948677063,0.07905787974596024,1.055513858795166,-3.2806200981140137,-1.5739824771881104,1.6965042352676392,1.926844835281372,3.8928332328796387,0.3110973834991455,-0.813728928565979,-0.4202927052974701,2.0505003929138184
183,39806,39801,-0.0039010727778077126,-0.12339799106121063,1.1038373708724976,3.4861161708831787,-12.97558879852295,2.1616508960723877,1.9263719320297241,3.8922314643859863,0.3111782371997833,-0.6918761730194092,-0.44709479808807373,2.06295108795166
184,39816,39811,0.03531830757856369,-0.15388089418411255,1.0564377307891846,8.633485794067383,-15.529326438903809,3.8780465126037598,1.9259395599365234,3.8930044174194336,0.31196320056915283,-0.42205697298049927,-0.3674194812774658,2.101961135864258
185,39826,39821,0.01443719957023859,-0.07288523763418198,1.0013325214385986,10.860302925109863,-13.089353561401367,5.569329261779785,1.9269353151321411,3.8925702571868896,0.3121337294578552,-0.34574317932128906,-0.21086916327476501,2.1494758129119873
186,39836,39831,0.04675527289509773,-0.08224940299987793,0.9596982002258301,10.378332138061523,-8.040989875793457,7.269350528717041,1.9265451431274414,3.8932580947875977,0.31241148710250854,-0.1999574899673462,-0.11655737459659576,2.2161004543304443
187,39846,39841,0.021532317623496056,-0.008882081136107445,1.0224859714508057,2.5495193004608154,-1.2669448852539062,8.604582786560059,1.9277069568634033,3.8930459022521973,0.311393678188324,-0.21479129791259766,-0.056866150349378586,2.285374402999878
188,39856,39851,-0.007727480493485928,-0.01746954396367073,1.063269019126892,-6.187312602996826,6.983718395233154,7.2588958740234375,1.92836332321167,3.8934054374694824,0.3115508556365967,-0.18206018209457397,-0.0636550635099411,2.3663408756256104
189,39866,39861,0.025617018342018127,0.00027622192283160985,0.9195838570594788,-14.64687442779541,10.68000602722168,4.87062406539917,1.9296011924743652,3.8940627574920654,0.311746209859848,-0.29245418310165405,-0.23504638671875,2.4319071769714355
190,39876,39871,0.03784649074077606,-0.012487642467021942,0.9583995938301086,-15.069622993469238,14.588443756103516,4.001165866851807,1.9310946464538574,3.8950538635253906,0.3089149594306946,-0.5594237446784973,-0.4877200424671173,2.4835846424102783
191,39886,39881,0.08029530197381973,-0.18831412494182587,1.0125925540924072,-7.819535732269287,12.369874000549316,3.3852412700653076,1.931970238685608,3.894880771636963,0.3088523745536804,-0.7285060286521912,-0.6118881702423096,2.5223069190979004
192,39896,39891,0.0030080797150731087,0.018097443506121635,1.0271947383880615,1.0303232669830322,8.659432411193848,3.5104799270629883,1.9314278364181519,3.895098924636841,0.30889567732810974,-0.7713026404380798,-0.605949878692627,2.569700002670288
193,39906,39901,0.048597466200590134,0.022072363644838333,0.8545440435409546,10.55489444732666,-1.3865011930465698,2.639801263809204,1.931752324104309,3.894692897796631,0.30860406160354614,-0.8068617582321167,-0.5136481523513794,2.602142810821533
194,39916,39911,-0.003959302324801683,0.08806639909744263,1.0205929279327393,14.595741271972656,-7.755215644836426,1.4861871004104614,1.932705044746399,3.893873691558838,0.30854615569114685,-0.7750444412231445,-0.3012935221195221,2.6305935382843018
195,39926,39921,0.010920402593910694,-0.02460780180990696,1.0185450315475464,11.011889457702637,-8.955711364746094,0.5387092232704163,1.932723045349121,3.893240213394165,0.30851322412490845,-0.5748839974403381,-0.15077263116836548,2.6247479915618896
196,39936,39931,-0.025452595204114914,0.004606372211128473,1.0203262567520142,0.591501772403717,-5.767587661743164,-0.8324933648109436,1.9334311485290527,3.89365291595459,0.3083919286727905,-0.45143818855285645,-0.10045165568590164,2.6249325275421143
197,39946,39941,0.0247963760048151,-0.13666649162769318,0.9919414520263672,-9.103490829467773,-0.320169061422348,-2.7368240356445312,1.9352469444274902,3.893277168273926,0.3063882887363434,-0.5474023222923279,-0.13519597053527832,2.61922550201416
198,39956,39951,0.0030385213904082775,-0.07814843952655792,1.014517903327942,-14.215003967285156,4.928523540496826,-5.368280410766602,1.9362155199050903,3.8951754570007324,0.30619287490844727,-0.5065885782241821,-0.32462185621261597,2.588369607925415
199,39966,39961,0.01338393334299326,-0.010866858065128326,1.0020898580551147,-12.945932388305664,8.503405570983887,-6.985576629638672,1.9373267889022827,3.8971006870269775,0.305952787399292,-0.5615073442459106,-0.5613493919372559,2.5392773151397705
200,39976,39971,0.01764107309281826,-0.011735650710761547,0.9833831191062927,-6.382175445556641,13.04334831237793,-9.775717735290527,1.9394981861114502,3.897853136062622,0.30536603927612305,-0.8414956331253052,-0.7301896810531616,2.4925220012664795
201,39986,39981,0.0010456284508109093,-0.02211722359061241,1.0209904909133911,2.7474217414855957,10.996628761291504,-11.854408264160156,1.939998984336853,3.8990423679351807,0.30512794852256775,-0.9731066823005676,-0.7615863680839539,2.3915014266967773
202,39996,39991,0.013970835134387016,-0.01632920652627945,1.004050612449646,12.602142333984375,2.949584484100342,-12.500300407409668,1.940191388130188,3.8980937004089355,0.30503207445144653,-1.0375211238861084,-0.5569298267364502,2.296887159347534
203,40006,40001,0.0012220324715599418,0.011622208170592785,1.05159330368042,19.63887596130371,-7.315009117126465,-13.136308670043945,1.9411413669586182,3.8988842964172363,0.3048572242259979,-0.9341846704483032,-0.35583484172821045,2.168583869934082
204,40016,40011,-0.010675223544239998,-0.15345658361911774,0.9921975135803223,21.15361785888672,-15.632314682006836,-10.958513259887695,1.9407826662063599,3.899038314819336,0.30478233098983765,-0.7590367197990417,-0.15432538092136383,2.048027992248535
205,40026,40021,-0.003398529952391982,-0.046926409006118774,1.0452429056167603,17.70903968811035,-18.678415298461914,-8.697722434997559,1.9400578737258911,3.8991003036499023,0.30473339557647705,-0.5542095303535461,0.03871353343129158,1.9249614477157593
206,40036,40031,0.022858960554003716,-0.027895422652363777,1.015608310699463,9.205666542053223,-15.662599563598633,-7.28813362121582,1.9405452013015747,3.8996360301971436,0.30469438433647156,-0.3420795798301697,0.15789608657360077,1.8416037559509277
207,40046,40041,-0.007904058322310448,-0.031033964827656746,1.0289868116378784,1.2462096214294434,-10.210779190063477,-6.07307767868042,1.9417285919189453,3.8998873233795166,0.3054150342941284,-0.2747352123260498,0.20634515583515167,1.7623465061187744
208,40056,40051,-0.008174181915819645,-0.10541453212499619,1.0613447427749634,-3.2120258808135986,-1.7048660516738892,-6.04689884185791,1.9417498111724854,3.900379180908203,0.30542445182800293,-0.06762953102588654,0.21823112666606903,1.6953328847885132
209,40066,40061,0.023587049916386604,-0.05419250577688217,1.0273926258087158,-3.12699031829834,5.112614154815674,-5.8257365226745605,1.9416035413742065,3.9009056091308594,0.3055180311203003,-0.11427681893110275,0.17641288042068481,1.6495789289474487
210,40076,40071,-0.004943018779158592,-0.06476268172264099,1.0832295417785645,0.7356331944465637,10.73877239227295,-6.234006404876709,1.9420214891433716,3.901191473007202,0.30574414134025574,-0.22592873871326447,0.16933321952819824,1.5812044143676758
211,40086,40081,0.03218095004558563,-0.06540510058403015,1.0379263162612915,3.016096830368042,13.490212440490723,-5.385115623474121,1.9434822797775269,3.900843858718872,0.30585891008377075,-0.35684674978256226,0.21117769181728363,1.5326019525527954
212,40096,40091,-0.01665344089269638,-0.09366392344236374,1.0435905456542969,4.186497688293457,15.87104320526123,-4.859676361083984,1.9442154169082642,3.9000582695007324,0.30604955554008484,-0.5319864749908447,0.20255416631698608,1.455854058265686
213,40106,40101,0.03316532075405121,0.00598294148221612,1.0233460664749146,5.073922157287598,8.470086097717285,-2.635702133178711,1.944671392440796,3.9009201526641846,0.305555522441864,-0.6492005586624146,0.29377231001853943,1.410101294517517
214,40116,40111,-0.003189234994351864,-0.05564560368657112,0.9835926294326782,4.3258442878723145,1.4603755474090576,-0.7543338537216187,1.9452307224273682,3.900482416152954,0.30583029985427856,-0.6949971914291382,0.3867529332637787,1.3895366191864014
215,40126,40121,0.028327403590083122,0.012953590601682663,1.0206917524337769,1.347489356994629,-7.349060535430908,0.3313603103160858,1.9443947076797485,3.900524616241455,0.3062024712562561,-0.6214170455932617,0.38499337434768677,1.3673079013824463
216,40136,40131,0.0010604097042232752,-0.03195379301905632,1.0164576768875122,-4.4537882804870605,-11.908284187316895,0.23802801966667175,1.945086121559143,3.90040922164917,0.306473046541214,-0.5586390495300293,0.3821258544921875,1.3787574768066406
217,40146,40141,-0.012351993471384048,0.01697983220219612,1.0164706707000732,-9.972991943359375,-13.355815887451172,-1.2058653831481934,1.9458924531936646,3.9006035327911377,0.30715906620025635,-0.41189292073249817,0.19537882506847382,1.3732150793075562
218,40156,40151,-0.0611155740916729,0.12085950374603271,1.0658175945281982,-12.991268157958984,-10.534852027893066,-3.3312952518463135,1.9455962181091309,3.9021880626678467,0.3075326085090637,-0.28228098154067993,0.021804437041282654,1.3593201637268066
219,40166,40161,-0.018605215474963188,-0.003065495053306222,1.0064780712127686,-10.675315856933594,-6.29334020614624,-4.025707721710205,1.9470477104187012,3.903475046157837,0.3077816665172577,-0.3472158908843994,-0.0909130796790123,1.3435313701629639
220,40176,40171,0.011671384796500206,0.03919578343629837,1.0343855619430542,-4.912021636962891,-3.6601979732513428,-5.230891704559326,1.9472675323486328,3.9036242961883545,0.307786762714386,-0.17252174019813538,-0.13523446023464203,1.2896406650543213
221,40186,40181,-0.02067965641617775,-0.005040596704930067,1.0099393129348755,-0.05394995957612991,-2.738668441772461,-5.569709300994873,1.9460608959197998,3.902470111846924,0.3083152770996094,-0.05079801380634308,-0.1662808060646057,1.2389941215515137
222,40196,40191,-0.0299321748316288,-0.1268567442893982,1.032094955444336,4.7137298583984375,-2.2461071014404297,-6.415121078491211,1.9474619626998901,3.9019932746887207,0.30872973799705505,-0.0870656669139862,-0.12128639966249466,1.182081937789917
223,40206,40201,0.009654875844717026,-0.0647355169057846,0.9920436143875122,11.735062599182129,2.2746639251708984,-6.708246231079102,1.9492313861846924,3.902651309967041,0.308458536863327,-0.1568998396396637,0.007748599164187908,1.1286659240722656
224,40216,40211,-0.03709055483341217,0.10740601271390915,1.0789659023284912,14.72297191619873,2.1400442123413086,-7.459367275238037,1.9499233961105347,3.9039931297302246,0.3089044690132141,-0.11296407878398895,0.0852760449051857,1.0983339548110962
225,40226,40221,0.07419535517692566,-0.01840488612651825,0.925951361656189,14.864588737487793,4.208460807800293,-8.761772155761719,1.9495213031768799,3.904423952102661,0.3094145357608795,-0.25508731603622437,0.27529996633529663,1.0281842947006226
226,40236,40231,0.09695225954055786,0.011670568026602268,0.9672375917434692,13.570788383483887,4.222115516662598,-9.190217971801758,1.9509177207946777,3.904792308807373,0.31046515703201294,-0.3333408236503601,0.37907397747039795,0.9586729407310486
227,40246,40241,-0.006711178459227085,0.018228938803076744,1.0066478252410889,9.772420883178711,2.727027416229248,-9.050092697143555,1.9508318901062012,3.903717517852783,0.31097808480262756,-0.30610671639442444,0.5953980088233948,0.8448517918586731
228,40256,40251,0.02502254769206047,-0.1092618778347969,0.9945213198661804,4.171079158782959,1.4482536315917969,-8.19194221496582,1.9515330791473389,3.904481887817383,0.31144604086875916,-0.3492129445075989,0.5838251709938049,0.7555650472640991
229,40266,40261,0.07036739587783813,-0.03179344907402992,0.988110363483429,-3.1647956371307373,-4.313334941864014,-7.269611358642578,1.953151822090149,3.905160665512085,0.3119070827960968,-0.34801217913627625,0.6194770932197571,0.6826450228691101
230,40276,40271,-0.004817309323698282,-0.007458594627678394,0.9870153665542603,-7.201151371002197,-5.945931911468506,-7.182727336883545,1.9540953636169434,3.9053475856781006,0.31667518615722656,-0.3316446542739868,0.5514207482337952,0.605078935623169
231,40286,40281,0.028472017496824265,0.07444572448730469,0.9383548498153687,-6.550361156463623,-8.704878807067871,-6.712432384490967,1.954129934310913,3.9060192108154297,0.3173932433128357,-0.21719661355018616,0.44525933265686035,0.5537944436073303
232,40296,40291,0.034629859030246735,0.1390281468629837,0.9527820944786072,-4.075753211975098,-10.448535919189453,-6.256288051605225,1.9559333324432373,3.9064548015594482,0.31800153851509094,-0.20450638234615326,0.35640230774879456,0.4815627932548523
233,40306,40301,-0.0691601037979126,-0.03247905522584915,1.0491546392440796,0.3014703691005707,-7.963946342468262,-5.007212162017822,1.95679771900177,3.9070847034454346,0.31809768080711365,0.07764774560928345,0.4142085015773773,0.4323461353778839
234,40316,40311,-0.044932302087545395,-0.0008542455616407096,1.0447494983673096,3.5251710414886475,-7.730181694030762,-2.1487326622009277,1.9570825099945068,3.905580997467041,0.31872522830963135,0.04744608700275421,0.45471110939979553,0.366775244474411
235,40326,40321,0.06095803901553154,-0.004118118900805712,0.9591971635818481,5.587427139282227,-5.821930885314941,-0.7652813792228699,1.9567922353744507,3.9050819873809814,0.3193656802177429,0.21424268186092377,0.5271196365356445,0.3377383351325989
236,40336,40331,0.03556741401553154,-0.0365380197763443,0.9572136998176575,5.314797401428223,-3.906348705291748,0.28946653008461,1.9579237699508667,3.9043829441070557,0.3180100917816162,0.21343404054641724,0.6221936345100403,0.34708210825920105
237,40346,40341,-0.04354684054851532,-0.018941523507237434,1.0375300645828247,-0.012995357625186443,-3.3655364513397217,1.8583242893218994,1.9583086967468262,3.903661012649536,0.31849703192710876,0.20941162109375,0.6798602342605591,0.34741249680519104
238,40356,40351,-0.013111719861626625,-0.020990602672100067,0.9969640970230103,-6.481066703796387,-2.2968690395355225,3.6498918533325195,1.9581363201141357,3.9049673080444336,0.31902649998664856,0.3307796120643616,0.5619539618492126,0.38063105940818787
239,40366,40361,0.012481496669352055,-0.03143806383013725,0.9793001413345337,-12.087212562561035,-0.04021824896335602,4.590762138366699,1.9589836597442627,3.904773712158203,0.31952667236328125,0.34906303882598877,0.489595890045166,0.42057719826698303
