,timestamp_start,timestamp_end,acc.x,acc.y,acc.z,gyro.x,gyro.y,gyro.z,stateEstimate.x,stateEstimate.y,stateEstimate.z,stabilizer.pitch,stabilizer.roll,stabilizer.yaw
0,78644,78641,-0.004379151854664087,-0.020281199365854263,0.9556745290756226,0.4955311417579651,6.844185829162598,-2.2170310020446777,1.9965717792510986,4.015073299407959,0.1717778593301773,0.3842109143733978,-0.6378958225250244,2.8109309673309326
1,78654,78651,-0.016948243603110313,0.13276687264442444,0.9689159393310547,0.4006119668483734,6.1167449951171875,-1.66762113571167,1.9940565824508667,4.014776229858398,0.1729716658592224,0.37806829810142517,-0.6731891632080078,2.7791099548339844
2,78664,78661,0.03637353330850601,-0.04051603749394417,0.9575281739234924,-0.4841679036617279,4.0097737312316895,-1.2845131158828735,1.9947038888931274,4.013533592224121,0.1743212193250656,0.18194828927516937,-0.5596138834953308,2.7743117809295654
3,78674,78671,0.03506501764059067,-0.07139652222394943,1.0968014001846313,-2.646615982055664,2.6013476848602295,-1.2494274377822876,1.99437415599823,4.01361083984375,0.1759469211101532,0.18796901404857635,-0.6983405947685242,2.758697271347046
4,78684,78681,0.027345050126314163,-0.006948518566787243,1.056363582611084,-7.731516361236572,4.962238311767578,-0.7000770568847656,1.994866967201233,4.010555267333984,0.1760057657957077,0.0374872088432312,-0.7234633564949036,2.7616467475891113
5,78694,78691,0.01961454004049301,-0.08583544939756393,1.0519541501998901,-8.12138843536377,4.618858814239502,-1.363979458808899,1.9949572086334229,4.010420799255371,0.17745354771614075,0.023220853880047798,-0.8088714480400085,2.7477877140045166
6,78704,78701,-0.03378238156437874,-0.016889790073037148,1.0146617889404297,-7.0860419273376465,0.6854549646377563,-0.5964126586914062,1.995972752571106,4.009723663330078,0.17894139885902405,-0.05236561968922615,-0.9510062336921692,2.73372745513916
7,78714,78711,0.03742218390107155,-0.03253612294793129,1.0055800676345825,-4.9152045249938965,-1.8885679244995117,-0.7479773163795471,1.9918004274368286,4.011701583862305,0.18055228888988495,-0.060035526752471924,-1.1393349170684814,2.717736005783081
8,78724,78721,0.07971949130296707,-0.030339734628796577,1.113473892211914,-0.5443563461303711,-4.961414813995361,-0.25837621092796326,1.9893189668655396,4.012575626373291,0.18213355541229248,-0.07325813174247742,-1.1798737049102783,2.7194631099700928
9,78734,78731,0.011625467799603939,-0.015491237863898277,1.088972568511963,5.130610942840576,-5.8144049644470215,-0.4496751129627228,1.9918065071105957,4.010500431060791,0.1837986707687378,0.08072278648614883,-1.206006646156311,2.7006540298461914
10,78744,78741,-0.014698627404868603,-0.006786494515836239,0.9355431199073792,9.100068092346191,-3.9305062294006348,-0.015115011483430862,1.9896470308303833,4.011775016784668,0.18565967679023743,-0.07771343737840652,-1.1389423608779907,2.7263472080230713
11,78754,78751,0.03167574852705002,-0.014712669886648655,1.0004875659942627,11.2029390335083,-4.267726421356201,-0.3128887414932251,1.99106764793396,4.00761604309082,0.18508650362491608,0.23058773577213287,-1.0131001472473145,2.688086986541748
12,78764,78761,0.01626507379114628,-0.007827566005289555,1.1400861740112305,12.637179374694824,-4.571498870849609,0.20960061252117157,1.987228512763977,4.009222030639648,0.18678933382034302,0.21825143694877625,-0.8609785437583923,2.6993815898895264
13,78774,78771,-0.009686228819191456,0.04048188030719757,1.0681216716766357,9.412446975708008,1.4461134672164917,-0.23323096334934235,1.9861959218978882,4.013587951660156,0.18848204612731934,0.25259605050086975,-0.709516167640686,2.7057716846466064
14,78784,78781,0.034730464220047,-0.022375209257006645,1.0081268548965454,5.375583648681641,4.1589674949646,-0.963337242603302,1.9854217767715454,4.013710021972656,0.19254186749458313,0.3362866938114166,-0.6979911923408508,2.683544158935547
15,78794,78791,0.021862158551812172,-0.001562075107358396,1.0545867681503296,2.1084983348846436,4.111750602722168,-0.7634819746017456,1.9882018566131592,4.01466703414917,0.19484159350395203,-0.11768920719623566,-0.6575092673301697,2.7303595542907715
16,78804,78801,-0.0033228390384465456,-0.039865147322416306,0.988469123840332,-0.4766881465911865,3.2092456817626953,-1.596676230430603,1.9910298585891724,4.014526844024658,0.1966082602739334,-0.29747095704078674,-0.7350151538848877,2.7308640480041504
17,78814,78811,0.018039880320429802,0.02398470602929592,1.0279725790023804,-1.939812421798706,-0.8472403287887573,-1.8643912076950073,1.9841712713241577,4.015126705169678,0.1999972015619278,0.73678058385849,-1.0581233501434326,2.5640642642974854
18,78824,78821,0.023999186232686043,0.07976969331502914,1.1109330654144287,1.0191638469696045,-6.029653549194336,-0.052838217467069626,1.9819289445877075,4.0169501304626465,0.20172595977783203,0.857827365398407,-1.1017189025878906,2.537539482116699
19,78834,78831,0.020676469430327415,-0.032679785043001175,1.0023006200790405,4.903482437133789,-4.114922523498535,0.09349039942026138,1.9816216230392456,4.01704216003418,0.2041759490966797,0.8337484002113342,-1.0909243822097778,2.5475010871887207
20,78844,78841,0.016979161649942398,-0.06591463834047318,1.0151761770248413,10.530596733093262,2.527918815612793,0.028983287513256073,1.9820057153701782,4.013369560241699,0.20375385880470276,0.7359508275985718,-1.0037730932235718,2.563786268234253
21,78854,78851,0.038067322224378586,-0.1761692613363266,1.0627299547195435,15.071076393127441,9.726051330566406,-0.13256685435771942,1.984096884727478,4.012160778045654,0.20624001324176788,0.5529296398162842,-0.7569202184677124,2.585773229598999
22,78864,78861,0.05272452160716057,-0.11870609223842621,1.0410622358322144,18.14322853088379,15.41588020324707,-0.3324744701385498,1.9866214990615845,4.011932849884033,0.20854711532592773,0.2779091000556946,-0.5928810834884644,2.6068248748779297
23,78874,78871,-0.005959090776741505,0.04452682286500931,0.9113467931747437,18.010257720947266,18.852886199951172,-1.0628539323806763,1.988040566444397,4.012206554412842,0.21068431437015533,0.06999968737363815,-0.4717511534690857,2.5995843410491943
24,78884,78881,-0.005606686696410179,0.05849906802177429,1.0147130489349365,15.710369110107422,17.22955894470215,-1.012284755706787,1.9897146224975586,4.011497497558594,0.2140021026134491,-0.19625966250896454,-0.22421590983867645,2.5988211631774902
25,78894,78891,0.0265424195677042,-0.03719225898385048,0.9961878061294556,11.699692726135254,11.914688110351562,-1.4498716592788696,1.9906895160675049,4.009151458740234,0.21615341305732727,-0.40430769324302673,0.035874344408512115,2.5942094326019287
26,78904,78901,-0.04184127599000931,0.006928677670657635,1.082390308380127,6.971487522125244,4.288306713104248,-1.4824976921081543,1.9933578968048096,4.005127906799316,0.21822264790534973,-0.6132235527038574,0.21058601140975952,2.5930709838867188
27,78914,78911,-0.07215872406959534,0.051561251282691956,1.009767770767212,0.7490962743759155,-4.163418769836426,-1.392008900642395,1.9959356784820557,4.004441261291504,0.22125330567359924,-0.7592858672142029,0.2997625172138214,2.590470314025879
28,78924,78921,0.014974408783018589,-0.05340711399912834,0.9298529028892517,-3.3856256008148193,-10.067877769470215,-1.1663309335708618,1.9985318183898926,4.004916667938232,0.22340784966945648,-0.7960383296012878,0.29297077655792236,2.579256772994995
29,78934,78931,-0.006267748773097992,-0.010242997668683529,0.984734058380127,-5.795167446136475,-14.740190505981445,-0.7190713882446289,1.9995595216751099,4.003977298736572,0.2255208045244217,-0.8000786304473877,0.15059512853622437,2.5584170818328857
30,78944,78941,0.015389244072139263,-0.09860910475254059,0.9754391312599182,-6.203798770904541,-16.59172248840332,-0.7246883511543274,1.9992585182189941,4.003071308135986,0.22865904867649078,-0.5628291964530945,0.06513146311044693,2.5466036796569824
31,78954,78951,0.03650568053126335,-0.021157117560505867,0.951471745967865,-4.132683753967285,-16.56588363647461,-0.6829333305358887,1.9980976581573486,3.9983010292053223,0.23116779327392578,-0.17917972803115845,0.6474123597145081,2.618086338043213
32,78964,78961,0.026737235486507416,-0.00973853562027216,0.9677702784538269,-1.3475306034088135,-14.66706657409668,-1.099626064300537,2.0025217533111572,3.9961354732513428,0.23338672518730164,-0.6279946565628052,0.6131473779678345,2.5989015102386475
33,78974,78971,-0.001181921106763184,-0.04081479087471962,0.9459491968154907,-1.6691076755523682,-10.866142272949219,-0.3607359230518341,2.003615617752075,3.9962353706359863,0.2355780005455017,-0.5379642844200134,0.5287920236587524,2.577491521835327
34,78984,78981,-0.00633645337074995,-0.03114313632249832,0.9555439949035645,-4.064829349517822,-9.380791664123535,-0.34953320026397705,2.0030019283294678,3.997678756713867,0.2386619746685028,-0.27853313088417053,0.362099289894104,2.5597283840179443
35,78994,78991,0.033809613436460495,-0.12890145182609558,0.9350529313087463,-7.238171100616455,-9.825525283813477,-0.4669835567474365,2.0021474361419678,3.995177984237671,0.24080868065357208,-0.19630679488182068,0.31066393852233887,2.5544958114624023
36,79004,79001,0.018182843923568726,-0.08264918625354767,0.9186756610870361,-8.536398887634277,-12.302258491516113,-0.27244260907173157,2.0037477016448975,3.9940686225891113,0.24292902648448944,-0.02334626019001007,0.2898394763469696,2.560809850692749
37,79014,79011,-0.003230354283004999,0.01475287415087223,0.9598313570022583,-8.87894344329834,-11.463099479675293,-0.5827867984771729,2.004873752593994,3.9945905208587646,0.24567584693431854,0.021294159814715385,0.10069947689771652,2.5394506454467773
38,79024,79021,0.053396280854940414,-0.06830566376447678,0.9560118913650513,-9.147980690002441,-11.495138168334961,-0.7310628890991211,2.0041534900665283,3.9937381744384766,0.24769790470600128,0.0655868798494339,0.06104427948594093,2.535921096801758
39,79034,79031,0.006324423477053642,-0.012538799084722996,0.9621409773826599,-7.5608415603637695,-10.788104057312012,-0.6486058235168457,2.0042014122009277,3.9929757118225098,0.24975290894508362,0.2612932026386261,0.023653818294405937,2.5383899211883545
40,79044,79041,0.009146549738943577,-0.009837009012699127,0.9326426386833191,-6.365946292877197,-8.944143295288086,-1.5525352954864502,2.004453420639038,3.9927053451538086,0.25020429491996765,0.5116956233978271,-0.13919445872306824,2.531501531600952
41,79054,79051,0.0023206144105643034,0.0865471288561821,0.9133152961730957,-4.810688495635986,-10.215006828308105,-0.8414000272750854,2.004531145095825,3.992994785308838,0.2519964277744293,0.6526541709899902,-0.26747196912765503,2.51739764213562
42,79064,79061,0.02578163892030716,0.05702143907546997,0.8916095495223999,-2.798327922821045,-7.879134178161621,-1.1902419328689575,2.0051703453063965,3.9917123317718506,0.2537279725074768,0.6824077367782593,-0.28271859884262085,2.505185127258301
43,79074,79071,0.0811300203204155,0.02220134250819683,0.819959819316864,-0.17799054086208344,-4.362740516662598,-1.1607125997543335,2.006486654281616,3.99135160446167,0.25531840324401855,0.8167119026184082,-0.3363911211490631,2.4922451972961426
44,79084,79081,0.027037646621465683,-0.008081709034740925,0.9223204851150513,0.7012318968772888,-1.9875837564468384,-1.0116673707962036,2.0068747997283936,3.992018699645996,0.25526872277259827,0.7768318057060242,-0.2835889458656311,2.4792933464050293
45,79094,79091,0.0006713513284921646,-0.008777374401688576,0.9427213072776794,2.0018727779388428,-2.5575711727142334,-1.008861780166626,2.0064525604248047,3.994030714035034,0.25661584734916687,0.7819496989250183,-0.2926042973995209,2.4696435928344727
46,79104,79101,-0.013676824979484081,-0.050635211169719696,0.9567464590072632,1.5751129388809204,0.713320791721344,-0.6466349959373474,2.006526231765747,3.992661476135254,0.2578665614128113,0.8394341468811035,-0.145210400223732,2.459419012069702
47,79114,79111,0.024118227884173393,-0.1386202871799469,0.9511043429374695,0.740636944770813,-0.06495466828346252,-0.30280229449272156,2.0063536167144775,3.990668296813965,0.25914978981018066,0.8662887215614319,-0.16414083540439606,2.4530036449432373
48,79124,79121,0.007032076362520456,-0.04641531780362129,0.9443848729133606,-1.4040154218673706,-0.5770652294158936,-0.004616531543433666,2.0074923038482666,3.9910261631011963,0.2603394687175751,0.8345101475715637,-0.20041368901729584,2.4514687061309814
49,79134,79131,0.006747798528522253,-0.03653312474489212,0.9254416227340698,-3.4463984966278076,-3.0107083320617676,0.1937132477760315,2.006221294403076,3.991750955581665,0.2614917755126953,0.9651569128036499,-0.2683902382850647,2.4549827575683594
50,79144,79141,-0.0114156948402524,0.016561413183808327,0.991503894329071,-4.503370761871338,-2.665602684020996,0.1459190547466278,2.0055770874023438,3.9921703338623047,0.2606990337371826,1.0339223146438599,-0.2894318103790283,2.4550602436065674
51,79154,79151,0.03635675832629204,-0.006933597382158041,1.0012061595916748,-4.77092170715332,-3.145859479904175,-0.04091137647628784,2.0064730644226074,3.9900548458099365,0.26166316866874695,1.098063588142395,-0.3208697438240051,2.456822633743286
52,79164,79161,0.013989903964102268,0.006818592548370361,0.9911171197891235,-3.6924960613250732,-1.9843168258666992,0.1757434606552124,2.006361722946167,3.992023468017578,0.26260632276535034,1.1554276943206787,-0.42290326952934265,2.4616496562957764
53,79174,79171,0.02589062787592411,-0.032650869339704514,0.9455609321594238,-1.5893146991729736,0.7724938988685608,0.39802518486976624,2.00966215133667,3.990978956222534,0.26403239369392395,1.1828200817108154,-0.4935709536075592,2.4670846462249756
54,79184,79181,-0.019037606194615364,0.01678684540092945,0.9936563372612,-0.35781005024909973,3.964871883392334,-0.017081161960959435,2.011808156967163,3.9889588356018066,0.2649967074394226,1.1555677652359009,-0.45653167366981506,2.4676756858825684
55,79194,79191,0.037286534905433655,-0.0265151709318161,0.9494078159332275,1.5803331136703491,6.447364807128906,0.28950098156929016,2.0120773315429688,3.989534616470337,0.26592594385147095,1.0834076404571533,-0.469088077545166,2.471651315689087
56,79204,79201,0.0024868471082299948,-0.0020526808220893145,0.9830002784729004,3.4499218463897705,8.3008451461792,0.28016749024391174,2.0154266357421875,3.9887402057647705,0.26682591438293457,0.9756295084953308,-0.4452788233757019,2.475144147872925
57,79214,79211,0.007538673002272844,-0.033140234649181366,0.9678990840911865,4.5251545906066895,8.271978378295898,0.16630637645721436,2.0157225131988525,3.9885404109954834,0.2670360207557678,0.7836735844612122,-0.3947846591472626,2.4781405925750732
58,79224,79221,-0.04593667387962341,-0.019467245787382126,1.035284399986267,4.310525417327881,6.164209365844727,0.7413374185562134,2.0141119956970215,3.9882376194000244,0.26789531111717224,0.9220948815345764,-0.3367469310760498,2.4774885177612305
59,79234,79231,0.028437510132789612,0.0035071626771241426,0.9727497696876526,3.167051076889038,4.187160015106201,0.7364922761917114,2.015655040740967,3.9880876541137695,0.2687309682369232,0.7335346937179565,-0.29340556263923645,2.4872357845306396
60,79244,79241,0.024719126522541046,0.10146571695804596,0.932826817035675,1.2756725549697876,1.6951713562011719,0.6526793837547302,2.016258955001831,3.9889755249023438,0.27063682675361633,0.9789709448814392,-0.2727149724960327,2.4915144443511963
61,79254,79251,0.00681217759847641,-0.0012778034433722496,0.9712615013122559,-0.05081350728869438,-0.21932773292064667,0.6284741163253784,2.0143935680389404,3.9889206886291504,0.2714710831642151,1.0090763568878174,-0.3527093529701233,2.5051827430725098
62,79264,79261,0.015466294251382351,-0.10553577542304993,0.9724631309509277,-0.9708017110824585,-0.43563392758369446,0.8718616366386414,2.0146286487579346,3.9890260696411133,0.2722660005092621,0.9890215992927551,-0.3729418218135834,2.5142853260040283
63,79274,79271,-0.015253451652824879,-0.0973314493894577,0.9557652473449707,-1.1408438682556152,2.0281803607940674,0.8378546833992004,2.01387882232666,3.987933874130249,0.2715205252170563,1.09292733669281,-0.3952834904193878,2.521193504333496
64,79284,79281,-0.001266329549252987,-0.08203832060098648,0.966023325920105,-0.017659978941082954,5.93559455871582,1.2318342924118042,2.0130457878112793,3.9896202087402344,0.2722441256046295,0.9850135445594788,-0.41255518794059753,2.5345993041992188
65,79294,79291,0.04964952915906906,-0.061247196048498154,0.9351070523262024,0.8487400412559509,8.774837493896484,0.8380287885665894,2.0120537281036377,3.9893805980682373,0.2729499936103821,0.8247748017311096,-0.40549781918525696,2.546264171600342
66,79304,79301,0.022832393646240234,-0.08037534356117249,1.0427889823913574,2.481684684753418,11.745499610900879,0.9474749565124512,2.011484146118164,3.989260196685791,0.27357250452041626,0.6269435882568359,-0.3778870701789856,2.557924509048462
67,79314,79311,0.046134062111377716,-0.07758987694978714,0.9631184935569763,4.002950191497803,13.337481498718262,0.679934561252594,2.0132522583007812,3.9889354705810547,0.27464744448661804,0.3962976336479187,-0.32715532183647156,2.56588077545166
68,79324,79321,0.0038148672319948673,-0.05513062700629234,1.0409066677093506,4.876364707946777,10.089356422424316,0.7876259088516235,2.0145583152770996,3.9874885082244873,0.2752639949321747,0.29058462381362915,-0.1869325190782547,2.567093849182129
69,79334,79331,0.031297411769628525,-0.02521602250635624,0.9841837882995605,5.082772254943848,7.588191986083984,0.7091389298439026,2.0155489444732666,3.9871177673339844,0.27582356333732605,0.10738607496023178,-0.1210857480764389,2.5739753246307373
70,79344,79341,0.04121873155236244,-0.028247354552149773,1.0714900493621826,2.7443695068359375,2.132359266281128,0.7868373394012451,2.016261577606201,3.986105442047119,0.2764590084552765,0.027879999950528145,-0.002704023849219084,2.578084707260132
71,79354,79351,-0.029866419732570648,-0.0022374503314495087,1.0605816841125488,0.8080000877380371,-2.1469945907592773,0.9817358255386353,2.0148658752441406,3.983344078063965,0.27730676531791687,0.3327730596065521,0.011031996458768845,2.58284068107605
72,79364,79361,-0.025982769206166267,0.1403793841600418,0.9845989942550659,-2.0802266597747803,-4.599143981933594,0.9181355834007263,2.0132064819335938,3.9815821647644043,0.27795684337615967,0.6464176774024963,-0.082149438560009,2.594212055206299
73,79374,79371,-0.0007370865205302835,0.02531336061656475,0.998254120349884,-5.129552841186523,-4.2906036376953125,0.8157950639724731,2.0132808685302734,3.9823989868164062,0.27805158495903015,0.6588009595870972,-0.2181130349636078,2.6060242652893066
74,79384,79381,0.01157437078654766,-0.015163510106503963,1.0020437240600586,-5.35910701751709,0.17353187501430511,0.7554401755332947,2.0125131607055664,3.9820058345794678,0.27870631217956543,0.7122453451156616,-0.23140956461429596,2.6128129959106445
75,79394,79391,-0.03732922300696373,-0.010944073088467121,0.9958996176719666,-3.859053611755371,6.436607360839844,0.7175878882408142,2.013949155807495,3.9812705516815186,0.2795199751853943,0.61224365234375,-0.3134568929672241,2.6218814849853516
76,79404,79401,-0.061225395649671555,0.03143123537302017,1.0186293125152588,-0.7692521214485168,13.654958724975586,0.8909993767738342,2.0133044719696045,3.9803872108459473,0.27915769815444946,0.48567429184913635,-0.2843669056892395,2.627932071685791
77,79414,79411,0.038902223110198975,-0.036702461540699005,0.9613108038902283,1.0034725666046143,17.65959358215332,0.4695483148097992,2.0113236904144287,3.9779839515686035,0.2797132432460785,0.4657182991504669,-0.29166826605796814,2.6316099166870117
78,79424,79421,0.001675523235462606,-0.03982485085725784,1.0293769836425781,3.9967992305755615,18.71392250061035,0.6184398531913757,2.0137391090393066,3.977447748184204,0.28049013018608093,0.10808888077735901,-0.25881901383399963,2.637967586517334
79,79434,79431,0.002193242311477661,-0.09563757479190826,0.9639586806297302,5.244211196899414,16.820571899414062,0.39907053112983704,2.012765645980835,3.976897954940796,0.2811109125614166,-0.023653442040085793,-0.18619345128536224,2.640183448791504
80,79444,79441,0.02279888652265072,-0.07665441185235977,0.9094114899635315,5.167607307434082,11.954955101013184,0.13924838602542877,2.0118894577026367,3.9760701656341553,0.2795232832431793,-0.12207671254873276,-0.1114361584186554,2.6405508518218994
81,79454,79451,0.008577242493629456,-0.04450845345854759,0.9650596380233765,3.6756935119628906,7.504263401031494,0.1797664910554886,2.0123937129974365,3.9769489765167236,0.2799871563911438,-0.347902774810791,-0.04487331584095955,2.6421704292297363
82,79464,79461,0.02163715288043022,-0.010205157101154327,0.9833760857582092,1.7912880182266235,3.300302028656006,0.20496441423892975,2.0099704265594482,3.977635622024536,0.2804524898529053,-0.4108647406101227,-0.009820985607802868,2.643928050994873
83,79474,79471,-0.020692212507128716,0.035762637853622437,1.0514580011367798,-0.06479818373918533,4.977419376373291,0.04096351936459541,2.0094213485717773,3.9771389961242676,0.28067147731781006,-0.31225869059562683,-0.003238699398934841,2.6448497772216797
84,79484,79481,0.043088801205158234,0.057354554533958435,0.9007424712181091,-1.555845022201538,9.985149383544922,-0.09867704659700394,2.0089271068573,3.977285385131836,0.2810206115245819,-0.3696078658103943,-0.02253972738981247,2.642317533493042
85,79494,79491,0.003308776766061783,0.05612008646130562,1.018845558166504,-3.3924403190612793,16.481225967407227,-0.3224027752876282,2.0103156566619873,3.974910020828247,0.2814366817474365,-0.6420044898986816,-0.07252237945795059,2.6371467113494873
86,79504,79501,0.04253732040524483,-0.028334014117717743,0.9671809673309326,-4.196579456329346,23.38606071472168,-0.8929097056388855,2.008488893508911,3.9760119915008545,0.2801181375980377,-0.7228936553001404,-0.06913406401872635,2.636255979537964
87,79514,79511,-0.01857413537800312,0.015010815113782883,1.0035187005996704,-4.4058427810668945,24.682632446289062,-0.6708561778068542,2.0086605548858643,3.9752962589263916,0.2803370952606201,-1.1506097316741943,-0.07313694804906845,2.6270804405212402
88,79524,79521,0.019996285438537598,0.05054015666246414,1.027015209197998,-2.4329659938812256,24.897411346435547,-0.352901816368103,2.008589744567871,3.973506450653076,0.28055280447006226,-1.3993264436721802,-0.1543339341878891,2.616830348968506
89,79534,79531,0.005372801795601845,0.057838764041662216,1.0715770721435547,-1.8982741832733154,21.25777816772461,-0.4227231442928314,2.00675892829895,3.9759175777435303,0.28095462918281555,-1.5170880556106567,-0.2787097096443176,2.6022002696990967
90,79544,79541,0.03596752509474754,0.030844151973724365,1.0363882780075073,0.7668412923812866,14.62016487121582,-0.5574991703033447,2.005676507949829,3.975440263748169,0.2805843651294708,-1.733338475227356,-0.29109472036361694,2.596714496612549
91,79554,79551,0.004233019892126322,-0.007747832685709,1.0063323974609375,2.804810047149658,8.849273681640625,-0.736095130443573,2.0066258907318115,3.972850799560547,0.28063422441482544,-1.8364918231964111,-0.2594987452030182,2.589529037475586
92,79564,79561,0.022454265505075455,-0.1481129676103592,0.9938850998878479,4.303694725036621,4.982096195220947,-0.883301854133606,2.006842851638794,3.9736266136169434,0.2809393107891083,-1.9873319864273071,-0.20775023102760315,2.5859594345092773
93,79574,79571,0.047355037182569504,-0.11363337188959122,1.0832908153533936,5.855778217315674,1.5225147008895874,-0.6595144271850586,2.007833957672119,3.9724323749542236,0.28075072169303894,-2.0502378940582275,-0.05196763575077057,2.604871988296509
94,79584,79581,0.007638456765562296,-0.025324251502752304,1.0180734395980835,5.842019557952881,0.5538133382797241,-0.8668344616889954,2.0061254501342773,3.9725852012634277,0.28108763694763184,-2.0175819396972656,0.029223419725894928,2.6050403118133545
95,79594,79591,-0.013420183211565018,0.03289198875427246,1.0783168077468872,4.450427532196045,1.9512946605682373,-0.7832233309745789,2.0070242881774902,3.9707906246185303,0.2814728319644928,-2.053327798843384,0.02421891689300537,2.580193519592285
96,79604,79601,0.015356741845607758,-0.03713684901595116,1.0295674800872803,0.25771835446357727,3.230346918106079,-1.4836734533309937,2.006695032119751,3.970454216003418,0.28184351325035095,-2.1084468364715576,0.04610097408294678,2.5680201053619385
97,79614,79611,-0.009061969816684723,-0.004818612709641457,1.0884249210357666,-3.4860284328460693,3.396178722381592,-2.1027519702911377,2.0064315795898438,3.9700708389282227,0.2822795808315277,-2.132485866546631,0.0004769834049511701,2.5421347618103027
98,79624,79621,-0.023935802280902863,-0.020926039665937424,1.0362414121627808,-4.301788806915283,3.5795505046844482,-1.7780122756958008,2.0065579414367676,3.9697089195251465,0.2827495336532593,-2.2010395526885986,-0.07889466732740402,2.5091490745544434
99,79634,79631,0.006117579527199268,-0.015075555071234703,1.04052734375,-5.197104454040527,2.9542348384857178,-1.4277105331420898,2.0056569576263428,3.9693033695220947,0.283307820558548,-2.258227586746216,-0.0930340588092804,2.5030441284179688
100,79644,79641,0.03983142226934433,-0.1341562271118164,0.9705877304077148,-3.5990614891052246,1.0542908906936646,-1.6685805320739746,2.00573992729187,3.969486951828003,0.2835187315940857,-2.2887508869171143,-0.1755220592021942,2.474750518798828
101,79654,79651,0.007283760234713554,-0.05021611973643303,0.9845268726348877,-0.9778613448143005,-1.100607991218567,-1.4921905994415283,2.0036046504974365,3.9696688652038574,0.2841867506504059,-2.2713708877563477,-0.2181224226951599,2.453315496444702
102,79664,79661,0.026135239750146866,-0.017539143562316895,1.047664761543274,1.882068157196045,-3.3179378509521484,-1.2753796577453613,2.003800630569458,3.9696619510650635,0.284833163022995,-2.229365110397339,-0.06553319096565247,2.4964492321014404
103,79674,79671,0.03012005425989628,-0.021596234291791916,0.9850011467933655,3.511634349822998,-5.335385322570801,-1.5774428844451904,2.0031793117523193,3.9691407680511475,0.28559044003486633,-2.1304142475128174,-0.027595067396759987,2.485874891281128
104,79684,79681,-0.03331490233540535,0.10091494768857956,1.0253924131393433,3.3462162017822266,-5.759666442871094,-1.5882741212844849,2.003838300704956,3.9690890312194824,0.28618714213371277,-2.1584787368774414,-0.05896369740366936,2.441168785095215
105,79694,79691,0.01629498228430748,0.04697708040475845,1.0256638526916504,2.7679953575134277,-4.33073091506958,-1.318021535873413,2.003927707672119,3.969050884246826,0.2867966592311859,-2.2641353607177734,-0.020090855658054352,2.4244067668914795
106,79704,79701,0.019160786643624306,-0.014183714985847473,0.9718796014785767,0.9069851040840149,-3.3207714557647705,-1.5588361024856567,2.005159378051758,3.9665236473083496,0.28918302059173584,-2.155365467071533,-0.009056487120687962,2.4105734825134277
107,79714,79711,-0.04195994883775711,-0.03746974468231201,1.1417666673660278,-1.106701135635376,-4.094852924346924,-1.5739654302597046,2.005033016204834,3.9655959606170654,0.2899446487426758,-2.094939947128296,-0.02723572961986065,2.3934884071350098
108,79724,79721,-0.01720871403813362,-0.15733575820922852,1.0346035957336426,-2.0834875106811523,-4.744419097900391,-1.5941462516784668,2.0056657791137695,3.966604709625244,0.29068025946617126,-2.093829393386841,-0.06732121109962463,2.369659900665283
109,79734,79731,0.06780087202787399,-0.06735925376415253,0.9928150773048401,-3.383188486099243,-4.813314914703369,-1.6466296911239624,2.0055696964263916,3.964658737182617,0.29155659675598145,-2.0003299713134766,0.013063877820968628,2.3962528705596924
110,79744,79741,0.05705014988780022,-0.09190144389867783,1.0048445463180542,-3.423279047012329,-7.471648693084717,-1.5426685810089111,2.004560947418213,3.9629580974578857,0.2940552234649658,-1.8538202047348022,-0.06649679690599442,2.3678276538848877
111,79754,79752,0.047132257372140884,-0.06240297481417656,0.9569967985153198,-3.2767579555511475,-9.349971771240234,-1.5229601860046387,2.005638837814331,3.9615824222564697,0.2949787974357605,-1.8850868940353394,-0.1343918740749359,2.33518123626709
112,79764,79761,-0.020634396001696587,0.02455895207822323,1.017564296722412,-1.8257149457931519,-9.764084815979004,-1.3130894899368286,2.005230665206909,3.960690975189209,0.2960841655731201,-1.6644325256347656,-0.1852835714817047,2.3159894943237305
113,79774,79771,0.020904282107949257,-0.03485093638300896,0.9302977323532104,-1.2833986282348633,-9.43073844909668,-1.1716973781585693,2.0063047409057617,3.9606990814208984,0.2951907813549042,-1.7564654350280762,-0.22061291337013245,2.291581392288208
114,79784,79781,0.04324609413743019,-0.0008552138460800052,1.0025217533111572,-0.034480057656764984,-8.938077926635742,-0.9436401128768921,2.0058305263519287,3.9605164527893066,0.2960643172264099,-1.7458274364471436,-0.2328832894563675,2.2787392139434814
115,79794,79791,0.009878653101623058,0.00287272734567523,1.0643233060836792,1.1874797344207764,-9.796235084533691,-1.0606058835983276,2.0077738761901855,3.959550380706787,0.29680725932121277,-1.708649754524231,-0.1461534947156906,2.2961788177490234
116,79804,79801,-0.014203102327883244,0.041413091123104095,1.0095810890197754,2.518784523010254,-10.194233894348145,-1.2643458843231201,2.007537841796875,3.95857310295105,0.2954786717891693,-1.4358094930648804,-0.19592666625976562,2.263011932373047
117,79814,79811,-0.03928464651107788,0.16414891183376312,0.9213002920150757,2.3832926750183105,-10.036972999572754,-0.8740739822387695,2.0087029933929443,3.9584500789642334,0.296202689409256,-1.3437697887420654,-0.1628270447254181,2.251035451889038
118,79824,79821,-0.02074015885591507,0.07937493175268173,0.9877265691757202,1.4682981967926025,-9.63677978515625,-0.9378511309623718,2.0096418857574463,3.9571480751037598,0.29691192507743835,-1.309026837348938,-0.13692834973335266,2.245182991027832
119,79834,79831,0.02366049587726593,-0.06799279153347015,0.9249452352523804,0.5871602892875671,-8.36853313446045,-0.9648891687393188,2.010725736618042,3.9558563232421875,0.2972535490989685,-1.3480703830718994,-0.12670955061912537,2.233219623565674
120,79844,79841,-0.06703315675258636,-0.0006070834351703525,1.08476984500885,0.39764586091041565,-7.693302631378174,-0.8029501438140869,2.012253522872925,3.9557313919067383,0.2978615462779999,-1.152997612953186,-0.12488336861133575,2.2242395877838135
121,79854,79851,-0.08523634821176529,-0.02929016202688217,1.0537246465682983,-1.4984058141708374,-7.792047023773193,-1.0810376405715942,2.0120694637298584,3.95515513420105,0.2985813319683075,-1.0383975505828857,-0.13796214759349823,2.2135250568389893
122,79864,79861,-0.0005603498429991305,0.02571461908519268,1.0075058937072754,-1.3317261934280396,-7.8317036628723145,-0.9024752378463745,2.012441635131836,3.9536476135253906,0.2992666959762573,-0.9571940898895264,-0.09494733065366745,2.218116044998169
123,79874,79871,-0.0011798065388575196,0.10319158434867859,0.9678839445114136,-1.2249773740768433,-8.606568336486816,-1.2795242071151733,2.0135536193847656,3.952916383743286,0.2971614599227905,-0.8584884405136108,-0.05323987454175949,2.221776008605957
124,79884,79881,0.01575678214430809,-0.11053347587585449,0.9708892107009888,-1.0396100282669067,-8.523797035217285,-0.9752304553985596,2.0140750408172607,3.951472520828247,0.2976763844490051,-0.7666593194007874,-0.09253878891468048,2.206507921218872
125,79894,79891,0.007215954829007387,-0.07487079501152039,0.968582034111023,-1.1700801849365234,-8.91671371459961,-0.9334381222724915,2.014843702316284,3.9506449699401855,0.29816508293151855,-0.8130456805229187,-0.12301495671272278,2.190979480743408
126,79904,79901,-0.0026611685752868652,-0.02419157698750496,0.980501115322113,-1.0264252424240112,-8.60836124420166,-0.4491890072822571,2.0159897804260254,3.949462890625,0.2963118553161621,-0.5409523844718933,-0.15110784769058228,2.182526111602783
127,79914,79911,-0.018603773787617683,-0.04319038242101669,0.958015501499176,-1.6371036767959595,-8.634052276611328,-0.6814478635787964,2.0153682231903076,3.9495363235473633,0.29677698016166687,-0.3605283498764038,-0.10703485459089279,2.1852285861968994
128,79924,79921,0.028303813189268112,-0.04922281578183174,0.939621090888977,-2.1357452869415283,-7.620028972625732,-0.5078609585762024,2.014244318008423,3.9493095874786377,0.29715695977211,-0.5857502222061157,-0.07938465476036072,2.183129072189331
129,79934,79931,-0.031953684985637665,0.011591136455535889,1.0489494800567627,-2.1287386417388916,-5.969282627105713,-0.25638291239738464,2.0179293155670166,3.9477617740631104,0.2961826026439667,-0.5035539865493774,-0.13222026824951172,2.1745662689208984
130,79944,79941,0.0434708446264267,-0.049383148550987244,0.9468082785606384,-2.255600690841675,-6.337823867797852,-0.4034862816333771,2.01873779296875,3.946868419647217,0.2963567078113556,-0.2826767563819885,-0.19000405073165894,2.1676864624023438
131,79954,79951,-0.01241588220000267,0.011148560792207718,1.0322456359863281,-1.6059352159500122,-6.5139875411987305,-0.5930254459381104,2.018155813217163,3.9474034309387207,0.296678364276886,-0.22112536430358887,-0.16098536550998688,2.166957378387451
132,79964,79961,0.0057052308693528175,-0.040594883263111115,0.9648175835609436,-0.8932125568389893,-5.4708380699157715,-0.46584001183509827,2.0188493728637695,3.946079730987549,0.29682815074920654,-0.16315868496894836,-0.1982463002204895,2.16023850440979
133,79974,79971,0.011458744294941425,-0.005577513948082924,1.031358003616333,-0.521496593952179,-5.200399398803711,-0.21608203649520874,2.0198092460632324,3.9471940994262695,0.297335684299469,-0.10558884590864182,-0.21915021538734436,2.1559345722198486
134,79984,79981,0.017581723630428314,-0.03284676373004913,0.9903035759925842,-0.08521856367588043,-4.883955955505371,0.19356073439121246,2.01979660987854,3.9468395709991455,0.29755115509033203,-0.06068197265267372,-0.23205673694610596,2.1544880867004395
135,79994,79991,-0.011105532757937908,-0.017666706815361977,1.0031789541244507,0.9087320566177368,-4.043181896209717,0.16678547859191895,2.0209367275238037,3.946870803833008,0.2977173328399658,-0.027121050283312798,-0.23205742239952087,2.156285285949707
136,80004,80001,-0.0032574208453297615,0.030261371284723282,1.054728388786316,1.40498948097229,-3.1458981037139893,0.051586586982011795,2.0218875408172607,3.947416067123413,0.2979249060153961,0.0007153355400077999,-0.22142094373703003,2.160649538040161
137,80014,80011,0.016175130382180214,-0.027224335819482803,1.0163828134536743,0.863609790802002,-2.684706926345825,-0.1591017246246338,2.023355722427368,3.947279691696167,0.2981220483779907,0.019557960331439972,-0.21725893020629883,2.161301374435425
138,80024,80021,-0.020228775218129158,-0.0576322115957737,1.1232322454452515,-0.03552807867527008,-3.152900218963623,-0.26367440819740295,2.0244781970977783,3.948986053466797,0.2983635663986206,0.14293143153190613,-0.22773247957229614,2.161008596420288
139,80034,80031,-0.06924845278263092,-0.043733034282922745,1.1024953126907349,-1.3278273344039917,-2.746971845626831,0.12873518466949463,2.024796724319458,3.9490132331848145,0.29687926173210144,0.24981093406677246,-0.24834153056144714,2.162079334259033
140,80044,80041,0.02898291125893593,-0.007324254140257835,0.9429138898849487,-2.5291783809661865,-0.7476685047149658,0.4335007667541504,2.025285243988037,3.949070453643799,0.29718589782714844,0.3695048689842224,-0.2889431118965149,2.16624116897583
141,80054,80051,-0.010820623487234116,-0.046625766903162,0.9926227927207947,-2.510711669921875,1.127928376197815,0.633099377155304,2.0251879692077637,3.9492390155792236,0.2975711524486542,0.1514088660478592,-0.3401435315608978,2.172938823699951
142,80064,80061,0.037758007645606995,-0.21028679609298706,1.016255259513855,-2.3270599842071533,3.527968168258667,0.40074270963668823,2.0282702445983887,3.949558734893799,0.2977851927280426,0.2110758125782013,-0.31070229411125183,2.1725196838378906
143,80074,80071,-0.004209007136523724,-0.050901513546705246,1.0532361268997192,-0.5590928196907043,2.311575174331665,0.24858789145946503,2.0286967754364014,3.948977470397949,0.3035579323768616,0.26008832454681396,-0.33864709734916687,2.175882577896118
144,80084,80081,0.03851881995797157,0.08025671541690826,0.9654346704483032,0.5394226312637329,0.4954827129840851,0.4044502079486847,2.0301361083984375,3.949993133544922,0.3042227625846863,0.1682019829750061,-0.32655447721481323,2.180138349533081
145,80094,80091,0.01764543540775776,0.015079286880791187,0.9836378693580627,-0.13348127901554108,-1.7098966836929321,-0.16213089227676392,2.030820608139038,3.9500157833099365,0.30490168929100037,0.2103838175535202,-0.32826125621795654,2.180877685546875
146,80104,80101,-0.012066631577908993,-0.003821904771029949,1.0339802503585815,-1.174791932106018,-2.952890634536743,-0.3367164134979248,2.0313167572021484,3.948378801345825,0.30672526359558105,0.20216284692287445,-0.3494221568107605,2.1806445121765137
147,80114,80111,0.035100679844617844,-0.015354570001363754,0.9865359663963318,-1.5615490674972534,-3.322247266769409,-0.7389029264450073,2.032132625579834,3.948594570159912,0.3074444532394409,0.28439298272132874,-0.37143227458000183,2.1745312213897705
148,80124,80121,0.025788184255361557,-0.02733597718179226,1.0211522579193115,-1.7879364490509033,-4.193732261657715,-1.4255986213684082,2.0334360599517822,3.9486591815948486,0.30818265676498413,0.22957265377044678,-0.400054395198822,2.168919801712036
149,80134,80131,0.011623652651906013,-0.03054487705230713,1.019761085510254,-2.0911571979522705,-3.2026538848876953,-1.197166085243225,2.033890962600708,3.948162317276001,0.30479368567466736,0.39495575428009033,-0.4363459050655365,2.1529812812805176
150,80144,80141,-0.003694817190989852,-0.07996311038732529,0.9729235172271729,-2.029355525970459,-2.2260565757751465,-1.4461568593978882,2.03458571434021,3.9479143619537354,0.30537065863609314,0.4273706078529358,-0.44337859749794006,2.1530849933624268
151,80154,80151,-0.0013024883810430765,-0.02231748402118683,1.0065886974334717,-1.8064426183700562,-0.6217831969261169,-1.2174385786056519,2.0350754261016846,3.9497199058532715,0.3059057891368866,0.47632819414138794,-0.4718751609325409,2.140873670578003
152,80164,80161,0.04159995913505554,-0.020644700154662132,0.9926124811172485,0.14819635450839996,1.0433093309402466,-1.497208595275879,2.0370845794677734,3.9487862586975098,0.30465078353881836,0.4227115511894226,-0.4917139410972595,2.127166271209717
153,80174,80171,0.0146716283634305,-0.013012219220399857,0.9879626631736755,2.702852725982666,3.156193256378174,-1.2639240026474,2.036574125289917,3.949843168258667,0.3051152527332306,0.48591938614845276,-0.4716832935810089,2.1088380813598633
154,80184,80181,0.0755266547203064,-0.05238203704357147,0.9610186219215393,2.914571523666382,5.584399223327637,-1.2208857536315918,2.0381922721862793,3.9484941959381104,0.305574506521225,0.49782007932662964,-0.34735479950904846,2.080744743347168
155,80194,80191,0.08524950593709946,-0.07555919885635376,0.9752669334411621,3.057713270187378,6.565192699432373,-1.2901842594146729,2.041290044784546,3.946880340576172,0.30591148138046265,0.3116028308868408,-0.3029308617115021,2.0717504024505615
156,80204,80201,0.06797663867473602,-0.0987127348780632,0.9696466326713562,1.779909372329712,7.742852210998535,-1.6178603172302246,2.0415303707122803,3.9475531578063965,0.30732396245002747,0.2612696588039398,-0.26508837938308716,2.0553040504455566
157,80214,80211,0.014974478632211685,-0.01527551282197237,0.9843904376029968,-0.03219135105609894,6.895049095153809,-1.5783756971359253,2.0439059734344482,3.947207450866699,0.3076137602329254,0.06774142384529114,-0.24463431537151337,2.041145086288452
158,80224,80221,-0.014202937483787537,0.062252555042505264,0.9756718277931213,-1.0393648147583008,4.79713773727417,-1.7379740476608276,2.0445141792297363,3.9467875957489014,0.30805230140686035,0.05796656385064125,-0.3213511109352112,2.0347793102264404
159,80234,80231,-0.0068960958160459995,0.002503074938431382,0.9689856171607971,-3.6063058376312256,2.1882805824279785,-2.60551381111145,2.046464443206787,3.9456424713134766,0.3085634410381317,-0.071736641228199,-0.3420964479446411,2.0151963233947754
160,80244,80241,0.010167252272367477,0.08581361174583435,1.063002347946167,-1.6792588233947754,-1.1313351392745972,-2.7897911071777344,2.0473341941833496,3.945594072341919,0.30893775820732117,-0.07368194311857224,-0.3825318217277527,1.9934091567993164
161,80254,80251,0.04136129096150398,0.02472453936934471,0.9853475689888,0.15222430229187012,-2.1695055961608887,-2.816169261932373,2.047480821609497,3.94509220123291,0.30932626128196716,-0.037384506314992905,-0.4014611542224884,1.9586430788040161
162,80264,80261,-0.017767615616321564,-0.023406725376844406,1.0050091743469238,2.0104005336761475,-4.599392890930176,-2.6105775833129883,2.0476770401000977,3.944819688796997,0.30882784724235535,0.027745908126235008,-0.4579419493675232,1.931092619895935
163,80274,80271,0.011004735715687275,-0.025538282468914986,0.9842103123664856,4.275211811065674,-5.331539630889893,-2.5096256732940674,2.04848313331604,3.9438538551330566,0.3091306686401367,0.05178629979491234,-0.39553043246269226,1.9004641771316528
164,80284,80281,-0.0011227489449083805,-0.03300321847200394,0.9880461096763611,4.236501693725586,-3.9775571823120117,-2.535790205001831,2.048021078109741,3.942443370819092,0.30948010087013245,0.14963054656982422,-0.31564489006996155,1.8622020483016968
165,80294,80291,-0.0001285833859583363,-0.005395522341132164,1.0128788948059082,5.414944171905518,-2.1964094638824463,-2.7732436656951904,2.0474276542663574,3.942552089691162,0.30985820293426514,0.2897963523864746,-0.2329041212797165,1.8308295011520386
166,80304,80301,0.027305418625473976,-0.026119954884052277,0.9762374758720398,4.128182411193848,0.3741091787815094,-2.871823787689209,2.0474817752838135,3.9418740272521973,0.30918022990226746,0.3124637007713318,-0.2184811532497406,1.800840139389038
167,80314,80311,-0.028808027505874634,-0.0031842850148677826,1.029061198234558,2.8667819499969482,3.5852789878845215,-2.449185609817505,2.048166036605835,3.942007064819336,0.3094108998775482,0.3592653274536133,-0.21560484170913696,1.768947720527649
168,80324,80321,0.02520250901579857,-0.03983305022120476,0.9671452045440674,1.9416886568069458,6.711606025695801,-2.088813066482544,2.0489892959594727,3.9412713050842285,0.3096325397491455,0.2023836374282837,-0.15385961532592773,1.742453694343567
169,80334,80331,-0.017388129606842995,0.08371803164482117,1.0239319801330566,0.2304723709821701,9.90839672088623,-1.8055155277252197,2.0495498180389404,3.9416441917419434,0.3075116276741028,0.15559199452400208,-0.26397329568862915,1.7294094562530518
170,80344,80341,0.03754652664065361,0.05311688035726547,1.042688250541687,1.1933706998825073,10.560028076171875,-1.3512307405471802,2.0510356426239014,3.941357135772705,0.30759042501449585,0.004953321069478989,-0.22446465492248535,1.7087373733520508
171,80354,80351,0.009503437206149101,0.029314815998077393,1.0687813758850098,3.1621408462524414,8.894083023071289,-1.4395625591278076,2.0511460304260254,3.9406566619873047,0.30771419405937195,0.007906461134552956,-0.1722664088010788,1.6857339143753052
172,80364,80361,0.02629297971725464,-0.05297611281275749,0.987016499042511,5.014261245727539,5.560853004455566,-1.1255543231964111,2.050604820251465,3.9396021366119385,0.3100265860557556,-0.04475506395101547,-0.09884516149759293,1.6618539094924927
173,80374,80371,0.007191845681518316,-0.01863011345267296,0.9865390658378601,6.949941635131836,2.9763941764831543,-1.190200924873352,2.05060076713562,3.9398369789123535,0.3103729784488678,-0.05992904305458069,-0.14191532135009766,1.6561713218688965
174,80384,80381,-0.01040982361882925,-0.05558999255299568,0.9720027446746826,8.516447067260742,0.10458913445472717,-0.3599390983581543,2.0513498783111572,3.940335273742676,0.31066688895225525,-0.1831551343202591,-0.07298760116100311,1.641198992729187
175,80394,80391,0.04085547849535942,-0.040034860372543335,1.0464203357696533,8.02725887298584,-0.5819135904312134,-0.347109317779541,2.0515029430389404,3.940225124359131,0.31107214093208313,-0.11627274751663208,0.08550363034009933,1.6300714015960693
176,80404,80401,0.010149994865059853,-0.04784771800041199,1.0007929801940918,7.721248626708984,-0.9083396196365356,-0.3237070143222809,2.053039789199829,3.9385905265808105,0.3084823191165924,-0.2558618187904358,0.23486492037773132,1.616057276725769
177,80414,80411,-0.028539277613162994,0.1373623162508011,0.9866364598274231,4.8960041999816895,1.2669897079467773,-0.8601256608963013,2.0536696910858154,3.9378774166107178,0.3087279796600342,-0.17321820557117462,0.28909915685653687,1.6074327230453491
178,80424,80421,-0.032389722764492035,0.15603376924991608,0.9429708123207092,2.034252882003784,3.0549066066741943,-1.1678584814071655,2.054431915283203,3.9382901191711426,0.3088565170764923,-0.21234023571014404,0.38159415125846863,1.5940380096435547
179,80434,80431,0.028765622526407242,-0.005994847510010004,1.0106090307235718,-1.664432168006897,4.155950546264648,-1.682862639427185,2.0561022758483887,3.9389536380767822,0.3114355206489563,-0.2779121994972229,0.3305971920490265,1.5865641832351685
180,80444,80441,-0.0038960380479693413,-0.10096368193626404,1.1095832586288452,-3.6729984283447266,4.803388595581055,-2.1236226558685303,2.056478977203369,3.938922166824341,0.3117729127407074,-0.25523439049720764,0.3035598695278168,1.566786527633667
181,80454,80451,-0.022870821878314018,-0.13573521375656128,1.1064740419387817,-3.3168420791625977,4.7266693115234375,-2.276454448699951,2.057366371154785,3.9399476051330566,0.3120567202568054,-0.29548636078834534,0.18109942972660065,1.5603982210159302
182,80464,80461,0.026076355949044228,-0.05352567508816719,0.9730420112609863,-1.3564611673355103,4.573777198791504,-2.782896041870117,2.0584847927093506,3.9407739639282227,0.3105645477771759,-0.3502056300640106,0.14974045753479004,1.5382393598556519
183,80474,80471,0.026469485834240913,0.012911263853311539,0.9791468381881714,1.891093373298645,4.443352222442627,-2.328587532043457,2.0581090450286865,3.940584897994995,0.3109077513217926,-0.4391725957393646,0.15516971051692963,1.5087816715240479
184,80484,80481,0.08899326622486115,-0.05054957792162895,0.9742296934127808,5.005023956298828,2.897667407989502,-1.7506521940231323,2.059220790863037,3.9400627613067627,0.31130173802375793,-0.45532307028770447,0.2087269276380539,1.4851750135421753
185,80494,80491,-0.027267921715974808,-0.027838632464408875,1.0083839893341064,6.005813121795654,0.41648396849632263,-0.9520900249481201,2.0597896575927734,3.9399161338806152,0.3137280344963074,-0.5044851303100586,0.2314908653497696,1.4636937379837036
186,80504,80501,-0.0035584191791713238,-0.00527697941288352,1.0214682817459106,4.202460765838623,-0.3402591645717621,-0.38515064120292664,2.0604255199432373,3.939378023147583,0.3142282962799072,-0.43369632959365845,0.3418910801410675,1.453391432762146
187,80514,80511,0.006602605804800987,0.039658110588788986,1.0193551778793335,2.536614418029785,-1.759236216545105,-0.330898255109787,2.0615148544311523,3.938230037689209,0.31468722224235535,-0.4145214855670929,0.42140790820121765,1.4413535594940186
188,80524,80521,-0.030000412836670876,0.039522383362054825,1.119703769683838,0.1603420525789261,-1.3859156370162964,-0.24719057977199554,2.0616514682769775,3.938314437866211,0.31524020433425903,-0.2981328070163727,0.3862956762313843,1.4457733631134033
189,80534,80531,0.006096819415688515,-0.06935133039951324,0.9734339118003845,-2.9012768268585205,0.368395060300827,-0.59222811460495,2.063004493713379,3.9384725093841553,0.3125048279762268,-0.34395796060562134,0.38912859559059143,1.440436601638794
190,80544,80541,0.0017745490185916424,-0.021229136735200882,0.9310734272003174,-4.655765056610107,2.641481399536133,-0.8552910089492798,2.0639421939849854,3.9388043880462646,0.3128581643104553,-0.35454559326171875,0.3490959405899048,1.4333698749542236
191,80554,80551,0.012608352117240429,-0.015614112839102745,0.956858217716217,-5.745561122894287,3.7325007915496826,-0.014940650202333927,2.065018653869629,3.940284490585327,0.3131785988807678,-0.406903475522995,0.2785894274711609,1.4297739267349243
192,80564,80561,0.05070406571030617,-0.15145061910152435,1.0068066120147705,-4.05413293838501,4.4400458335876465,0.6106356978416443,2.0659375190734863,3.9404213428497314,0.3126331865787506,-0.39944466948509216,0.20334698259830475,1.430234432220459
193,80574,80571,0.0408264696598053,-0.1428210288286209,1.0577064752578735,-0.4764055609703064,3.1601147651672363,0.1732296496629715,2.065192222595215,3.939556360244751,0.31289398670196533,-0.3889527916908264,0.16389261186122894,1.4330580234527588
194,80584,80581,-0.026089008897542953,-0.003094249404966831,1.0188512802124023,2.8173224925994873,2.6878886222839355,-0.08716333657503128,2.0667967796325684,3.9392166137695312,0.3130676746368408,-0.5072034001350403,0.18821775913238525,1.4313265085220337
195,80594,80591,-0.010861935093998909,0.11493777483701706,0.9029475450515747,4.020336151123047,2.3317973613739014,-0.40324968099594116,2.0666091442108154,3.939138412475586,0.3102032244205475,-0.4762205481529236,0.2587886452674866,1.432452917098999
196,80604,80601,-0.023319024592638016,0.11676056683063507,1.0306389331817627,4.514832496643066,1.7355903387069702,-0.6427726745605469,2.0672671794891357,3.93942928314209,0.31022313237190247,-0.5995612740516663,0.26603829860687256,1.4176676273345947
197,80614,80611,0.024191884323954582,-0.16797037422657013,0.9903461337089539,2.747379779815674,0.8006117343902588,-0.8105309009552002,2.067368984222412,3.9397389888763428,0.31033873558044434,-0.5318986177444458,0.3391362428665161,1.4193834066390991
198,80624,80621,-0.02762952260673046,-0.10102242976427078,1.0854713916778564,1.6500647068023682,0.2842738628387451,-0.8148394823074341,2.0678274631500244,3.939680576324463,0.3103759288787842,-0.5164928436279297,0.3854062557220459,1.4148420095443726
199,80634,80631,-0.06088058277964592,-0.09944818913936615,1.0636169910430908,-1.2675502300262451,0.7853093147277832,-0.7143144607543945,2.0692574977874756,3.939401388168335,0.3117417097091675,-0.4886387586593628,0.40292176604270935,1.4035080671310425
200,80644,80641,0.025882665067911148,-0.05273967981338501,0.956717312335968,-2.9337639808654785,1.6218339204788208,-1.006845235824585,2.0703811645507812,3.939702272415161,0.3119305670261383,-0.5561038255691528,0.3046216666698456,1.3892806768417358
201,80654,80651,0.007701673079282045,0.004986158572137356,0.9901147484779358,-3.7345306873321533,0.8697716593742371,-0.9507821798324585,2.0715858936309814,3.938507318496704,0.31216615438461304,-0.5669150948524475,0.2641241252422333,1.3729995489120483
202,80664,80661,0.04452471435070038,-0.1008453369140625,0.9556493163108826,-3.4294254779815674,-0.418952077627182,-0.7251223921775818,2.072469711303711,3.937809944152832,0.31124889850616455,-0.5766394138336182,0.21857132017612457,1.3547347784042358
203,80674,80671,0.017037294805049896,-0.003011702559888363,0.9154202342033386,-3.1047677993774414,-3.3551077842712402,-0.7058644890785217,2.072517156600952,3.937093496322632,0.311442106962204,-0.4922815263271332,0.17859089374542236,1.3421928882598877
204,80684,80681,-0.017908785492181778,0.08589541912078857,0.9981673359870911,-2.6962599754333496,-5.578927993774414,-1.3892606496810913,2.0732619762420654,3.9372098445892334,0.3115171790122986,-0.4478102922439575,0.1432121992111206,1.3244401216506958
205,80694,80691,0.03649371117353439,0.034419648349285126,1.033676266670227,-1.510758638381958,-6.386481285095215,-1.8616406917572021,2.074639320373535,3.9358198642730713,0.3134463429450989,-0.49142950773239136,0.19358815252780914,1.3160499334335327
206,80704,80701,-0.01110123936086893,0.054737966507673264,1.1252413988113403,0.3845073878765106,-3.763465642929077,-1.6609176397323608,2.0740067958831787,3.935495615005493,0.3135612905025482,-0.2876633405685425,0.25973817706108093,1.302966594696045
207,80714,80711,-0.025840815156698227,-0.04233167693018913,0.987145185470581,1.3567512035369873,-0.7191078662872314,-2.5432844161987305,2.076467275619507,3.933631181716919,0.3137132227420807,-0.5993973016738892,0.2680022418498993,1.2560410499572754
208,80724,80721,0.01067716907709837,-0.044607169926166534,0.9247640371322632,1.1932061910629272,0.890739917755127,-2.676079750061035,2.077622413635254,3.933610439300537,0.3139878511428833,-0.4904223382472992,0.2834419012069702,1.2367509603500366
209,80734,80731,0.03030998632311821,-0.13267198204994202,0.965672492980957,0.13337966799736023,-0.8935238718986511,-2.729806900024414,2.0766873359680176,3.9340336322784424,0.31481611728668213,-0.4118115305900574,0.20956580340862274,1.212133765220642
210,80744,80741,0.02100370079278946,-0.026462344452738762,1.0347362756729126,-0.8013319373130798,-3.371246099472046,-2.4922027587890625,2.0776195526123047,3.934091091156006,0.3150266110897064,-0.44724908471107483,0.20519523322582245,1.184133768081665
211,80754,80751,-0.004280200228095055,0.005643540062010288,1.0158607959747314,-1.7941603660583496,-5.133025646209717,-2.700514554977417,2.0794029235839844,3.9329254627227783,0.315318763256073,-0.3494778275489807,0.1944461613893509,1.1527903079986572
212,80764,80761,-0.032846346497535706,0.13686710596084595,0.9617880582809448,-1.5063656568527222,-5.756064414978027,-2.821902275085449,2.079911708831787,3.9333274364471436,0.31484460830688477,-0.23851528763771057,0.1834535002708435,1.1272999048233032
213,80774,80771,-0.03790346905589104,0.21331457793712616,0.9761219024658203,-1.5771154165267944,-4.807581424713135,-3.2128167152404785,2.080284357070923,3.933389663696289,0.31505534052848816,-0.3758566081523895,0.16748495399951935,1.0855567455291748
214,80784,80781,0.02765445038676262,0.015117187052965164,0.9596574902534485,-0.38145241141319275,-2.92531418800354,-2.7628259658813477,2.0831897258758545,3.9335405826568604,0.3151000142097473,-0.2090992033481598,0.15225756168365479,1.0588189363479614
215,80794,80791,-0.0007644306169822812,-0.08029753714799881,1.045401930809021,1.933389663696289,-0.4682539999485016,-2.9177355766296387,2.082965612411499,3.9335293769836426,0.3102773129940033,-0.14302699267864227,0.1600446254014969,1.0333384275436401
216,80804,80801,0.031234851107001305,-0.12018539011478424,0.9642111659049988,3.154545307159424,3.2895724773406982,-1.8240928649902344,2.0837440490722656,3.933356285095215,0.3101555109024048,-0.20115259289741516,0.1997579038143158,1.0042210817337036
217,80814,80811,0.004853538703173399,-0.02317402884364128,0.965427577495575,2.963960886001587,4.3397979736328125,-1.562427043914795,2.0853049755096436,3.934648036956787,0.3099660277366638,-0.22119776904582977,0.2540447413921356,1.0006539821624756
218,80824,80821,0.029309293255209923,0.03654084354639053,0.9111486077308655,1.8519741296768188,6.545114994049072,-1.6106925010681152,2.0868301391601562,3.9342267513275146,0.3081595301628113,-0.36738985776901245,0.29862773418426514,0.987755537033081
219,80834,80831,0.03967047855257988,0.011486899107694626,0.9764577150344849,-0.58516925573349,3.0226833820343018,-1.1182538270950317,2.089128017425537,3.9337892532348633,0.30775579810142517,-0.4268503487110138,0.3107461631298065,0.9643568992614746
220,80844,80841,-0.020039228722453117,0.019705642014741898,1.0754839181900024,-3.285033941268921,-0.6808313131332397,-1.369449257850647,2.0888946056365967,3.933666944503784,0.3074233829975128,-0.5049247741699219,0.2818523943424225,0.948373556137085
221,80854,80851,0.031039463356137276,-0.07015528529882431,1.0240755081176758,-4.4649553298950195,-4.771146297454834,-1.601464033126831,2.0902786254882812,3.933755874633789,0.3070443272590637,-0.5090052485466003,0.21730411052703857,0.9404133558273315
222,80864,80861,0.039121415466070175,-0.13664241135120392,1.02667236328125,-6.00584077835083,-7.335323333740234,-1.2584120035171509,2.0916309356689453,3.934856653213501,0.3091633915901184,-0.3682943880558014,0.2006727010011673,0.9326738119125366
223,80874,80871,-0.014224779792129993,-0.0022273235954344273,1.0763633251190186,-6.48208475112915,-11.300445556640625,-0.14145955443382263,2.0908334255218506,3.9344122409820557,0.3092900216579437,-0.19411087036132812,0.09902780503034592,0.9242124557495117
224,80884,80881,0.03236907348036766,-0.14444054663181305,1.0842779874801636,-3.0864059925079346,-8.746304512023926,-1.0032380819320679,2.0920472145080566,3.9343624114990234,0.3092426359653473,-0.31739771366119385,0.10058657824993134,0.9106631875038147
225,80894,80891,0.04663906991481781,-0.04722736403346062,1.0113565921783447,0.30475977063179016,-5.784574031829834,0.06663858890533447,2.09489107131958,3.9333138465881348,0.30664166808128357,-0.13831715285778046,0.06948427110910416,0.8955212235450745
226,80904,80901,-0.018182868137955666,-0.0015089232474565506,1.0464271306991577,1.1455881595611572,-2.451277017593384,-0.14346294105052948,2.095163583755493,3.933143377304077,0.3066394329071045,-0.18049608170986176,0.07126477360725403,0.8903953433036804
227,80914,80911,0.004756313748657703,-0.00644636107608676,1.0076314210891724,2.337446928024292,0.4246702790260315,0.6651988625526428,2.0969011783599854,3.933102607727051,0.3064834773540497,-0.09189413487911224,0.09282936155796051,0.8923659920692444
228,80924,80921,0.011074943467974663,0.015809785574674606,1.0637127161026,1.8700830936431885,0.34516769647598267,0.7090045213699341,2.0974745750427246,3.932971715927124,0.3073834180831909,-0.12043170630931854,0.19690664112567902,0.8968630433082581
229,80934,80931,0.019249197095632553,-0.07203879207372665,1.0000872611999512,0.18716196715831757,-0.6015575528144836,1.4107716083526611,2.09804630279541,3.9317173957824707,0.3074456751346588,-0.15454427897930145,0.20777934789657593,0.903383731842041
230,80944,80941,0.03348124399781227,-0.023418540135025978,0.9614351391792297,-1.5760350227355957,-2.6837635040283203,1.3249815702438354,2.0993826389312744,3.932194948196411,0.30751949548721313,-0.15329067409038544,0.19396506249904633,0.9250382781028748
231,80954,80951,-0.01957097090780735,0.010137923993170261,1.0221683979034424,-3.407726764678955,-3.408402681350708,1.378340244293213,2.10074782371521,3.9320690631866455,0.307574987411499,0.03009350784122944,0.14296813309192657,0.9422599673271179
232,80964,80961,0.02155185677111149,-0.02030746452510357,1.0157407522201538,-4.5195159912109375,-5.921693325042725,1.6954827308654785,2.099576234817505,3.9320921897888184,0.3090519309043884,-0.08701872080564499,0.06643049418926239,0.9519813656806946
233,80974,80971,0.022205816581845284,-0.09760087728500366,1.0054197311401367,-3.816030979156494,-8.026740074157715,1.6591460704803467,2.1024909019470215,3.932366371154785,0.3091091215610504,0.0743158757686615,0.06451501697301865,0.9786471724510193
234,80984,80981,0.045218415558338165,-0.03792545199394226,0.9888982772827148,-2.8752095699310303,-10.128097534179688,1.9204117059707642,2.1029412746429443,3.932124376296997,0.30940675735473633,0.34380125999450684,0.06955232471227646,0.9980581402778625
235,80994,80991,-0.03098071739077568,0.013183391653001308,1.0592622756958008,-2.5445494651794434,-12.994807243347168,2.8863770961761475,2.10152268409729,3.932568311691284,0.30753010511398315,0.22419105470180511,0.008953015320003033,1.0278539657592773
236,81004,81001,0.019085370004177094,0.019769443199038506,1.075379729270935,-1.470784306526184,-6.062487602233887,2.0854029655456543,2.105193853378296,3.9326133728027344,0.3075958788394928,0.3262656331062317,-0.036663271486759186,1.0405161380767822
237,81014,81011,0.018649039790034294,-0.057556115090847015,0.951998770236969,-0.9299194812774658,-1.4887433052062988,2.6267545223236084,2.1058263778686523,3.9318995475769043,0.30779120326042175,0.3608153760433197,-0.06686292588710785,1.0486929416656494
238,81024,81021,-0.001865310245193541,0.07239263504743576,1.1002702713012695,0.07922842353582382,2.009997844696045,3.10027813911438,2.107645034790039,3.9301605224609375,0.309015691280365,0.3534527122974396,-0.08271921426057816,1.0627796649932861
