,timestamp_start,timestamp_end,acc.x,acc.y,acc.z,gyro.x,gyro.y,gyro.z,stateEstimate.x,stateEstimate.y,stateEstimate.z,stabilizer.pitch,stabilizer.roll,stabilizer.yaw
0,52159,52158,-0.005870854016393423,-0.0365651436150074,1.0622873306274414,-4.8686041831970215,4.750558376312256,-3.3729641437530518,2.0283689498901367,4.023473262786865,0.18893733620643616,-0.5958232283592224,2.4078292846679688,2.3224196434020996
1,52169,52168,0.005253248382359743,-0.07066988199949265,0.9915271997451782,-6.421544075012207,3.9550628662109375,-2.8777036666870117,2.029973268508911,4.023294925689697,0.1930159628391266,-0.5702540278434753,2.257694721221924,2.314845561981201
2,52179,52178,0.05318961665034294,-0.059602268040180206,0.9834172129631042,-5.795440196990967,1.4950592517852783,-2.588243246078491,2.0286760330200195,4.020884037017822,0.19746975600719452,-0.43848103284835815,2.131533622741699,2.3370275497436523
3,52189,52188,0.046892277896404266,-0.0391969233751297,0.9654627442359924,-6.947329998016357,-5.612947463989258,-3.582158088684082,2.029548168182373,4.019453525543213,0.20107845962047577,-0.2324526458978653,2.214301586151123,2.3621633052825928
4,52199,52198,0.0032990335021167994,0.07520940899848938,0.9343848824501038,-14.092984199523926,-18.645103454589844,-3.6192092895507812,2.0278427600860596,4.0218071937561035,0.19328786432743073,0.08183764666318893,1.8846570253372192,2.378967046737671
5,52209,52208,0.034837838262319565,-0.0471930131316185,0.9134360551834106,-20.079191207885742,-25.65428352355957,-3.839839220046997,2.0273208618164062,4.0224995613098145,0.1965062916278839,0.4878915846347809,1.4893196821212769,2.388518810272217
6,52219,52218,0.01101712416857481,-0.039615944027900696,0.9594566226005554,-24.838947296142578,-28.428348541259766,-4.527606010437012,2.027597665786743,4.020178318023682,0.19876575469970703,0.81105637550354,1.5693508386611938,2.3614680767059326
7,52229,52228,0.010685654357075691,-0.022576771676540375,0.9517264366149902,-26.979991912841797,-25.390377044677734,-4.18690824508667,2.0273232460021973,4.020166873931885,0.19367989897727966,1.2200701236724854,1.2213877439498901,2.3441803455352783
8,52239,52238,-0.06349028646945953,0.10979991406202316,0.9438490271568298,-27.12650489807129,-19.312732696533203,-4.275437355041504,2.025359869003296,4.0210418701171875,0.1954876035451889,1.5888917446136475,0.9549712538719177,2.3274199962615967
9,52249,52248,-0.03673439845442772,0.06383918970823288,0.9090932607650757,-25.09319496154785,-10.398374557495117,-3.2250046730041504,2.0217652320861816,4.0214433670043945,0.19733552634716034,1.7860941886901855,0.698808491230011,2.297100067138672
10,52259,52258,-0.002293896861374378,0.01645040139555931,1.0053527355194092,-20.790712356567383,2.340583562850952,-2.955641508102417,2.022371292114258,4.021266460418701,0.19456632435321808,1.7911863327026367,0.4922371506690979,2.2516326904296875
11,52269,52268,0.026807116344571114,-0.0696188434958458,0.9863237738609314,-15.556411743164062,13.055211067199707,-2.6970596313476562,2.0200953483581543,4.022575378417969,0.19596368074417114,1.8366373777389526,0.2878469228744507,2.250248670578003
12,52279,52278,0.04191892594099045,-0.07072322070598602,0.927946925163269,-12.47476863861084,18.206249237060547,-3.0021145343780518,2.021400213241577,4.019323825836182,0.19764766097068787,1.5781348943710327,0.07660206407308578,2.2058944702148438
13,52289,52288,-0.0128871975466609,0.019781475886702538,1.0137946605682373,-9.678605079650879,20.9348087310791,-3.1213486194610596,2.021510362625122,4.020089149475098,0.19904865324497223,1.5845551490783691,-0.07579628378152847,2.203333854675293
14,52299,52298,0.04114127904176712,0.04638205096125603,0.9110115170478821,-7.809650421142578,20.530935287475586,-3.084230661392212,2.0187551975250244,4.020899295806885,0.19771048426628113,1.3138691186904907,-0.18135760724544525,2.171422004699707
15,52309,52308,0.027314066886901855,-0.015522315166890621,0.891959547996521,-6.678571701049805,11.87460994720459,-2.297484874725342,2.0209083557128906,4.019618511199951,0.19895696640014648,1.115058422088623,-0.41122978925704956,2.160991668701172
16,52319,52318,0.01205458678305149,0.03472781926393509,1.0289705991744995,-5.736204624176025,10.121988296508789,-2.257641553878784,2.0189034938812256,4.019906520843506,0.19999699294567108,1.159981369972229,-0.44923049211502075,2.141862392425537
17,52329,52328,0.0367555096745491,-0.05002126470208168,1.0362634658813477,-4.919055938720703,-0.2896096110343933,-1.9500921964645386,2.021742820739746,4.014891147613525,0.19945666193962097,1.041215181350708,-0.08886510878801346,2.0655505657196045
18,52339,52338,-0.011709547601640224,-0.02810683660209179,1.0950309038162231,-5.225138187408447,-1.6468762159347534,-1.3546720743179321,2.0210087299346924,4.0178046226501465,0.20076394081115723,1.2294912338256836,-0.32939329743385315,2.0694382190704346
19,52349,52348,0.006879844702780247,-0.05314553529024124,1.0130114555358887,-6.495212078094482,4.519813060760498,-0.8751087188720703,2.0218470096588135,4.017796039581299,0.2020883560180664,1.1212247610092163,-0.39186346530914307,2.056349039077759
20,52359,52358,0.02752491645514965,-0.07860077172517776,1.0284028053283691,-8.821638107299805,7.24600887298584,-1.0554393529891968,2.0214691162109375,4.016477108001709,0.2027643769979477,1.1171952486038208,-0.4104138910770416,2.0393407344818115
21,52369,52368,0.03139208257198334,-0.048213567584753036,0.967913806438446,-8.972267150878906,11.331367492675781,-2.1103456020355225,2.021862745285034,4.015910625457764,0.20402595400810242,0.9909676313400269,-0.5417816638946533,2.032992362976074
22,52379,52378,-0.011066105216741562,0.1361711621284485,0.9805368185043335,-11.663835525512695,11.128250122070312,-1.17405366897583,2.024348020553589,4.013646602630615,0.2054067701101303,0.7600957155227661,-0.7640822529792786,2.0302822589874268
23,52389,52388,-0.009996299631893635,0.034964073449373245,1.0632654428482056,-14.814875602722168,7.422317028045654,0.10541409999132156,2.021696090698242,4.013434886932373,0.20653219521045685,0.9266921877861023,-0.9310666918754578,2.0026614665985107
24,52399,52398,0.0564148835837841,-0.08742930740118027,1.1245496273040771,-10.04262638092041,11.498512268066406,-0.6251206398010254,2.0211987495422363,4.010737895965576,0.20913994312286377,0.7046176791191101,-1.0054666996002197,2.00701904296875
25,52409,52408,-0.0053325495682656765,0.08672194927930832,0.9460134506225586,-4.795120716094971,11.682239532470703,-0.4709221124649048,2.0203514099121094,4.011284828186035,0.21054710447788239,0.5218714475631714,-1.0729228258132935,2.0042176246643066
26,52419,52418,-0.014298547059297562,0.04062816873192787,0.8541008830070496,-2.3527867794036865,6.403782367706299,0.9145683646202087,2.021233558654785,4.010041236877441,0.2118353694677353,0.4608098864555359,-1.0752956867218018,1.995253324508667
27,52429,52428,0.02499557100236416,7.994261250132695e-05,1.002893328666687,-0.702102780342102,2.0042359828948975,1.4605926275253296,2.023250102996826,4.00718355178833,0.21135196089744568,0.46076929569244385,-1.1188263893127441,1.9971849918365479
28,52439,52438,0.007431507110595703,-0.014159508049488068,1.1073859930038452,-0.20832855999469757,-1.3503330945968628,2.210071563720703,2.022062063217163,4.008285999298096,0.21248261630535126,0.4384336471557617,-1.2061676979064941,2.0144095420837402
29,52449,52448,0.030269833281636238,-0.09390996396541595,1.0490736961364746,0.4711868464946747,4.955945014953613,2.6001224517822266,2.0258090496063232,4.005398750305176,0.21376559138298035,0.3181050717830658,-1.2733848094940186,2.0559098720550537
30,52459,52458,0.022554386407136917,-0.03324025869369507,1.0093016624450684,0.4652855694293976,9.668644905090332,1.178460717201233,2.026752471923828,4.004915237426758,0.21441717445850372,0.23402902483940125,-1.2480359077453613,2.0829055309295654
31,52469,52468,-0.0013217144878581166,0.023504870012402534,1.0298525094985962,0.5285282135009766,5.057387828826904,1.342267394065857,2.0271778106689453,4.00425910949707,0.21564394235610962,0.1398925483226776,-1.2292906045913696,2.097708225250244
32,52479,52478,0.010405314154922962,0.018772700801491737,1.011754035949707,0.07082262635231018,2.197178602218628,2.1437082290649414,2.0278055667877197,4.001001358032227,0.21699915826320648,0.2471388280391693,-1.2816704511642456,2.082935333251953
33,52489,52488,0.007247044239193201,-0.01766728237271309,1.1116936206817627,-1.282051682472229,0.670813262462616,2.98685359954834,2.026216745376587,4.000162124633789,0.2177874743938446,0.3607645332813263,-1.3295235633850098,2.075930595397949
34,52499,52498,0.02936786226928234,-0.10581782460212708,1.121893286705017,2.9440250396728516,2.697038173675537,1.2660434246063232,2.0248515605926514,4.000045299530029,0.21898096799850464,0.46011459827423096,-1.347127079963684,2.074094295501709
35,52509,52508,0.03998907282948494,-0.04794728383421898,0.9569045901298523,4.104480743408203,3.6701455116271973,1.839468002319336,2.0245769023895264,3.9999165534973145,0.22063085436820984,0.36509841680526733,-1.3103753328323364,2.099449872970581
36,52519,52518,0.02795805037021637,-0.0031502905767410994,0.991708517074585,4.176962852478027,9.037952423095703,1.970274567604065,2.024911642074585,4.000988483428955,0.22085809707641602,0.17132671177387238,-1.269870638847351,2.1469502449035645
37,52529,52528,-0.00467560812830925,0.021112732589244843,1.1231600046157837,3.6969733238220215,5.1615824699401855,2.5554497241973877,2.0264058113098145,3.9975998401641846,0.22219207882881165,0.036614902317523956,-1.226791262626648,2.1794891357421875
38,52539,52538,0.04925239086151123,-0.043884433805942535,1.1433383226394653,6.07501220703125,7.37893009185791,1.325011968612671,2.024562358856201,4.000237464904785,0.22362609207630157,0.04284448176622391,-1.2282376289367676,2.175325632095337
39,52549,52548,0.025556655600667,-0.06589781492948532,0.9732527136802673,6.337887763977051,10.860603332519531,1.355419397354126,2.02774715423584,3.996835470199585,0.2253483235836029,-0.13927744328975677,-1.1348525285720825,2.198249340057373
40,52559,52558,0.011134709231555462,-0.016298647969961166,1.0264778137207031,6.188525199890137,12.355047225952148,1.0226881504058838,2.027730703353882,3.995802879333496,0.2303321361541748,-0.3777947723865509,-1.1070528030395508,2.2340235710144043
41,52569,52568,0.013249731622636318,-0.07363476604223251,1.0515612363815308,9.834884643554688,4.7240071296691895,0.7867903709411621,2.0284526348114014,3.9949824810028076,0.23221877217292786,-0.46366938948631287,-1.0323413610458374,2.2416863441467285
42,52579,52578,0.012317178770899773,0.011466930620372295,1.0010623931884766,11.40967845916748,-0.5028784275054932,0.7349849939346313,2.032191753387451,3.9947125911712646,0.2341923862695694,-0.47841864824295044,-0.9270772337913513,2.24794864654541
43,52589,52588,0.008295731619000435,-0.005311853252351284,0.9818814992904663,8.465815544128418,-2.0487332344055176,0.421561062335968,2.029340982437134,3.995920181274414,0.2388804703950882,-0.2304118275642395,-0.8665029406547546,2.2048561573028564
44,52599,52598,0.036138616502285004,-0.1500215381383896,1.074615716934204,8.286408424377441,-4.450518608093262,0.6883512139320374,2.030531406402588,3.9948830604553223,0.24089761078357697,-0.053392887115478516,-0.7931728959083557,2.176896333694458
45,52609,52608,0.0286248791962862,-0.20668241381645203,1.0264114141464233,8.893112182617188,-4.060126781463623,0.7040379643440247,2.0297963619232178,3.9942238330841064,0.2431347519159317,-0.09166920185089111,-0.7297699451446533,2.1938304901123047
46,52619,52618,0.00657193548977375,-0.040454935282468796,0.9948841333389282,8.187426567077637,-0.25631269812583923,0.5681507587432861,2.029421329498291,3.9952216148376465,0.24547648429870605,-0.09880048036575317,-0.5686058402061462,2.2202835083007812
47,52629,52628,0.015365117229521275,-0.034346263855695724,0.9748676419258118,7.288020610809326,3.832841396331787,-0.010450160130858421,2.0274693965911865,3.9937527179718018,0.24852459132671356,-0.19739976525306702,-0.7261453866958618,2.2114763259887695
48,52639,52638,-0.008481568656861782,0.034952763468027115,0.8977548480033875,6.162644386291504,6.414599418640137,-0.14045460522174835,2.027092695236206,3.9940059185028076,0.2508041560649872,-0.18405763804912567,-0.5787927508354187,2.2175683975219727
49,52649,52648,0.00357796554453671,-0.036131709814071655,0.9724904894828796,5.360949516296387,8.785754203796387,-0.08814670145511627,2.0291950702667236,3.9960639476776123,0.25308844447135925,-0.29438477754592896,-0.4567359387874603,2.232616424560547
50,52659,52658,0.0430353507399559,-0.0709802433848381,0.8928624391555786,4.841433525085449,8.893967628479004,-0.4357437789440155,2.028914213180542,3.9970955848693848,0.2535100281238556,-0.5037301778793335,-0.35365334153175354,2.25504207611084
51,52669,52668,0.010867695324122906,-0.0027039863634854555,0.9424258470535278,4.570297718048096,8.355860710144043,-0.8662230372428894,2.027515172958374,3.9963064193725586,0.25549763441085815,-0.4901525378227234,-0.26177671551704407,2.241586923599243
52,52679,52678,0.02616964653134346,-0.036960169672966,0.9182940125465393,4.662169933319092,4.722782611846924,-0.8227357268333435,2.0278561115264893,3.9972569942474365,0.2574434280395508,-0.743648886680603,-0.2710200250148773,2.223695755004883
53,52689,52688,0.0060953726060688496,-0.027095520868897438,0.9410427212715149,2.5107460021972656,4.538581848144531,-0.6588903069496155,2.028683662414551,3.9968552589416504,0.2595016658306122,-0.8839282393455505,-0.2299269735813141,2.2431209087371826
54,52699,52698,0.0227371696382761,-0.13346204161643982,0.9288865327835083,2.6382718086242676,-1.7197980880737305,-0.9074504375457764,2.028397798538208,3.9949300289154053,0.2613440155982971,-0.8597065210342407,-0.13607318699359894,2.2270734310150146
55,52709,52708,-0.022619416937232018,-0.14867661893367767,0.9434915781021118,2.289787769317627,-5.803529262542725,-1.220962643623352,2.028315305709839,3.994882345199585,0.26307734847068787,-0.8534148335456848,-0.10973417013883591,2.230961322784424
56,52719,52718,-0.06430841982364655,-0.05019378662109375,0.949803352355957,1.8697810173034668,-9.937180519104004,-1.2321072816848755,2.029562473297119,3.9977211952209473,0.26478704810142517,-0.7751463055610657,-0.13769741356372833,2.2165279388427734
57,52729,52728,-0.02098577655851841,-0.060558296740055084,0.87127685546875,1.725170373916626,-10.120149612426758,-1.3901773691177368,2.0299296379089355,3.9958035945892334,0.265418142080307,-0.5546221733093262,-0.06798470765352249,2.1898066997528076
58,52739,52738,0.021977277472615242,-0.020671365782618523,0.8927660584449768,2.1927742958068848,-11.045318603515625,-0.8816631436347961,2.0283565521240234,3.9947259426116943,0.2669398784637451,-0.5160534381866455,0.10722186416387558,2.2179574966430664
59,52749,52748,0.01760057546198368,0.002634192816913128,0.9814724922180176,2.0471625328063965,-8.687125205993652,-1.032814621925354,2.027764081954956,3.995149612426758,0.2683567404747009,-0.3821675777435303,0.05879281833767891,2.1962761878967285
60,52759,52758,0.011314274743199348,-0.00427598599344492,0.994452178478241,1.791678786277771,-4.597094535827637,-1.4658377170562744,2.026531934738159,3.996140956878662,0.2705135643482208,-0.29044732451438904,0.0949312075972557,2.187864065170288
61,52769,52768,0.012145351618528366,-0.06948436051607132,1.0037038326263428,-0.20685020089149475,-0.7059041857719421,-1.702125906944275,2.026556968688965,3.994259834289551,0.27183082699775696,-0.2640444040298462,0.3327212631702423,2.208662509918213
62,52779,52778,0.012645670212805271,-0.04654150456190109,0.9656316637992859,-2.811533212661743,2.0449271202087402,-1.7510820627212524,2.0258212089538574,3.9950008392333984,0.27325841784477234,-0.30012866854667664,0.2715921103954315,2.17067289352417
63,52789,52788,0.014019712805747986,-0.023663168773055077,0.9422006011009216,-4.494149684906006,5.015549182891846,-2.2689919471740723,2.0255112648010254,3.996073007583618,0.27521198987960815,-0.44101473689079285,0.07131986320018768,2.1396985054016113
64,52799,52798,0.019251197576522827,-0.014848322607576847,0.9110974669456482,-5.759662628173828,9.992785453796387,-3.362257480621338,2.024972915649414,3.995734453201294,0.27656087279319763,-0.4563251733779907,-0.0045542907901108265,2.1124486923217773
65,52809,52808,0.0558057501912117,-0.005941078998148441,0.8751635551452637,-5.561867713928223,2.3681247234344482,-2.2930984497070312,2.0228285789489746,3.997738838195801,0.2778826951980591,-0.41142919659614563,-0.09167931973934174,2.0817148685455322
66,52819,52818,0.007825514301657677,0.018086303025484085,0.9598767757415771,-3.507765531539917,0.726010262966156,-2.9082818031311035,2.0311086177825928,3.9968936443328857,0.28349462151527405,-1.382435917854309,-0.16190828382968903,2.038921356201172
67,52829,52828,0.03671766072511673,-0.02384108491241932,0.9681200981140137,0.07891280949115753,-5.026834011077881,-2.85978364944458,2.024425983428955,3.9972968101501465,0.2866126596927643,-0.5395078659057617,-0.2723659574985504,2.0134661197662354
68,52839,52838,0.007494455669075251,-0.011125324293971062,0.9595828652381897,4.0614094734191895,-8.482009887695312,-2.8297371864318848,2.0303051471710205,3.997276782989502,0.28821027278900146,-1.2222528457641602,-0.24424397945404053,1.9827309846878052
69,52849,52848,-0.06306386739015579,-0.00037675874773412943,0.9705805778503418,8.092419624328613,-12.800524711608887,-3.407158851623535,2.0231733322143555,3.995971441268921,0.2913309633731842,-0.27156373858451843,-0.08626037836074829,1.9828464984893799
70,52859,52858,-0.09908031672239304,0.0370732881128788,0.943139374256134,9.406769752502441,-16.32785415649414,-2.504812240600586,2.0216641426086426,3.9952642917633057,0.29286351799964905,-0.09828981012105942,0.03901706263422966,1.9579367637634277
71,52869,52868,-0.043771978467702866,0.03911541774868965,0.9438671469688416,7.52988338470459,-14.163980484008789,-2.4767608642578125,2.021087646484375,3.9946861267089844,0.2942841351032257,0.1031925231218338,0.1760341227054596,1.938364863395691
72,52879,52878,-0.01388650480657816,0.06717628240585327,0.992717444896698,4.502013206481934,-7.251518249511719,-2.891777515411377,2.0341639518737793,3.9952337741851807,0.29754433035850525,-1.2409037351608276,0.2846294045448303,1.8970437049865723
73,52889,52888,0.0010266202734783292,0.020771611481904984,0.9545696973800659,-0.19546490907669067,-1.4428859949111938,-2.9687328338623047,2.0335781574249268,3.995965003967285,0.29659324884414673,-1.01604163646698,0.32366102933883667,1.869328498840332
74,52899,52898,-0.006590245291590691,0.058919936418533325,0.9654924273490906,-4.896550178527832,-2.803579568862915,-2.8476314544677734,2.0339770317077637,3.9956376552581787,0.29814305901527405,-0.8690527081489563,0.29470497369766235,1.8354777097702026
75,52909,52908,-0.00875229761004448,0.03242531418800354,0.9837428331375122,-8.638050079345703,-7.615677833557129,-2.7611069679260254,2.033942937850952,3.9975850582122803,0.2995692789554596,-0.7918589115142822,0.19439350068569183,1.7988826036453247
76,52919,52918,0.00847390666604042,-0.016785351559519768,0.9100695848464966,-9.602239608764648,-17.863588333129883,-2.8686952590942383,2.0334033966064453,3.997309684753418,0.29904356598854065,-0.6232732534408569,0.042873162776231766,1.7605761289596558
77,52929,52928,-0.01713889092206955,0.088582843542099,0.9070519208908081,-8.751259803771973,-22.867095947265625,-2.7570762634277344,2.0329065322875977,3.997987747192383,0.30025529861450195,-0.41160547733306885,-0.039525896310806274,1.737178921699524
78,52939,52938,-0.00933133065700531,0.04982388764619827,0.9382423162460327,-3.4729068279266357,-29.6019344329834,-2.9709534645080566,2.0325441360473633,3.9990947246551514,0.30141910910606384,-0.010997463017702103,-0.16288365423679352,1.7116059064865112
79,52949,52948,0.004659843631088734,0.144145205616951,0.928165853023529,0.6177354454994202,-28.781091690063477,-2.9438135623931885,2.0330326557159424,3.99924635887146,0.3024018704891205,0.20841751992702484,-0.2151239663362503,1.6828018426895142
80,52959,52958,-0.003156535094603896,0.18753837049007416,0.9156254529953003,5.931675910949707,-24.935821533203125,-2.7773947715759277,2.032043933868408,3.998873472213745,0.30351218581199646,0.6684427857398987,-0.18248845636844635,1.662182331085205
81,52969,52968,0.042868245393037796,0.13422179222106934,0.8602222800254822,8.673032760620117,-16.492963790893555,-2.796722173690796,2.0321829319000244,3.9971320629119873,0.304371178150177,1.1619172096252441,-0.0780535489320755,1.6036618947982788
82,52979,52978,0.036731548607349396,0.08185289055109024,0.8706991672515869,9.476816177368164,-9.121384620666504,-2.823662042617798,2.0310213565826416,3.9988410472869873,0.3050561845302582,1.2619097232818604,-0.23919416964054108,1.5969460010528564
83,52989,52988,-0.006981533020734787,0.09945298731327057,0.9432612657546997,8.24737548828125,1.685340166091919,-3.492872476577759,2.029738187789917,3.9976327419281006,0.30123624205589294,1.4472105503082275,0.023446541279554367,1.5404396057128906
84,52999,52998,-0.045830026268959045,0.10533566772937775,1.0085195302963257,5.197563171386719,5.843629837036133,-3.4430792331695557,2.0299978256225586,3.997992992401123,0.3015260100364685,1.3744697570800781,-0.011073235422372818,1.5055265426635742
85,53009,53008,-0.0654667541384697,-0.08147682249546051,1.004279613494873,2.2972047328948975,11.98176097869873,-3.7266383171081543,2.027585744857788,3.9975433349609375,0.30183103680610657,1.3900116682052612,0.033502884209156036,1.5028995275497437
86,53019,53018,-9.546528599457815e-05,-0.04962942749261856,0.9359804391860962,0.0748736634850502,14.632229804992676,-4.3863205909729,2.027970314025879,3.9965014457702637,0.2982885539531708,1.2884782552719116,0.08830699324607849,1.4661363363265991
87,53029,53028,-0.04022100195288658,-0.006574157625436783,0.9463528990745544,-0.03857889398932457,12.315826416015625,-4.363594055175781,2.0281193256378174,3.99603533744812,0.29823943972587585,1.0108691453933716,0.11241792887449265,1.3808318376541138
88,53039,53038,-0.07090217620134354,0.059090159833431244,0.9656482338905334,-0.5422736406326294,12.719995498657227,-3.84744930267334,2.0262651443481445,3.9956719875335693,0.29812467098236084,1.2419244050979614,0.12300803512334824,1.3866775035858154
89,53049,53048,-0.05248855799436569,0.03939029201865196,0.9564334154129028,-0.7401173114776611,14.322108268737793,-3.632157325744629,2.027095079421997,3.9960336685180664,0.2960732579231262,0.9988738298416138,0.12977121770381927,1.3440992832183838
90,53059,53058,-0.026518812403082848,0.006458599586039782,1.0017789602279663,-0.8855116963386536,17.02003288269043,-3.191328763961792,2.0256311893463135,3.9958765506744385,0.29581207036972046,0.8961104154586792,0.13230669498443604,1.3074853420257568
91,53069,53068,-0.002550311852246523,-0.04599127173423767,1.033438801765442,-0.8024060726165771,20.516502380371094,-3.32207989692688,2.0250563621520996,3.9965779781341553,0.29550573229789734,0.8132016658782959,0.12978416681289673,1.2768503427505493
92,53079,53078,0.054354358464479446,-0.15540966391563416,1.0292432308197021,0.5123359560966492,22.802623748779297,-3.1352405548095703,2.0256640911102295,3.9969608783721924,0.2952355146408081,0.5156322121620178,0.05685987323522568,1.2476767301559448
93,53089,53088,0.012208517640829086,-0.09146789461374283,1.037698745727539,1.224747896194458,24.25069808959961,-3.204575777053833,2.022080183029175,3.997856855392456,0.2932452857494354,0.5902916789054871,-0.07626071572303772,1.2386043071746826
94,53099,53098,0.02872040495276451,-0.017721474170684814,0.9454964995384216,1.5801074504852295,22.794551849365234,-3.055316209793091,2.0237419605255127,3.9966273307800293,0.29301223158836365,0.145381361246109,-0.02238655462861061,1.1976430416107178
95,53109,53108,0.0031963689252734184,-0.018255190923810005,0.9932302236557007,4.091814041137695,22.82571792602539,-3.5795226097106934,2.0237677097320557,3.9966654777526855,0.292715460062027,-0.1850813776254654,0.050748612731695175,1.1562758684158325
96,53119,53118,-0.004530480597168207,0.11420248448848724,1.0144637823104858,4.5624165534973145,18.84514808654785,-3.217327356338501,2.019625186920166,3.998154878616333,0.28907158970832825,0.08162540197372437,-0.10055502504110336,1.1483867168426514
97,53129,53128,0.05093808472156525,-0.10932747274637222,1.034793734550476,5.101954460144043,14.29745864868164,-3.0076098442077637,2.018292188644409,3.997185707092285,0.288688063621521,-0.298126757144928,0.02411866933107376,1.1039735078811646
98,53139,53138,-0.029982877895236015,0.06944265216588974,0.9933823943138123,6.095357418060303,15.583057403564453,-2.881120204925537,2.0176126956939697,3.9968252182006836,0.2882007360458374,-0.4435743987560272,0.14372842013835907,1.0736095905303955
99,53149,53148,0.002474927343428135,-0.0011651688255369663,1.0301616191864014,5.680060386657715,16.535024642944336,-1.8895820379257202,2.017631769180298,3.9964919090270996,0.287479430437088,-0.5944658517837524,0.18915924429893494,1.0440831184387207
100,53159,53158,0.04212561622262001,-0.024089984595775604,1.03800368309021,3.582780361175537,17.412466049194336,-1.2848347425460815,2.01649808883667,3.9977550506591797,0.2870168387889862,-0.6872271299362183,0.2219858169555664,1.025636076927185
101,53169,53168,0.007511989679187536,0.002108762739226222,1.0864670276641846,2.513429880142212,17.045669555664062,-1.6135578155517578,2.0173449516296387,3.9962880611419678,0.2865777015686035,-0.9590721726417542,0.39694127440452576,1.0124081373214722
102,53179,53178,0.03373577445745468,-0.09462826699018478,1.0663743019104004,1.5701087713241577,17.151758193969727,-1.2465081214904785,2.0135087966918945,3.9989099502563477,0.2863994240760803,-0.9732615351676941,0.21402141451835632,0.9939747452735901
103,53189,53188,0.000902208499610424,-0.019683457911014557,1.0781807899475098,0.4864954352378845,16.15550994873047,-1.5861738920211792,2.0138285160064697,3.9987950325012207,0.28289327025413513,-1.222739338874817,0.27090832591056824,0.9797788262367249
104,53199,53198,-0.00433772336691618,0.014233391731977463,1.0432738065719604,-0.7280511856079102,13.829480171203613,-1.290474534034729,2.0146706104278564,3.9980392456054688,0.2824772000312805,-1.4520057439804077,0.38765382766723633,0.9727556109428406
105,53209,53208,0.021005652844905853,-0.02643328160047531,1.029453992843628,0.2239549160003662,11.472304344177246,-1.352545142173767,2.0119924545288086,3.997631311416626,0.28222835063934326,-1.477807641029358,0.40370258688926697,0.9686625003814697
106,53219,53218,0.014959507621824741,-0.03789231553673744,1.1207599639892578,0.6152858138084412,7.7951273918151855,-1.0698769092559814,2.0130198001861572,3.9974899291992188,0.2855839133262634,-1.6852741241455078,0.3488037586212158,0.9452803134918213
107,53229,53228,0.01413014717400074,-0.039370838552713394,1.0089396238327026,1.5891644954681396,7.907519340515137,-0.24290791153907776,2.0117275714874268,3.9965617656707764,0.2855689227581024,-1.757830023765564,0.4686339795589447,0.9522180557250977
108,53239,53238,0.0383775532245636,-0.024111082777380943,1.1257563829421997,0.06164294481277466,7.365714073181152,-0.4443783164024353,2.0121424198150635,3.9965648651123047,0.28554078936576843,-1.91916823387146,0.49156537652015686,0.9422581791877747
109,53249,53248,-0.013261653482913971,-0.014737586490809917,1.1944115161895752,-0.5279576182365417,7.043238639831543,-0.2824701964855194,2.008674144744873,3.9985275268554688,0.2826073467731476,-1.792554259300232,0.4173164665699005,0.9378382563591003
110,53259,53258,-0.003901304677128792,-0.045881930738687515,1.0695583820343018,-1.2163143157958984,4.031063079833984,-0.17792969942092896,2.0083281993865967,3.999500274658203,0.28266242146492004,-1.9125126600265503,0.41928109526634216,0.9357491135597229
111,53269,53268,0.04710503667593002,-0.017439620569348335,0.9772366881370544,-2.0644187927246094,4.604409217834473,-0.439259797334671,2.007859468460083,3.9995980262756348,0.28287169337272644,-1.9316120147705078,0.4092918038368225,0.9351462125778198
112,53279,53278,0.013988574966788292,0.017187558114528656,1.0520129203796387,-2.039888858795166,3.889317274093628,-0.5261507034301758,2.009199380874634,3.998850107192993,0.2829919457435608,-2.25457763671875,0.3827843964099884,0.9143500924110413
113,53289,53288,-0.028550658375024796,0.0309943575412035,1.03099524974823,-2.918626070022583,1.9416062831878662,0.10505956411361694,2.0086772441864014,3.9994213581085205,0.2834794521331787,-2.232149600982666,0.2546415627002716,0.8894970417022705
114,53299,53298,-0.055631123483181,0.06189293786883354,1.0319353342056274,-1.8503143787384033,-0.3343765139579773,-0.615863561630249,2.008687973022461,3.9986908435821533,0.2837769687175751,-2.2279441356658936,0.34342721104621887,0.91422438621521
115,53309,53308,0.014323257841169834,-0.03868713602423668,0.9761565327644348,-1.6150104999542236,-4.613226890563965,-0.03414576128125191,2.0071909427642822,3.998659610748291,0.28417158126831055,-2.1585233211517334,0.29434892535209656,0.9111735224723816
116,53319,53318,0.036642659455537796,-0.01837790571153164,1.0199401378631592,0.33895164728164673,-6.170680046081543,-0.6675282120704651,2.0072574615478516,3.9973251819610596,0.28225618600845337,-2.1738085746765137,0.37549158930778503,0.9345419406890869
117,53329,53328,-0.0549435093998909,0.12467525899410248,1.0106334686279297,-0.002929797861725092,-6.831627368927002,0.5745037198066711,2.0049750804901123,3.997467041015625,0.2825454771518707,-2.054325580596924,0.37061816453933716,0.9373507499694824
118,53339,53338,0.003930058795958757,-0.03645775839686394,0.989035427570343,0.08729278296232224,-6.705674648284912,0.20108546316623688,2.0054304599761963,3.9984946250915527,0.28274112939834595,-2.0123531818389893,0.38121455907821655,0.935113787651062
119,53349,53348,0.026397613808512688,-0.0035617740359157324,1.0627474784851074,-1.243695855140686,-4.39304780960083,0.06724029779434204,2.0058043003082275,3.9986841678619385,0.2819417119026184,-1.9702006578445435,0.37268194556236267,0.9324572682380676
120,53359,53358,0.008458689786493778,-0.053628645837306976,1.0253959894180298,-1.6989550590515137,-1.9395196437835693,0.14461399614810944,2.0057790279388428,3.9993882179260254,0.2820831537246704,-2.0318477153778076,0.3487398624420166,0.9218988418579102
121,53369,53368,-0.03112150728702545,0.045657917857170105,0.9592531323432922,-3.405985116958618,1.1779263019561768,-0.00591635936871171,2.005783796310425,4.000255107879639,0.2822985351085663,-1.9638891220092773,0.2330663651227951,0.8947246670722961
122,53379,53378,-0.010570412501692772,0.028012022376060486,1.0778177976608276,-3.7067995071411133,2.5352728366851807,0.5646038055419922,2.0069522857666016,4.001701831817627,0.2824048399925232,-2.082597017288208,0.19271108508110046,0.8822923302650452
123,53389,53388,0.046291667968034744,-0.06333089619874954,1.0013892650604248,-3.1816112995147705,-2.3101067543029785,0.43839505314826965,2.0066335201263428,4.000428676605225,0.2814430892467499,-2.027937889099121,0.22107020020484924,0.9095796346664429
124,53399,53398,-0.013875236734747887,-0.0041755326092243195,1.021152138710022,-0.6386552453041077,-7.142892837524414,0.5748562216758728,2.007385015487671,4.00072717666626,0.28155189752578735,-2.0843584537506104,0.18382865190505981,0.9120863080024719
125,53409,53408,-0.017019201070070267,-0.0297225508838892,1.047396183013916,1.502728819847107,-6.598217487335205,0.7583884000778198,2.0075125694274902,4.000860214233398,0.281878262758255,-1.9136980772018433,0.18076813220977783,0.9259876012802124
126,53419,53418,0.02238442935049534,-0.14122457802295685,1.054060935974121,1.8938405513763428,-7.590280055999756,0.9148761034011841,2.008474349975586,3.9997973442077637,0.2833848297595978,-1.8771069049835205,0.27688077092170715,0.9584442973136902
127,53429,53428,0.001554889720864594,-0.04105057194828987,1.0692960023880005,2.0276544094085693,-7.487464427947998,0.9216943979263306,2.008439540863037,3.9983930587768555,0.28370463848114014,-1.8238649368286133,0.29541632533073425,0.9703626036643982
128,53439,53438,0.014504143968224525,-0.08815208077430725,1.0579679012298584,1.8745521306991577,-7.736462116241455,0.8603096604347229,2.008061170578003,3.9976370334625244,0.28423282504081726,-1.6231911182403564,0.322787344455719,0.9833397269248962
129,53449,53448,0.012089832685887814,-0.001934611238539219,1.048513650894165,-0.5681482553482056,-7.606430530548096,1.1292719841003418,2.0074644088745117,3.9969847202301025,0.2838081419467926,-1.4249985218048096,0.32716795802116394,0.9951530694961548
130,53459,53458,-0.014784147962927818,-0.034933384507894516,1.0010290145874023,-3.717506170272827,-7.439203262329102,0.95622718334198,2.0108609199523926,3.996356964111328,0.2842339277267456,-1.696570873260498,0.2970692813396454,0.9798129796981812
131,53469,53468,-0.026965929195284843,0.04972805082798004,0.9617323875427246,-5.020729064941406,-6.224856853485107,0.7032006978988647,2.0106077194213867,3.9962809085845947,0.28491857647895813,-1.4103243350982666,0.2688519060611725,1.0100382566452026
132,53479,53478,-0.01593819446861744,0.05269980430603027,1.0398361682891846,-5.835724830627441,-5.270408630371094,0.8092722296714783,2.0119845867156982,3.9947094917297363,0.2901419699192047,-1.4449443817138672,0.2906411290168762,1.0137581825256348
133,53489,53488,-0.0032047934364527464,0.025534745305776596,0.9686902761459351,-5.814746856689453,-6.828399181365967,1.115694522857666,2.0123536586761475,3.9943716526031494,0.2909637987613678,-1.3319778442382812,0.2588604688644409,1.0320616960525513
134,53499,53498,0.012972391210496426,-0.011610319837927818,1.0360081195831299,-2.9799678325653076,-8.710882186889648,0.7941341996192932,2.0135421752929688,3.9944357872009277,0.2916925847530365,-1.3556694984436035,0.23937517404556274,1.0459825992584229
135,53509,53508,0.0042443289421498775,-0.03409942612051964,0.9980360865592957,-2.236818552017212,-9.472855567932129,-0.03309352323412895,2.0138120651245117,3.9953455924987793,0.29258525371551514,-1.1979914903640747,0.1623600423336029,1.0486129522323608
136,53519,53518,-0.02771853283047676,0.029254119843244553,1.0265984535217285,-1.2593754529953003,-7.6685357093811035,0.4225432574748993,2.0155680179595947,3.995849370956421,0.29175254702568054,-1.2616515159606934,0.10906773060560226,1.0391919612884521
137,53529,53528,0.021250318735837936,0.07384064048528671,0.8635528683662415,-1.1361727714538574,-7.324015140533447,0.8506127595901489,2.014925003051758,3.995203971862793,0.29264113306999207,-1.0120891332626343,0.06919953227043152,1.0421028137207031
138,53539,53538,-0.004495169036090374,0.15521426498889923,1.0073739290237427,-1.2218685150146484,-9.278240203857422,1.3312658071517944,2.015413522720337,3.994645357131958,0.29330384731292725,-0.9409219026565552,0.04029074311256409,1.043929100036621
139,53549,53548,0.02070080302655697,-0.05244972184300423,1.0329126119613647,-0.566559374332428,-10.523429870605469,1.7886416912078857,2.018397331237793,3.9943954944610596,0.29517868161201477,-1.0778228044509888,0.16377446055412292,1.0767717361450195
140,53559,53558,0.026254553347826004,0.05917856842279434,1.026260256767273,-0.4873758852481842,-10.368329048156738,1.55488920211792,2.0166609287261963,3.9942233562469482,0.2960905432701111,-0.7999589443206787,0.12626482546329498,1.091243028640747
141,53569,53568,-0.016632333397865295,-0.051345426589250565,0.9849822521209717,-2.1115329265594482,-8.466642379760742,1.5318742990493774,2.0195119380950928,3.993699789047241,0.2966427803039551,-0.9410377144813538,0.16609445214271545,1.1093621253967285
142,53579,53578,0.027325661852955818,-0.04410180449485779,0.9542372226715088,-2.790756940841675,-6.659570217132568,1.5625171661376953,2.019089698791504,3.9938271045684814,0.2964295744895935,-0.6647127270698547,0.10940141975879669,1.1224727630615234
143,53589,53588,0.02654321677982807,-0.054438330233097076,0.9982452392578125,-4.5083112716674805,-7.18999719619751,1.0742040872573853,2.0211570262908936,3.9940543174743652,0.2969954013824463,-0.7399913668632507,0.028260190039873123,1.1263200044631958
144,53599,53598,0.05450480431318283,-0.04417196661233902,0.952193558216095,-5.1628642082214355,-7.5878825187683105,1.0046006441116333,2.0220730304718018,3.99285626411438,0.2976137399673462,-0.650740385055542,0.08127958327531815,1.1499364376068115
145,53609,53608,-0.036098115146160126,0.1082456111907959,0.9683386087417603,-4.199488162994385,-8.353644371032715,1.1853429079055786,2.0224199295043945,3.9927315711975098,0.2983361780643463,-0.5466282367706299,-0.02458692155778408,1.153198003768921
146,53619,53618,-0.008187738247215748,0.05757608637213707,0.9319256544113159,-4.564075469970703,-9.604511260986328,1.3916493654251099,2.023932695388794,3.9920763969421387,0.3018745183944702,-0.440327912569046,-0.047965485602617264,1.1652311086654663
147,53629,53628,-0.03268618509173393,0.05493991822004318,1.0738447904586792,-3.396867275238037,-11.399317741394043,1.206339716911316,2.025475025177002,3.9916141033172607,0.3024923801422119,-0.3934045433998108,-0.06216540187597275,1.1817431449890137
148,53639,53638,0.0034011623356491327,-0.04201227426528931,1.0795491933822632,-2.174095869064331,-9.102938652038574,0.6804490685462952,2.026235818862915,3.9914839267730713,0.3032906949520111,-0.17480646073818207,-0.14441674947738647,1.1927012205123901
149,53649,53648,-0.007444010581821203,-0.026898982003331184,1.019353985786438,-0.9708489179611206,-7.168745517730713,0.5459752082824707,2.0271241664886475,3.991955280303955,0.3078419268131256,-0.053152576088905334,-0.20358146727085114,1.2003111839294434
150,53659,53658,0.03246414288878441,-0.02169113978743553,0.9260759949684143,-0.8419269919395447,-5.4673309326171875,0.2934143543243408,2.0304155349731445,3.990363836288452,0.30882394313812256,-0.12356291711330414,-0.16602109372615814,1.2061878442764282
151,53669,53668,0.03670692443847656,-0.031150568276643753,0.8880433440208435,-1.4361870288848877,-5.925369739532471,0.5579180121421814,2.032581090927124,3.988759756088257,0.30981481075286865,-0.14360231161117554,-0.20596039295196533,1.205226182937622
152,53679,53678,-0.036087438464164734,0.07358666509389877,0.9248096346855164,-0.3310553729534149,-7.517133712768555,0.4669698476791382,2.031944513320923,3.9879679679870605,0.3159834146499634,0.08071725070476532,-0.23594927787780762,1.2029223442077637
153,53689,53688,-0.010830478742718697,0.005803322419524193,0.9660377502441406,-1.543904185295105,-7.201952934265137,0.8847770690917969,2.035369634628296,3.9866838455200195,0.3170754909515381,0.022061841562390327,-0.2605555057525635,1.205480933189392
154,53699,53698,-0.002230529673397541,-0.11764266341924667,0.9762144088745117,-1.6860973834991455,-6.923142910003662,0.6052882075309753,2.035616397857666,3.986116886138916,0.31825023889541626,0.18579933047294617,-0.29602378606796265,1.2116135358810425
155,53709,53708,-0.008499769493937492,-0.10087265819311142,0.9460746645927429,-0.8653739094734192,-6.235187530517578,0.2694050371646881,2.037639617919922,3.985466718673706,0.3192744255065918,0.18942716717720032,-0.2564007639884949,1.2190436124801636
156,53719,53718,-0.037722259759902954,0.07911023497581482,0.9812155365943909,-0.32893282175064087,-5.040588855743408,-0.1433475911617279,2.0374746322631836,3.9858880043029785,0.3193022906780243,0.4151599109172821,-0.2844158411026001,1.2192846536636353
157,53729,53728,0.022060343995690346,0.13322648406028748,0.9044053554534912,0.11056308448314667,-3.9395036697387695,0.162298783659935,2.0394105911254883,3.985339403152466,0.3201718330383301,0.3082802891731262,-0.3011578917503357,1.2260664701461792
158,53739,53738,0.057508643716573715,0.11350090801715851,0.9031572341918945,-0.4082803726196289,-3.098560333251953,-0.360796719789505,2.0409939289093018,3.9851951599121094,0.3210379481315613,0.3462723195552826,-0.316031813621521,1.2270900011062622
159,53749,53748,0.03701820224523544,0.0866592600941658,0.9770305156707764,-0.8122377395629883,-2.866480827331543,-0.5997809171676636,2.041567087173462,3.9858787059783936,0.32048299908638,0.37138187885284424,-0.3313200771808624,1.2272861003875732
160,53759,53758,0.017217034474015236,0.036709628999233246,0.9912586808204651,-1.0870423316955566,-4.399951934814453,-0.7847347259521484,2.0425286293029785,3.984541177749634,0.32119020819664,0.47009798884391785,-0.28026846051216125,1.2117085456848145
161,53769,53768,0.0231810100376606,-0.025228915736079216,0.9324384927749634,-0.6500342488288879,-3.556635618209839,-1.099969744682312,2.0443167686462402,3.984477996826172,0.3217453360557556,0.421261727809906,-0.2355920672416687,1.2008391618728638
162,53779,53778,-0.027667153626680374,0.03812485188245773,0.9440527558326721,-0.791458785533905,-3.6636552810668945,-0.6362852454185486,2.044321060180664,3.98555326461792,0.3243388831615448,0.6043638586997986,-0.3418644666671753,1.199303150177002
163,53789,53788,-0.022865591570734978,0.003708836156874895,0.9510829448699951,-1.103285312652588,-1.7819713354110718,-0.867087721824646,2.04528546333313,3.9845821857452393,0.3250606954097748,0.6831424832344055,-0.2887248694896698,1.180462121963501
164,53799,53798,-0.01115380134433508,0.029671506956219673,0.9275941848754883,-0.8450459837913513,-2.5267493724823,0.029469575732946396,2.046876907348633,3.9860644340515137,0.3256228268146515,0.5980085134506226,-0.39529773592948914,1.2011098861694336
165,53809,53808,0.02082817442715168,0.011419637128710747,0.9605013728141785,0.028610099107027054,1.1520236730575562,-0.4942142367362976,2.047663927078247,3.9849820137023926,0.32780757546424866,0.712439239025116,-0.4106253385543823,1.1903365850448608
166,53819,53818,0.008549819700419903,0.08050010353326797,1.018673300743103,1.3220274448394775,1.7820457220077515,-0.42789167165756226,2.049992084503174,3.984408140182495,0.3283694088459015,0.6310542821884155,-0.40406954288482666,1.1821074485778809
167,53829,53828,0.007758984342217445,0.06824430823326111,1.0016117095947266,2.88093900680542,2.4700796604156494,-0.7665222883224487,2.05027437210083,3.984412908554077,0.32898417115211487,0.7122442722320557,-0.38904672861099243,1.1749647855758667
168,53839,53838,-0.01186541561037302,0.037822213023900986,0.9753143191337585,3.628089666366577,2.611302614212036,-1.0629767179489136,2.050100088119507,3.9849934577941895,0.32961738109588623,0.762077271938324,-0.34819409251213074,1.1611121892929077
169,53849,53848,-0.03454851359128952,0.0265860203653574,0.9388973712921143,3.2003135681152344,3.1595675945281982,-1.1764700412750244,2.050365924835205,3.9848904609680176,0.3294273018836975,0.7242312431335449,-0.2991770803928375,1.15059494972229
170,53859,53858,-0.004503881558775902,-0.029192695394158363,0.9299957752227783,2.7659335136413574,3.795448064804077,-1.1786028146743774,2.051316499710083,3.984746217727661,0.32993021607398987,0.6817206740379333,-0.25217384099960327,1.137048363685608
171,53869,53868,-0.059328820556402206,0.10321682691574097,0.9253740310668945,1.5161733627319336,4.376265048980713,-1.288514256477356,2.0515084266662598,3.9840588569641113,0.33044323325157166,0.7008119225502014,-0.21778711676597595,1.1226123571395874
172,53879,53878,-0.004405884072184563,-0.0029442578088492155,0.932931661605835,0.8707165718078613,5.293846607208252,-1.206961989402771,2.0517117977142334,3.983337640762329,0.33159583806991577,0.7007762789726257,-0.1964123398065567,1.1064988374710083
173,53889,53888,-0.004034660290926695,0.07655666023492813,0.9440297484397888,0.09966754913330078,5.702415466308594,-1.742357850074768,2.053654909133911,3.9826014041900635,0.33191055059432983,0.5368829965591431,-0.11749408394098282,1.0879234075546265
174,53899,53898,-0.02247941680252552,0.09919688105583191,0.9883898496627808,0.1728244572877884,5.809917449951172,-1.7598443031311035,2.0542006492614746,3.9820568561553955,0.3322520852088928,0.5234668850898743,-0.12821349501609802,1.0721782445907593
175,53909,53908,-0.011132567189633846,-0.013829467818140984,0.964419960975647,-0.15933604538440704,6.022688388824463,-1.401003360748291,2.054755687713623,3.982081413269043,0.3340018689632416,0.44092848896980286,-0.14407286047935486,1.0336265563964844
176,53919,53918,-0.032628752291202545,-0.09325167536735535,0.9934067726135254,-1.058042049407959,5.628986358642578,-1.531394362449646,2.0554943084716797,3.9821436405181885,0.3343295454978943,0.3926178216934204,-0.1592029631137848,1.0452461242675781
177,53929,53928,-0.08200499415397644,-0.05775341019034386,1.058620572090149,-1.723965048789978,7.056063652038574,-0.9244154691696167,2.0563955307006836,3.981428384780884,0.33474671840667725,0.36816084384918213,-0.18354438245296478,1.03361177444458
178,53939,53938,0.05227290466427803,0.00023138667165767401,0.9141099452972412,-1.1805410385131836,4.046044826507568,-0.9206233024597168,2.057286262512207,3.98091197013855,0.33515995740890503,0.27047500014305115,-0.2327890545129776,1.0150519609451294
179,53949,53948,-0.01672356203198433,-0.03051663003861904,0.9119508862495422,-1.0929700136184692,4.588845252990723,-0.084080770611763,2.0569024085998535,3.981494188308716,0.3322002589702606,0.31029030680656433,-0.24542073905467987,1.0219991207122803
180,53959,53958,-0.024881234392523766,-0.026056913658976555,0.9539229273796082,-0.7453290820121765,3.9040191173553467,0.15861062705516815,2.057188034057617,3.9815237522125244,0.33229756355285645,0.31582924723625183,-0.2637457549571991,1.0175042152404785
181,53969,53968,-0.020706506446003914,0.03383775055408478,0.9420249462127686,1.0487167835235596,5.092644214630127,-0.3227427899837494,2.0566978454589844,3.981318473815918,0.3323533236980438,0.2520551383495331,-0.257816880941391,1.0211559534072876
182,53979,53978,0.031083423644304276,-0.03417622298002243,0.8997377753257751,1.120469093322754,3.2313873767852783,0.3690541982650757,2.056659460067749,3.9818105697631836,0.3308837115764618,0.1560411900281906,-0.3147556185722351,1.0290977954864502
183,53989,53988,0.034144483506679535,-0.08732534199953079,0.9767559170722961,2.1677610874176025,3.056123971939087,0.3822290301322937,2.056887149810791,3.9827516078948975,0.3307526409626007,0.16952820122241974,-0.27918314933776855,1.0347378253936768
184,53999,53998,0.016095072031021118,-0.09324239939451218,0.9596577286720276,2.2663512229919434,3.8223681449890137,0.30556583404541016,2.056572914123535,3.9825520515441895,0.3305684030056,0.2795226573944092,-0.25919148325920105,1.0272104740142822
185,54009,54008,0.03576159477233887,-0.09491487592458725,0.8990743160247803,1.97725510597229,5.710484027862549,-0.012643744237720966,2.057063341140747,3.9831299781799316,0.3311682343482971,0.12040642648935318,-0.27993616461753845,1.0397697687149048
186,54019,54018,-0.002562191104516387,0.050717927515506744,1.0044299364089966,2.3695335388183594,6.509243011474609,0.16174627840518951,2.0573010444641113,3.9826853275299072,0.3308762311935425,0.12968014180660248,-0.25432175397872925,1.0358942747116089
187,54029,54028,0.034407854080200195,-0.005002007354050875,0.8983108401298523,2.6153032779693604,7.970607757568359,0.31189149618148804,2.058077096939087,3.982936382293701,0.3305574357509613,0.06273751705884933,-0.20524416863918304,1.0419872999191284
188,54039,54038,0.019256003201007843,-0.007597541902214289,0.9661241769790649,2.4925453662872314,8.119235038757324,0.4537280797958374,2.0586485862731934,3.9835503101348877,0.3297671675682068,-0.0296471007168293,-0.23364363610744476,1.0479483604431152
189,54049,54048,0.015549851581454277,-0.019419098272919655,1.062792420387268,2.5417943000793457,7.611514568328857,0.09161712229251862,2.0584540367126465,3.9838647842407227,0.3293071389198303,-0.038488514721393585,-0.2568134367465973,1.0537216663360596
190,54059,54058,-0.02752339094877243,-0.003535719122737646,1.0555108785629272,1.3910202980041504,8.395689964294434,0.187725231051445,2.0599756240844727,3.98453688621521,0.3287576138973236,-0.19450542330741882,-0.2782677114009857,1.0661088228225708
191,54069,54068,-0.06237083300948143,0.08075682073831558,1.0329838991165161,3.195530652999878,8.061039924621582,0.3647114336490631,2.059323787689209,3.9850194454193115,0.32841014862060547,-0.17701321840286255,-0.2144361436367035,1.0664604902267456
192,54079,54078,0.02554916962981224,-0.15814542770385742,1.0489623546600342,3.8616175651550293,7.331161975860596,0.23711498081684113,2.0611908435821533,3.9838907718658447,0.3269652724266052,-0.32503002882003784,-0.14117388427257538,1.0592042207717896
193,54089,54088,0.03159578889608383,-0.03643622621893883,1.006831407546997,4.706664085388184,6.597693920135498,0.6151090264320374,2.061760187149048,3.984926223754883,0.32661157846450806,-0.39118584990501404,-0.06398748606443405,1.0642831325531006
194,54099,54098,0.042013734579086304,-0.13693863153457642,0.9979498982429504,5.022514820098877,4.222761631011963,0.8480674028396606,2.0617451667785645,3.985178232192993,0.3262660503387451,-0.5047023892402649,0.06176433712244034,1.0807466506958008
195,54109,54108,-0.0010394849814474583,0.08380541205406189,0.980789303779602,5.102157115936279,2.586489200592041,1.2573658227920532,2.062168836593628,3.9843215942382812,0.3226149082183838,-0.4672529101371765,0.10175515711307526,1.0776584148406982
196,54119,54118,-0.014572986401617527,0.07288999110460281,0.9548869132995605,1.8669792413711548,0.6873985528945923,1.2520155906677246,2.0616202354431152,3.986877202987671,0.3221322000026703,-0.5271602869033813,-0.061786822974681854,1.0977798700332642
197,54129,54128,0.004102939739823341,0.08515867590904236,1.0284743309020996,-0.8876355290412903,0.5452081561088562,0.8901970386505127,2.0622849464416504,3.9868111610412598,0.3215978741645813,-0.4897499978542328,-0.01312874536961317,1.108574628829956
198,54139,54138,0.024974217638373375,0.027666032314300537,1.0432616472244263,-1.6481584310531616,0.8419159054756165,0.6792540550231934,2.063034772872925,3.9868268966674805,0.32066792249679565,-0.5287052989006042,-2.2825590349384584e-05,1.1242800951004028
199,54149,54148,-0.006602068897336721,0.05367952585220337,1.0505781173706055,-0.9041292667388916,2.674586534500122,0.4771079123020172,2.0644609928131104,3.986975908279419,0.32003241777420044,-0.5665914416313171,-0.0010211498010903597,1.1334224939346313
200,54159,54158,-0.005986142437905073,-0.018199751153588295,1.0036708116531372,0.19337712228298187,3.7860076427459717,0.44278794527053833,2.065000534057617,3.986868143081665,0.319520503282547,-0.5450650453567505,0.010115796700119972,1.1368625164031982
201,54169,54168,0.0036028132308274508,-0.053227972239255905,1.0296876430511475,1.9709265232086182,4.756795406341553,0.821500837802887,2.0649142265319824,3.9875669479370117,0.3190440237522125,-0.5553216934204102,0.03782597556710243,1.1419785022735596
202,54179,54178,0.020426630973815918,-0.05481358617544174,0.9878371953964233,4.181272506713867,3.208491563796997,0.8320589065551758,2.0658204555511475,3.987159490585327,0.31733930110931396,-0.6181638836860657,0.12623992562294006,1.1582856178283691
203,54189,54188,0.023562263697385788,-0.05658628046512604,1.0433720350265503,4.810542583465576,3.338191032409668,0.5044862627983093,2.0652012825012207,3.986788511276245,0.31686609983444214,-0.586529016494751,0.1687784045934677,1.1579078435897827
204,54199,54198,-0.030363505706191063,0.07376779615879059,0.945590615272522,3.9293274879455566,3.3036084175109863,0.21408642828464508,2.065427303314209,3.987279176712036,0.3163450360298157,-0.5879403948783875,0.17390082776546478,1.163018822669983
205,54209,54208,-0.02984202280640602,0.15987730026245117,0.984701931476593,1.5875682830810547,3.378052234649658,0.3623388409614563,2.067988395690918,3.9882442951202393,0.3171336352825165,-0.8331403732299805,0.1705307811498642,1.1588943004608154
206,54219,54218,0.01342630572617054,-0.04235435277223587,1.0522252321243286,-1.3244946002960205,1.8876330852508545,0.5372474193572998,2.06618332862854,3.987236499786377,0.3168065845966339,-0.7494103908538818,0.35952484607696533,1.1741899251937866
207,54229,54228,0.024770494550466537,-0.022110693156719208,1.0209378004074097,-2.6351161003112793,2.6747567653656006,0.797232985496521,2.066756248474121,3.986966848373413,0.31635525822639465,-0.7370533347129822,0.33287039399147034,1.179481029510498
208,54239,54238,-0.0326908677816391,0.018354175612330437,1.0863063335418701,-3.912040948867798,1.445554256439209,0.5766090750694275,2.066836357116699,3.9879581928253174,0.31465664505958557,-0.7166301012039185,0.20588809251785278,1.181368112564087
209,54249,54248,0.03135339543223381,-0.01916765421628952,0.9512739777565002,-5.620748519897461,1.8246129751205444,0.6550862789154053,2.0722360610961914,3.987525224685669,0.31392771005630493,-1.2372136116027832,0.13978606462478638,1.1646881103515625
210,54259,54258,0.028310975059866905,-0.01368231326341629,1.022603988647461,-3.404144525527954,0.3820892870426178,0.22034811973571777,2.072883367538452,3.9876253604888916,0.3136330842971802,-1.166367530822754,0.07979856431484222,1.1726127862930298
211,54269,54268,-0.03476935625076294,0.022225266322493553,1.0011225938796997,-2.7321438789367676,-2.7906670570373535,1.380759596824646,2.0730931758880615,3.9882500171661377,0.3132096529006958,-1.1358256340026855,0.03216605260968208,1.177573800086975
212,54279,54278,-0.04017132148146629,0.11670909076929092,1.0739538669586182,0.2122977077960968,-6.273082256317139,1.038716197013855,2.073469400405884,3.98826003074646,0.312362402677536,-1.0569642782211304,0.024707866832613945,1.1879969835281372
213,54289,54288,0.03009250946342945,-0.05501846596598625,1.1107558012008667,1.8872908353805542,-7.610070705413818,0.8586902022361755,2.0747058391571045,3.988546848297119,0.3118816614151001,-1.0165637731552124,0.03720556199550629,1.200421929359436
214,54299,54298,0.04778209701180458,-0.04538189619779587,1.002297282218933,4.307764053344727,-8.182088851928711,0.8685318231582642,2.0747907161712646,3.9883012771606445,0.311582088470459,-0.8603528141975403,0.08155091851949692,1.2223424911499023
215,54309,54308,-0.042432792484760284,-0.015499039553105831,0.9635756015777588,6.261127471923828,-7.613401412963867,1.463783860206604,2.0765089988708496,3.9892821311950684,0.311813086271286,-0.870042622089386,0.010763785801827908,1.215964674949646
216,54319,54318,0.004051567055284977,0.02685379981994629,1.0203572511672974,6.272309303283691,-6.765617847442627,1.689881682395935,2.0762946605682373,3.9887192249298096,0.3115696609020233,-0.8162363171577454,0.12737998366355896,1.2311025857925415
217,54329,54328,0.011870224960148335,-0.009426663629710674,1.0837417840957642,5.082981586456299,-7.087559223175049,2.0210182666778564,2.076329231262207,3.9874696731567383,0.31135040521621704,-0.6852487325668335,0.23790059983730316,1.241642713546753
218,54339,54338,-0.00043026686762459576,0.08631578087806702,1.1062853336334229,3.889028549194336,-5.806234836578369,2.315037727355957,2.0765435695648193,3.9872329235076904,0.311747670173645,-0.5451714992523193,0.3238697648048401,1.2670878171920776
219,54349,54348,-0.04083927720785141,0.023777548223733902,0.9595252871513367,1.0803183317184448,-3.825874090194702,2.3489229679107666,2.0758090019226074,3.9875926971435547,0.3117069602012634,-0.3805055618286133,0.3343053162097931,1.3056650161743164
220,54359,54358,0.01980537921190262,-0.008229765109717846,1.0166819095611572,-0.9418275952339172,-1.8113733530044556,2.574047565460205,2.0781209468841553,3.988342523574829,0.31159713864326477,-0.5089015364646912,0.26293182373046875,1.2926558256149292
221,54369,54368,0.034998778253793716,-0.16994790732860565,1.0465036630630493,-1.558830738067627,0.12653343379497528,2.728952407836914,2.0786144733428955,3.9885010719299316,0.3103821277618408,-0.45535826683044434,0.265639990568161,1.3188716173171997
222,54379,54378,-0.0190452691167593,0.009661371819674969,1.096407175064087,-1.7646985054016113,0.47499316930770874,2.575359344482422,2.0785436630249023,3.988656520843506,0.3103123605251312,-0.34481409192085266,0.24549289047718048,1.3495800495147705
223,54389,54388,0.009299175813794136,0.05807724595069885,0.9299161434173584,-1.7042807340621948,0.5383293628692627,2.9322900772094727,2.081395149230957,3.988831043243408,0.3101121783256531,-0.5710442662239075,0.22973139584064484,1.3670374155044556
224,54399,54398,0.024083295837044716,-0.003846626728773117,0.9806898236274719,-1.464529275894165,0.21767838299274445,2.7227962017059326,2.0821895599365234,3.9880857467651367,0.31025028228759766,-0.4774949252605438,0.2966407537460327,1.4028403759002686
225,54409,54408,0.0014616575790569186,0.013082127086818218,1.0668684244155884,-0.036481697112321854,-3.135777711868286,2.284940242767334,2.0826196670532227,3.987760543823242,0.3115205764770508,-0.43511274456977844,0.2820502817630768,1.4340081214904785
226,54419,54418,-0.023409511893987656,-0.015498364344239235,1.039914608001709,0.17159880697727203,-3.560643196105957,2.488710403442383,2.0831892490386963,3.9884676933288574,0.31156566739082336,-0.3640131652355194,0.20443066954612732,1.4540660381317139
227,54429,54428,0.019367609173059464,-0.010823873803019524,1.0532824993133545,0.36792001128196716,-4.837734699249268,2.0714218616485596,2.083341121673584,3.9884204864501953,0.31167513132095337,-0.28235775232315063,0.21858371794223785,1.481438159942627
228,54439,54438,0.004178951494395733,-0.03980252891778946,0.9742159247398376,-0.2228977084159851,-4.115825653076172,1.8273495435714722,2.0833983421325684,3.9881348609924316,0.30955639481544495,-0.261963814496994,0.22448354959487915,1.504089593887329
229,54449,54448,-0.011805318295955658,0.04382318630814552,1.0697118043899536,1.6759957075119019,-5.064688205718994,1.7930858135223389,2.084787130355835,3.988105535507202,0.30958497524261475,-0.24296323955059052,0.2415158748626709,1.5236170291900635
230,54459,54458,0.009899333119392395,-0.07306408137083054,0.9628607034683228,0.31906193494796753,-3.932107925415039,1.8374837636947632,2.087440013885498,3.9874343872070312,0.30952394008636475,-0.27272722125053406,0.2633618116378784,1.544289469718933
231,54469,54468,-0.0030602500773966312,-0.015489170327782631,1.0085501670837402,-0.720317006111145,-3.3550164699554443,1.5404119491577148,2.08808970451355,3.98748517036438,0.30961087346076965,-0.21556726098060608,0.2629444897174835,1.5546343326568604
232,54479,54478,0.026465123519301414,-0.0282761063426733,0.9885815978050232,-0.48861196637153625,-2.148472547531128,1.3304762840270996,2.088139057159424,3.987952709197998,0.30747348070144653,-0.026525400578975677,0.2539634108543396,1.5863126516342163
233,54489,54488,-0.01767819933593273,-0.0009489472140558064,1.0348800420761108,-1.0436233282089233,-1.8717066049575806,0.9314955472946167,2.089881658554077,3.9879040718078613,0.30730777978897095,-0.22083745896816254,0.24631771445274353,1.5775504112243652
234,54499,54498,-0.012360681779682636,0.08281033486127853,0.9665601253509521,-0.40634456276893616,-0.7842168211936951,0.8125420808792114,2.0889439582824707,3.9877209663391113,0.30739420652389526,-0.08506385236978531,0.23376451432704926,1.6048156023025513
235,54509,54508,-0.003630643477663398,-0.007767544128000736,0.9997110366821289,-1.0808998346328735,-0.06543214619159698,1.211403727531433,2.090425968170166,3.988565683364868,0.3036867082118988,-0.15245559811592102,0.22457052767276764,1.6082231998443604
236,54519,54518,0.02861117757856846,-0.017479009926319122,1.010148525238037,-0.42629268765449524,-0.8655985593795776,1.3923803567886353,2.0901689529418945,3.9886388778686523,0.3034469187259674,-0.05437113717198372,0.2166946530342102,1.6104806661605835
237,54529,54528,-0.02406984195113182,0.04357941821217537,0.9698449969291687,-2.165997266769409,-0.6318092942237854,1.3388373851776123,2.0933473110198975,3.9890201091766357,0.30300357937812805,-0.2568437457084656,0.2000240981578827,1.630557656288147
238,54539,54538,-0.013776233419775963,0.003964964300394058,0.9540186524391174,-0.9857678413391113,-0.19580422341823578,1.5974520444869995,2.0926268100738525,3.9887657165527344,0.3056471347808838,-0.04159822687506676,0.2625912129878998,1.657874345779419
239,54549,54548,-0.0006571413250640035,-0.14360670745372772,1.046612024307251,-0.9371634721755981,-2.161733388900757,1.6958613395690918,2.094536304473877,3.988060474395752,0.30544477701187134,-0.09779398143291473,0.23146477341651917,1.6569279432296753
