,timestamp_start,timestamp_end,acc.x,acc.y,acc.z,gyro.x,gyro.y,gyro.z,stateEstimate.x,stateEstimate.y,stateEstimate.z,stabilizer.pitch,stabilizer.roll,stabilizer.yaw
0,18805,18804,0.022314628586173058,0.03165694698691368,0.9974666833877563,2.0038809776306152,-1.3086572885513306,-2.620296001434326,1.9736170768737793,3.966848134994507,0.16322971880435944,-0.5426812767982483,-0.16615867614746094,3.1281638145446777
1,18815,18814,0.0009077762369997799,-0.047836627811193466,0.9544010162353516,2.4723310470581055,1.6695605516433716,-2.336538553237915,1.974196195602417,3.9654195308685303,0.1631140410900116,-0.7394344210624695,-0.14138053357601166,3.1003224849700928
2,18825,18824,-0.02834162674844265,0.05291975662112236,1.0986043214797974,2.665447950363159,3.8383259773254395,-2.07824444770813,1.974802851676941,3.9653677940368652,0.16451334953308105,-0.8630620837211609,-0.11280833184719086,3.076303243637085
3,18835,18834,0.012088039889931679,-0.03546068072319031,1.0173166990280151,1.9885846376419067,4.259389400482178,-1.6403554677963257,1.9766387939453125,3.965625047683716,0.16594287753105164,-0.98548823595047,-0.1573144495487213,3.0482096672058105
4,18845,18844,0.03510440140962601,-0.038592949509620667,1.0027706623077393,0.8574481010437012,-1.7849551439285278,-1.0776021480560303,1.9768320322036743,3.966517925262451,0.16752494871616364,-1.0445096492767334,-0.2769397795200348,3.0149073600769043
5,18855,18854,-0.001514863921329379,0.03931558132171631,1.052186131477356,0.8221957683563232,-7.617822647094727,-1.0736358165740967,1.9746824502944946,3.965078353881836,0.16837678849697113,-0.989955484867096,-0.3129880726337433,2.9961633682250977
6,18865,18864,0.03514496237039566,-0.06610734015703201,1.0234493017196655,0.9873353838920593,-10.917433738708496,-0.7697491645812988,1.9759597778320312,3.96478009223938,0.17018422484397888,-0.8466826677322388,-0.2698203921318054,2.9915735721588135
7,18875,18874,-0.01902085542678833,0.007583225145936012,1.0981017351150513,2.5919907093048096,-13.785451889038086,-0.756874144077301,1.975066900253296,3.967625856399536,0.17192479968070984,-0.6299903392791748,-0.3756060004234314,2.9682114124298096
8,18885,18884,-0.026880864053964615,0.023637156933546066,1.0691834688186646,3.309746503829956,-9.935561180114746,-0.7482299208641052,1.9772052764892578,3.9686176776885986,0.17371121048927307,-0.3957159221172333,-0.3595910966396332,2.9619219303131104
9,18895,18894,0.01985473744571209,0.025249745696783066,1.0612647533416748,5.426604747772217,-11.334833145141602,-0.29908841848373413,1.9780340194702148,3.9686293601989746,0.1754566878080368,-0.36479735374450684,-0.4709939658641815,2.931328058242798
10,18905,18904,0.006404186133295298,-0.042930666357278824,1.022741675376892,6.388922691345215,-6.860700607299805,-0.18354104459285736,1.97267746925354,3.971165895462036,0.17670881748199463,0.6265321969985962,-0.6724036931991577,2.8896286487579346
11,18915,18914,0.03871573507785797,-0.01710100658237934,1.0752650499343872,9.250625610351562,-2.9853148460388184,-0.3954166769981384,1.9730294942855835,3.9716479778289795,0.1786302924156189,0.5989528894424438,-0.5158848762512207,2.9004344940185547
12,18925,18924,-0.016685180366039276,0.08301465958356857,1.099666714668274,10.076179504394531,9.795625686645508,-0.6323317289352417,1.9733226299285889,3.9709243774414062,0.18157461285591125,0.43947139382362366,-0.25080856680870056,2.9149789810180664
13,18935,18934,-0.024769729003310204,-0.03524197265505791,1.0496422052383423,11.180994033813477,18.45046043395996,-1.0822789669036865,1.9739145040512085,3.970435857772827,0.1842336356639862,0.1701340228319168,-0.006291546393185854,2.9212889671325684
14,18945,18944,0.04013955965638161,-0.04000673443078995,1.018502116203308,10.076252937316895,20.502765655517578,-1.2953509092330933,1.977192759513855,3.971898078918457,0.1867745816707611,-0.20392782986164093,0.15718767046928406,2.9164881706237793
15,18955,18954,0.04285639524459839,-0.10777119547128677,0.9906147718429565,7.648200035095215,19.669361114501953,-1.782264232635498,1.9785405397415161,3.9719200134277344,0.18673411011695862,-0.5890378952026367,0.2958528995513916,2.9057490825653076
16,18965,18964,-0.013534288853406906,0.03783070668578148,0.9690532088279724,2.666978359222412,8.234267234802246,-0.9728020429611206,1.979033350944519,3.972085952758789,0.1887490451335907,-0.8596524596214294,0.38046565651893616,2.888794183731079
17,18975,18974,-0.01270749606192112,-0.01835537515580654,1.0252193212509155,-0.3901005983352661,-3.041686534881592,-1.0983521938323975,1.9798320531845093,3.9726436138153076,0.19075769186019897,-0.9880286455154419,0.38314005732536316,2.8746213912963867
18,18985,18984,0.013371845707297325,-0.008866828866302967,1.1121388673782349,-1.652483344078064,-11.803319931030273,-1.4114819765090942,1.9804342985153198,3.9726674556732178,0.19281694293022156,-1.004399061203003,0.4108133912086487,2.86456561088562
19,18995,18994,-0.046001989394426346,-0.03656715154647827,1.052247405052185,-1.582990288734436,-19.651945114135742,-1.005942463874817,1.9853177070617676,3.9720985889434814,0.19430236518383026,-1.3481709957122803,0.34585171937942505,2.8201229572296143
20,19005,19004,0.04904130846261978,0.013224777765572071,1.0112167596817017,-2.245424270629883,-24.987810134887695,-1.1365262269973755,1.9846901893615723,3.9718282222747803,0.1980098932981491,-0.7716525197029114,0.3569495677947998,2.8359615802764893
21,19015,19014,-0.0003899133298546076,-0.1402941197156906,1.0001980066299438,-1.288256049156189,-29.878746032714844,-1.3166664838790894,1.9835090637207031,3.9718010425567627,0.19904710352420807,-0.31579694151878357,0.3540375828742981,2.838073968887329
22,19025,19024,0.012124832719564438,-0.005035883747041225,1.0329196453094482,-0.21108461916446686,-26.76758575439453,-1.7236638069152832,1.9859215021133423,3.9719510078430176,0.20129531621932983,-0.3239152431488037,0.3606751561164856,2.8026630878448486
23,19035,19034,0.018606847152113914,0.07653117924928665,0.9772170186042786,0.06404797732830048,-19.735118865966797,-1.8783565759658813,1.987074375152588,3.971510171890259,0.20339810848236084,-0.20424196124076843,0.39003849029541016,2.777331829071045
24,19045,19044,-0.02945762872695923,0.024231093004345894,1.0325509309768677,0.9627122282981873,-13.850444793701172,-2.1094610691070557,1.9866588115692139,3.971425771713257,0.20525416731834412,0.1175176277756691,0.4158703684806824,2.7704315185546875
25,19055,19054,-0.0062836348079144955,-0.008341957814991474,1.025739073753357,0.5857419967651367,-10.283222198486328,-2.714097499847412,1.9853118658065796,3.971372365951538,0.20754438638687134,0.32725071907043457,0.44295644760131836,2.7565228939056396
26,19065,19064,-0.051649417728185654,-0.05342770367860794,1.02254056930542,-0.6755271553993225,-2.6339359283447266,-2.8148436546325684,1.9900965690612793,3.970494270324707,0.2097632735967636,-0.16304823756217957,0.4636249542236328,2.677013397216797
27,19075,19074,-0.003378000110387802,0.007711776997894049,1.0070245265960693,-2.2410619258880615,-1.821588397026062,-2.059608221054077,1.9898062944412231,3.9690704345703125,0.21249395608901978,0.02116280235350132,0.46112897992134094,2.6642372608184814
28,19085,19084,0.005142257548868656,-0.03640127554535866,0.9678507447242737,-3.459864616394043,-3.653048515319824,-1.8904420137405396,1.9907454252243042,3.969221830368042,0.213954359292984,0.019116874784231186,0.4252466857433319,2.6406946182250977
29,19095,19094,0.056699853390455246,-0.07030073553323746,0.981077253818512,-3.897160530090332,-8.351606369018555,-1.9713449478149414,1.9910918474197388,3.9702248573303223,0.21621982753276825,0.05052410438656807,0.370214581489563,2.619523525238037
30,19105,19104,0.038965851068496704,-0.1515711396932602,0.9345732927322388,-2.527606964111328,-14.821319580078125,-1.8990412950515747,1.9911777973175049,3.9690747261047363,0.21848642826080322,0.1649455577135086,0.4620518088340759,2.6099839210510254
31,19115,19114,-0.010308216325938702,-0.03765295818448067,0.9637150168418884,-1.8936083316802979,-18.502696990966797,-2.139693260192871,1.9918092489242554,3.9687700271606445,0.2213529497385025,0.5249577760696411,0.4104308485984802,2.608757257461548
32,19125,19124,0.015954211354255676,-0.02801697514951229,0.96403968334198,-1.2748163938522339,-20.855497360229492,-1.7970094680786133,1.9895066022872925,3.967667579650879,0.223588228225708,0.6265155673027039,0.37379544973373413,2.5767276287078857
33,19135,19134,0.03812916949391365,-0.0027545245829969645,1.0186290740966797,-2.0897443294525146,-19.262847900390625,-1.6754547357559204,1.9907609224319458,3.967205286026001,0.2257174700498581,0.7701277136802673,0.4160040318965912,2.5525660514831543
34,19145,19144,-0.0004091713926754892,0.039828162640333176,1.0146775245666504,-3.9537529945373535,-17.228910446166992,-1.6077892780303955,1.9884053468704224,3.9669694900512695,0.22699186205863953,1.0285288095474243,0.3625483512878418,2.5409011840820312
35,19155,19154,0.010021492838859558,-0.06116907298564911,0.9473578333854675,-5.808995246887207,-13.012598037719727,-2.053736686706543,1.988892912864685,3.965977668762207,0.229160875082016,1.1682846546173096,0.35329073667526245,2.51938533782959
36,19165,19164,-0.015385109931230545,0.04117057844996452,1.0139542818069458,-7.513009548187256,-6.442739009857178,-2.4757578372955322,1.9914630651474,3.963824510574341,0.23125717043876648,1.4494587182998657,0.45251643657684326,2.5071287155151367
37,19175,19174,0.023333825170993805,0.044003188610076904,0.9197397828102112,-8.2872953414917,-1.7056434154510498,-2.3414266109466553,1.992974042892456,3.9643802642822266,0.2335052341222763,1.3852771520614624,0.2888980805873871,2.4746477603912354
38,19185,19184,0.015898650512099266,0.09847596287727356,1.0079017877578735,-8.615572929382324,2.894317388534546,-1.3479115962982178,1.994546890258789,3.9629135131835938,0.23607291281223297,1.4797542095184326,0.19774480164051056,2.462440013885498
39,19195,19194,0.008102759718894958,0.1036812961101532,1.036044955253601,-7.485964298248291,5.338577747344971,-1.6003249883651733,1.993303894996643,3.9626855850219727,0.23810957372188568,1.4919445514678955,0.10646390914916992,2.4536805152893066
40,19205,19204,0.007290083449333906,-0.017872489988803864,0.9650769829750061,-6.182774543762207,6.544060707092285,-1.5180027484893799,1.9937688112258911,3.963202953338623,0.24032114446163177,1.4548627138137817,-0.040565263479948044,2.448899030685425
41,19215,19214,-0.0049553243443369865,0.027442844584584236,0.9356059432029724,-3.815413475036621,4.897434711456299,-1.198380947113037,1.997258186340332,3.9637017250061035,0.2426896095275879,1.0391788482666016,-0.14871831238269806,2.410534381866455
42,19225,19224,-0.015798410400748253,0.038614992052316666,0.9977011680603027,-1.1952733993530273,3.281353712081909,-0.9439963102340698,1.9955153465270996,3.9671547412872314,0.24495545029640198,1.1830506324768066,-0.21789400279521942,2.417482852935791
43,19235,19234,-0.02263479493558407,0.08057611435651779,0.902228057384491,1.7726129293441772,-2.4124414920806885,-0.35289904475212097,1.9970651865005493,3.9673659801483154,0.24693308770656586,1.0621131658554077,-0.24033783376216888,2.4040257930755615
44,19245,19244,0.0011620575096458197,-0.005877875257283449,0.9597865343093872,3.3931450843811035,-4.464510917663574,-0.4543236196041107,1.9941967725753784,3.9655416011810303,0.24918371438980103,1.3797430992126465,0.06737866252660751,2.370025396347046
45,19255,19254,-0.07357750833034515,0.039271652698516846,1.0150444507598877,3.946437120437622,-6.009316444396973,-0.25152331590652466,1.991626501083374,3.9670166969299316,0.25131332874298096,1.502550721168518,-0.12354813516139984,2.4075984954833984
46,19265,19264,-0.06097631901502609,-0.012478714808821678,0.9864691495895386,1.2039085626602173,-4.020582675933838,-0.5891180038452148,1.9915781021118164,3.9668030738830566,0.253356009721756,1.49229097366333,-0.07484299689531326,2.400416135787964
47,19275,19274,-0.06753206253051758,0.02269371785223484,0.9976675510406494,-0.9983779788017273,1.526644229888916,-0.6009517312049866,1.9906353950500488,3.9670252799987793,0.2555086016654968,1.3741567134857178,-0.0671519786119461,2.390018939971924
48,19285,19284,0.07165703177452087,-0.14747890830039978,0.9446145296096802,-3.4341540336608887,4.963968276977539,0.028932688757777214,1.9907522201538086,3.9664466381073,0.25803041458129883,1.3764737844467163,-0.03171980008482933,2.3774142265319824
49,19295,19294,0.019356299191713333,-0.07780188322067261,0.9876777529716492,-5.328762054443359,6.709331035614014,-0.35579776763916016,1.9886225461959839,3.9682326316833496,0.2600882351398468,1.3392667770385742,-0.10774592310190201,2.386697292327881
50,19305,19304,-0.00534035125747323,-0.013206676580011845,0.9362571835517883,-5.85645866394043,7.8416876792907715,-0.5401137471199036,1.9888967275619507,3.9680752754211426,0.26206254959106445,1.314721941947937,-0.13826657831668854,2.379171371459961
51,19315,19314,0.019504625350236893,-0.027721725404262543,0.9110845327377319,-5.378625869750977,7.766535758972168,-0.7991865277290344,1.9922758340835571,3.964766263961792,0.2625961899757385,1.1237258911132812,-0.17878927290439606,2.3666415214538574
52,19325,19324,-0.00506639713421464,0.009092118591070175,0.9619097709655762,-4.13339376449585,6.630220413208008,-0.9144508838653564,1.9925830364227295,3.9644691944122314,0.26442503929138184,1.1565958261489868,-0.21340008080005646,2.355314254760742
53,19335,19334,0.024284735321998596,0.003524759551510215,0.9452927708625793,-3.856123924255371,5.228119850158691,-0.7871801853179932,1.994465708732605,3.9637789726257324,0.266153484582901,1.0541757345199585,-0.2328648567199707,2.3415422439575195
54,19345,19344,-0.0035410504788160324,0.03596001863479614,1.017800211906433,-3.2826497554779053,2.289132833480835,-0.6606538891792297,1.9949736595153809,3.9651334285736084,0.26506751775741577,1.002880573272705,-0.3165615200996399,2.3422157764434814
55,19355,19354,0.010391607880592346,0.036598090082407,0.9770854115486145,-1.6878972053527832,0.4212701916694641,-0.11880670487880707,1.9969431161880493,3.9628336429595947,0.26664769649505615,1.0708922147750854,-0.3099488615989685,2.3293254375457764
56,19365,19364,0.008876101113855839,0.11914659291505814,1.0072314739227295,-0.9636099934577942,0.7211079001426697,-0.5938082337379456,1.9987273216247559,3.9602530002593994,0.26818540692329407,1.0758156776428223,-0.3577437996864319,2.331230878829956
57,19375,19374,-0.00973496399819851,0.19972272217273712,0.9885112047195435,0.9177101850509644,2.6347603797912598,-0.46258750557899475,1.9990752935409546,3.959390878677368,0.26968109607696533,1.0547648668289185,-0.3870322108268738,2.3280906677246094
58,19385,19384,0.04611620679497719,0.11629108339548111,0.8415811061859131,1.5279289484024048,5.368278980255127,-0.4564918577671051,1.9987605810165405,3.9576923847198486,0.26835817098617554,0.9854693412780762,-0.3126474618911743,2.3118045330047607
59,19395,19394,0.08274915814399719,0.053465478122234344,0.834867537021637,1.7260063886642456,7.053709506988525,-0.3783567249774933,1.9982397556304932,3.9571502208709717,0.2695342004299164,0.9396466612815857,-0.30840814113616943,2.3074684143066406
60,19405,19404,0.0565093494951725,0.01034227479249239,0.9314093589782715,1.6464571952819824,3.7451000213623047,0.008646068163216114,1.998213768005371,3.957131862640381,0.27055642008781433,0.8646510243415833,-0.30509379506111145,2.304882526397705
61,19415,19414,0.024931885302066803,-0.03057253547012806,0.9213709235191345,0.8774047493934631,3.2951083183288574,-0.058004867285490036,1.997894287109375,3.953356981277466,0.2712705433368683,1.0744311809539795,-0.22401760518550873,2.28930401802063
62,19425,19424,0.0025499295443296432,-0.014882146380841732,0.9412528276443481,0.1755388081073761,4.2019782066345215,0.3089753985404968,1.9975347518920898,3.9536848068237305,0.2721453607082367,0.9753485321998596,-0.16119997203350067,2.2832815647125244
63,19435,19434,0.007829138077795506,-0.2580605149269104,0.9383758306503296,-1.49577796459198,5.803872108459473,0.8148276805877686,1.9955534934997559,3.9518182277679443,0.27275264263153076,1.1655876636505127,-0.11741665750741959,2.27424955368042
64,19445,19444,-0.010982606559991837,-0.07190926373004913,1.0161235332489014,-2.7453885078430176,11.392597198486328,0.6593906879425049,1.9952260255813599,3.9507694244384766,0.27510762214660645,1.068604588508606,-0.1783151924610138,2.2892158031463623
65,19455,19454,0.07502993196249008,0.12095404416322708,0.908043622970581,-5.146675109863281,12.43928337097168,0.08606354147195816,1.9947583675384521,3.950425624847412,0.27588263154029846,0.9633884429931641,-0.18523186445236206,2.291048526763916
66,19465,19464,0.003060035640373826,-0.009505574591457844,0.9612900018692017,-6.594079971313477,14.27916431427002,0.7905278205871582,1.9944140911102295,3.950627565383911,0.27665042877197266,0.8365731239318848,-0.30191120505332947,2.3013079166412354
67,19475,19474,-0.015612701885402203,-0.03130194544792175,0.9788550734519958,-7.6453166007995605,15.707084655761719,0.8534334301948547,1.993891954421997,3.95107364654541,0.2766128182411194,0.603840708732605,-0.28989991545677185,2.300441265106201
68,19485,19484,0.0258791483938694,-0.023633617907762527,0.9682425260543823,-7.355705738067627,15.385224342346191,1.27175772190094,1.9939748048782349,3.950533866882324,0.2772836983203888,0.36917832493782043,-0.44750288128852844,2.320167303085327
69,19495,19494,-0.012491650879383087,0.005444614216685295,0.9573825001716614,-5.32580041885376,11.297908782958984,1.6155608892440796,1.988898515701294,3.9513819217681885,0.277927428483963,0.4428468346595764,-0.5130834579467773,2.323899745941162
70,19505,19504,-0.0007953500607982278,0.08066289126873016,0.9809702038764954,-2.8182930946350098,9.386857986450195,1.7381302118301392,1.9901373386383057,3.9515461921691895,0.27855536341667175,0.26309800148010254,-0.61562180519104,2.3464818000793457
71,19515,19514,0.013827589340507984,-0.06252331286668777,0.9532203674316406,0.3590855002403259,9.654027938842773,1.575652837753296,1.9859994649887085,3.9516000747680664,0.2810344398021698,0.26305079460144043,-0.6747518181800842,2.3636438846588135
72,19525,19524,0.003933296538889408,0.0001667677133809775,0.9993813633918762,2.884321451187134,8.722606658935547,1.7404567003250122,1.985081434249878,3.9523587226867676,0.28175485134124756,0.0979142040014267,-0.5993514060974121,2.3753859996795654
73,19535,19534,-0.013751830905675888,0.0003498313599266112,1.018344759941101,3.566232204437256,7.906340599060059,1.719163417816162,1.984978199005127,3.95215106010437,0.2824042737483978,-0.040044669061899185,-0.5622889995574951,2.394134998321533
74,19545,19544,0.036731407046318054,-0.029566554352641106,0.9517869353294373,3.9659669399261475,7.63258171081543,1.4789903163909912,1.9828053712844849,3.9506494998931885,0.283727765083313,-0.09088427573442459,-0.5169154405593872,2.408299684524536
75,19555,19554,-0.030140843242406845,0.022240659222006798,1.031812071800232,3.5884523391723633,6.141329765319824,1.67238187789917,1.9823541641235352,3.9497270584106445,0.28447434306144714,-0.21659962832927704,-0.46503058075904846,2.424978494644165
76,19565,19564,0.01439196802675724,-0.013348347507417202,1.0301276445388794,2.997488021850586,5.868734836578369,1.5617612600326538,1.9784088134765625,3.951533079147339,0.2852220833301544,-0.2156088799238205,-0.4992980659008026,2.439253568649292
77,19575,19574,-0.0009677093476057053,0.012409639544785023,1.0120103359222412,1.9576908349990845,6.8244805335998535,1.349717140197754,1.9766756296157837,3.9540975093841553,0.283573716878891,-0.1620360016822815,-0.45607703924179077,2.4491539001464844
78,19585,19584,-0.026410114020109177,-0.033302854746580124,0.9462563991546631,0.8070812225341797,7.678422451019287,1.7324910163879395,1.9776893854141235,3.952883005142212,0.2842104732990265,-0.36492273211479187,-0.432405561208725,2.4696614742279053
79,19595,19594,-0.021351071074604988,0.0178549662232399,1.0140659809112549,-0.006216360721737146,6.613340377807617,2.1297879219055176,1.9776991605758667,3.9515645503997803,0.28476351499557495,-0.4876958727836609,-0.4290764331817627,2.4887542724609375
80,19605,19604,0.058921974152326584,-0.17181557416915894,0.9682565331459045,-0.32381904125213623,7.685397148132324,1.5891927480697632,1.9775395393371582,3.9510891437530518,0.2853130102157593,-0.5689578652381897,-0.43633124232292175,2.5100810527801514
81,19615,19614,-0.047054510563611984,0.005548772402107716,1.0550734996795654,-0.03880900517106056,6.022614002227783,1.654005527496338,1.976050853729248,3.9507250785827637,0.28468796610832214,-0.5279573798179626,-0.44578537344932556,2.5191256999969482
82,19625,19624,-0.006582156755030155,-0.0755251869559288,0.9517450928688049,-0.37788328528404236,6.586379051208496,1.7607698440551758,1.9765032529830933,3.950465202331543,0.28520920872688293,-0.7054317593574524,-0.4440571069717407,2.540834665298462
83,19635,19634,0.03988366201519966,-0.05750061199069023,0.9398233294487,-0.23966455459594727,3.416762590408325,2.064011812210083,1.975615382194519,3.9504647254943848,0.2856374979019165,-0.7346161603927612,-0.4509519636631012,2.5555331707000732
84,19645,19644,-0.040018316358327866,0.03493226692080498,0.9197551012039185,0.30029943585395813,0.4696177840232849,2.44537091255188,1.9753668308258057,3.9523098468780518,0.28509286046028137,-0.8370941281318665,-0.45572662353515625,2.5785610675811768
85,19655,19654,-0.023892903700470924,-0.02163579873740673,1.016167163848877,1.244454026222229,-1.0986778736114502,2.6739938259124756,1.9736697673797607,3.952087640762329,0.2853734493255615,-0.7240819334983826,-0.4509026110172272,2.600954294204712
86,19665,19664,0.00736562954261899,-0.0008107814937829971,0.9717044830322266,2.024744749069214,-1.2234841585159302,2.3467257022857666,1.9732831716537476,3.952820062637329,0.28566858172416687,-0.7824704051017761,-0.41776716709136963,2.6306445598602295
87,19675,19674,0.009354392066597939,-0.029424995183944702,0.9736254215240479,2.6508121490478516,-1.2500392198562622,2.011075735092163,1.9736921787261963,3.952120304107666,0.28465136885643005,-0.806416928768158,-0.38018766045570374,2.660003900527954
88,19685,19684,0.010311448015272617,0.025293290615081787,1.0581892728805542,2.8044655323028564,-1.0683597326278687,2.3240416049957275,1.972688913345337,3.9518396854400635,0.2848333418369293,-0.8330369591712952,-0.32816553115844727,2.686668634414673
89,19695,19694,0.03546365350484848,0.016555508598685265,1.0638357400894165,2.8165574073791504,-0.7823379039764404,2.4009387493133545,1.971244215965271,3.9512078762054443,0.2850305438041687,-0.7571091651916504,-0.36351290345191956,2.699936866760254
90,19705,19704,-0.03162030875682831,-0.002696729963645339,1.0409278869628906,2.159607410430908,0.4060620069503784,2.750439405441284,1.971737265586853,3.9515111446380615,0.28375041484832764,-0.7984890341758728,-0.390418142080307,2.7208404541015625
91,19715,19714,0.026436330750584602,-0.015590175054967403,1.0028302669525146,2.255408763885498,0.5655635595321655,2.131615400314331,1.9711681604385376,3.9519522190093994,0.2839818000793457,-0.8416114449501038,-0.3397766649723053,2.753366708755493
92,19725,19724,0.0007626737933605909,-0.0007001503836363554,1.0521118640899658,3.907278299331665,0.43608587980270386,1.9372800588607788,1.971203088760376,3.951714515686035,0.28423380851745605,-0.7891731262207031,-0.2900331914424896,2.7773523330688477
93,19735,19734,-0.009301932528614998,-0.0006980604957789183,1.0702558755874634,5.206531047821045,-2.0384938716888428,2.109905242919922,1.970259189605713,3.952869415283203,0.28454285860061646,-0.7894636988639832,-0.28430211544036865,2.793489694595337
94,19745,19744,-0.01760922744870186,-0.0010341873858124018,0.9468755125999451,4.873295307159424,-0.4109911322593689,2.1058952808380127,1.9689667224884033,3.9511337280273438,0.2864726483821869,-0.7019875645637512,-0.17236411571502686,2.8218278884887695
95,19755,19754,-0.03170191869139671,-0.02154533751308918,0.9649950265884399,3.374494791030884,-1.8186357021331787,2.9867169857025146,1.969063401222229,3.9516148567199707,0.2868594527244568,-0.7506195902824402,-0.17217440903186798,2.840836763381958
96,19765,19764,0.04628363251686096,-0.13059353828430176,1.0657585859298706,3.261446475982666,-2.227074384689331,2.4412386417388916,1.9680033922195435,3.951601266860962,0.28723856806755066,-0.727151095867157,-0.11018450558185577,2.8754777908325195
97,19775,19774,0.008393840864300728,-0.06550301611423492,1.0147770643234253,3.415064811706543,0.5169927477836609,2.2577157020568848,1.9678577184677124,3.952134847640991,0.28577709197998047,-0.7306950092315674,-0.1247674748301506,2.8908376693725586
98,19785,19784,-0.028034470975399017,-0.03376711905002594,0.9346659779548645,2.3544507026672363,8.055213928222656,2.625267267227173,1.968125581741333,3.9526312351226807,0.2860676944255829,-0.823726236820221,-0.12254177778959274,2.9090943336486816
99,19795,19794,0.048495206981897354,-0.0848667174577713,1.0025503635406494,2.1253414154052734,11.537250518798828,3.1396772861480713,1.968887209892273,3.954158306121826,0.28628110885620117,-1.0320290327072144,-0.22940939664840698,2.91637921333313
100,19805,19804,0.04675539582967758,-0.13256371021270752,1.0911318063735962,2.5002074241638184,15.021589279174805,2.695831298828125,1.9696629047393799,3.95401930809021,0.28773826360702515,-1.238312840461731,-0.1584307849407196,2.9573724269866943
101,19815,19814,0.037310972809791565,-0.08762119710445404,0.986900269985199,3.8935112953186035,18.6171875,1.9505523443222046,1.9695217609405518,3.9537956714630127,0.288157194852829,-1.3515925407409668,-0.06449852138757706,2.9900951385498047
102,19825,19824,0.021717943251132965,-0.045047130435705185,0.9181468486785889,4.183845520019531,16.395437240600586,2.0193982124328613,1.9720162153244019,3.9519691467285156,0.28843954205513,-1.691012978553772,0.027049381285905838,3.0198721885681152
103,19835,19834,0.037943895906209946,-0.08436781913042068,1.0515722036361694,4.017789363861084,11.957097053527832,2.01894474029541,1.9709994792938232,3.95320200920105,0.288920134305954,-1.7029573917388916,-0.05520608648657799,3.0164034366607666
104,19845,19844,0.036464445292949677,-0.023546740412712097,1.032510757446289,3.3458149433135986,6.666430473327637,2.4771173000335693,1.9712474346160889,3.9525980949401855,0.2921423614025116,-1.86403489112854,0.03841228783130646,3.0530829429626465
105,19855,19854,-0.006393249146640301,0.044956695288419724,0.9245779514312744,3.893961191177368,2.140063524246216,1.9173142910003662,1.9708412885665894,3.9523229598999023,0.2928371727466583,-1.7384068965911865,-0.020357729867100716,3.0468175411224365
106,19865,19864,0.02945314534008503,0.02304813638329506,0.9830359816551208,4.061723709106445,-1.8790723085403442,2.1674344539642334,1.9720101356506348,3.952113389968872,0.29326358437538147,-1.867323398590088,0.07705963402986526,3.079516649246216
107,19875,19874,0.01018078625202179,-0.013790165074169636,1.11224365234375,4.8623576164245605,-5.501313209533691,2.497781276702881,1.970290184020996,3.9518067836761475,0.29300931096076965,-1.6798663139343262,0.10016955435276031,3.1003811359405518
108,19885,19884,0.010858417488634586,0.029850946739315987,1.0134214162826538,5.3951921463012695,-4.83523416519165,2.4359824657440186,1.971510648727417,3.951514959335327,0.29348769783973694,-1.7384041547775269,0.21175113320350647,3.1402289867401123
109,19895,19894,-0.00918370857834816,0.08191323280334473,1.0430045127868652,3.278510808944702,-2.0479393005371094,2.634133815765381,1.9710888862609863,3.9516727924346924,0.29407572746276855,-1.6616238355636597,0.2318817675113678,3.163346529006958
110,19905,19904,0.002497771754860878,0.0026694471016526222,1.0686033964157104,1.9372694492340088,-0.0860573872923851,2.7076938152313232,1.969809889793396,3.952221393585205,0.2936173975467682,-1.6310906410217285,0.2058560997247696,3.1788089275360107
111,19915,19914,-0.014393768273293972,-0.057560909539461136,0.9869651198387146,1.3657660484313965,3.3326845169067383,2.279031753540039,1.9700548648834229,3.949719190597534,0.29419347643852234,-1.7195203304290771,0.2639089822769165,3.211961030960083
112,19925,19924,-0.04300233721733093,0.09612533450126648,0.9354119300842285,-0.4048297107219696,5.856015682220459,2.020747661590576,1.9701870679855347,3.9501523971557617,0.2947908937931061,-1.7674777507781982,0.2354964315891266,3.220658779144287
113,19935,19934,-0.007048077881336212,0.010436712764203548,0.968004584312439,-0.8230021595954895,5.671036720275879,1.7305326461791992,1.9708234071731567,3.9493720531463623,0.29525935649871826,-1.9206265211105347,0.2522718906402588,3.244784355163574
114,19945,19944,-0.04181015118956566,0.002137300558388233,1.0114729404449463,0.7216606140136719,2.667475938796997,1.7401390075683594,1.9717631340026855,3.9492316246032715,0.29158347845077515,-1.9618622064590454,0.27460283041000366,3.2676541805267334
115,19955,19954,-0.07820074260234833,0.09440945088863373,1.026246428489685,0.7289978265762329,4.222652912139893,1.2011516094207764,1.972090721130371,3.948671340942383,0.2918511927127838,-1.9879416227340698,0.243038609623909,3.268496036529541
116,19965,19964,-0.0016898458125069737,0.06117575615644455,1.0405433177947998,1.6529855728149414,2.062309741973877,1.4445728063583374,1.9714759588241577,3.948306083679199,0.29226619005203247,-1.91792893409729,0.21163129806518555,3.275350332260132
117,19975,19974,0.0370517373085022,-0.07025016099214554,0.9489182829856873,3.881852388381958,-1.0099239349365234,1.4979262351989746,1.9724303483963013,3.948204278945923,0.29452815651893616,-1.9694324731826782,0.28208687901496887,3.3010101318359375
118,19985,19984,0.039196763187646866,-0.03057781793177128,0.9041483402252197,6.040189266204834,-3.9038896560668945,1.4863337278366089,1.9729079008102417,3.948441982269287,0.2949100732803345,-1.9684209823608398,0.39062169194221497,3.332089900970459
119,19995,19994,0.025841837748885155,0.04635002091526985,1.003389835357666,4.3636393547058105,-5.3702802658081055,1.2996294498443604,1.9725755453109741,3.948488712310791,0.29534074664115906,-1.8340836763381958,0.49987900257110596,3.3685989379882812
120,20005,20004,0.061379361897706985,-0.19184760749340057,0.9908342361450195,2.7572078704833984,-6.541666030883789,0.8550325036048889,1.9753391742706299,3.9485247135162354,0.2950689494609833,-1.9245924949645996,0.4148934483528137,3.335520029067993
121,20015,20014,-0.009192228317260742,-0.004724505823105574,1.0565484762191772,0.8612198829650879,-7.37595272064209,0.5380455255508423,1.9768341779708862,3.947267532348633,0.2953164875507355,-1.8938698768615723,0.4767135679721832,3.351766586303711
122,20025,20024,-0.0011703643249347806,-0.02483658492565155,0.990771472454071,-0.6613072752952576,-7.402440071105957,0.37766867876052856,1.9759082794189453,3.946881055831909,0.295688271522522,-1.7669918537139893,0.49922606348991394,3.3649141788482666
123,20035,20034,0.05961070582270622,-0.1500243991613388,0.9514299631118774,-1.8048372268676758,-7.398967266082764,0.11077916622161865,1.9758949279785156,3.948594808578491,0.29555535316467285,-1.7550867795944214,0.3327158987522125,3.3175370693206787
124,20045,20044,-0.00385706196539104,-0.08217649161815643,0.9841712713241577,-1.6278244256973267,-8.443981170654297,0.3837229311466217,1.9759111404418945,3.948322057723999,0.29595741629600525,-1.5286097526550293,0.3321986198425293,3.3353147506713867
125,20055,20054,-0.050659824162721634,0.034480102360248566,1.0451818704605103,-0.36340099573135376,-7.94067907333374,0.37033575773239136,1.9778869152069092,3.9467978477478027,0.2962492108345032,-1.4672471284866333,0.33384737372398376,3.339107036590576
126,20065,20064,0.04428314045071602,-0.03722609207034111,1.018425703048706,0.9041750431060791,-6.355570316314697,0.8288205862045288,1.9802840948104858,3.9463326930999756,0.2964222729206085,-1.5648499727249146,0.36325234174728394,3.337512969970703
127,20075,20074,0.04582391306757927,-0.10486132651567459,0.9743128418922424,2.7548468112945557,-5.725275039672852,0.09697630256414413,1.9800567626953125,3.946237802505493,0.3019299805164337,-1.36441171169281,0.41219159960746765,3.359691619873047
128,20085,20084,0.027483878657221794,0.02194419875741005,1.000283122062683,3.737689733505249,-6.8746538162231445,0.2535040080547333,1.9812124967575073,3.9460997581481934,0.3024865984916687,-1.3308236598968506,0.48164838552474976,3.368661403656006
129,20095,20094,0.023172445595264435,-0.0009231676231138408,0.9926861524581909,3.5631561279296875,-6.937569618225098,0.09853338450193405,1.9830483198165894,3.945930004119873,0.30296003818511963,-1.349645733833313,0.5591893792152405,3.372131109237671
130,20105,20104,-0.022611036896705627,-0.0008035842911340296,1.0347046852111816,1.775829553604126,-6.826244831085205,-0.2976492941379547,1.9833145141601562,3.9456865787506104,0.303560733795166,-1.2049734592437744,0.6191956400871277,3.3839683532714844
131,20115,20114,0.02878303825855255,-0.06731883436441422,0.9595161080360413,-1.0840551853179932,-7.271600723266602,-0.5520086288452148,1.9858174324035645,3.947317600250244,0.30403608083724976,-1.2899084091186523,0.4836244285106659,3.333421230316162
132,20125,20124,0.02138412371277809,-0.006092261988669634,0.9819044470787048,-2.0945539474487305,-7.602665424346924,0.3778989017009735,1.987386703491211,3.9453415870666504,0.3047846555709839,-1.1112641096115112,0.4776591658592224,3.3395650386810303
133,20135,20134,0.0034384001046419144,-0.020277081057429314,1.00239098072052,-2.631131410598755,-8.836575508117676,-0.0655755028128624,1.9877698421478271,3.9469501972198486,0.3038361668586731,-1.1791459321975708,0.47942814230918884,3.335531234741211
134,20145,20144,0.04724767804145813,-0.0987686887383461,1.007106900215149,-3.6379165649414062,-8.253314018249512,0.09765002131462097,1.98870050907135,3.9470417499542236,0.3042689263820648,-1.1118470430374146,0.41582778096199036,3.325802803039551
135,20155,20154,0.0032621510326862335,-0.056289561092853546,0.9727148413658142,-2.3554012775421143,-8.24416446685791,-0.2689029574394226,1.9878290891647339,3.9463562965393066,0.3049898147583008,-0.9162116646766663,0.48131823539733887,3.3549015522003174
136,20165,20164,-0.024297159165143967,0.013988479040563107,0.9114762544631958,-0.6692059636116028,-10.80193042755127,-0.261011004447937,1.9897021055221558,3.945422887802124,0.3054329454898834,-0.8831491470336914,0.4445822834968567,3.3459062576293945
137,20175,20174,0.03013882227241993,-0.05773073062300682,1.0177618265151978,-1.5139836072921753,-8.549049377441406,0.21731655299663544,1.992437481880188,3.9439196586608887,0.30692121386528015,-0.8249430656433105,0.4210207164287567,3.3385674953460693
138,20185,20184,0.07211733609437943,-0.09181482344865799,0.9737522006034851,-1.5373362302780151,-6.216286659240723,0.6157720685005188,1.9937223196029663,3.944608688354492,0.30733823776245117,-0.7727447152137756,0.40289270877838135,3.3375868797302246
139,20195,20194,-0.02203318290412426,0.020237375050783157,1.0721797943115234,-1.7975298166275024,-9.38617992401123,0.595463752746582,1.9954618215560913,3.9431142807006836,0.307961642742157,-0.5918760895729065,0.38551899790763855,3.351341962814331
140,20205,20204,0.003883135272189975,-0.002179343719035387,1.006664514541626,-2.0543341636657715,-5.2367448806762695,0.29613611102104187,1.9982094764709473,3.9437055587768555,0.3098467290401459,-0.6317846179008484,0.36248651146888733,3.346320867538452
141,20215,20214,-0.00174909143242985,-0.02280060201883316,0.9635766744613647,-2.6122732162475586,-5.835926055908203,0.1416616588830948,1.9986522197723389,3.9438674449920654,0.3105078637599945,-0.4808332920074463,0.3346188962459564,3.353156328201294
142,20225,20224,0.03797445446252823,-0.03813459724187851,0.98149573802948,-2.5435593128204346,-6.019561290740967,0.3152225613594055,2.00022554397583,3.943995952606201,0.3111104369163513,-0.40360555052757263,0.3015269637107849,3.3566548824310303
143,20235,20234,0.07635162025690079,-0.01058151014149189,0.8847712874412537,-2.7009081840515137,-5.649959564208984,0.07043637335300446,2.003178596496582,3.9442734718322754,0.31457167863845825,-0.505392849445343,0.2728980779647827,3.3455681800842285
144,20245,20244,0.037741001695394516,0.003004767931997776,0.9609649777412415,-2.6261579990386963,-7.624558925628662,0.14090071618556976,2.005582809448242,3.9441757202148438,0.3152971565723419,-0.43212148547172546,0.24077869951725006,3.3451802730560303
145,20255,20254,0.009458471089601517,-0.032434817403554916,0.9379814863204956,-2.0081212520599365,-9.109947204589844,0.5043248534202576,2.0051581859588623,3.9443094730377197,0.31608015298843384,-0.1757841557264328,0.20457281172275543,3.3582961559295654
146,20265,20264,-0.025086188688874245,0.03835638239979744,1.047848105430603,-1.3011521100997925,-9.862890243530273,0.08120880275964737,2.0072104930877686,3.945202350616455,0.3165668845176697,-0.13418622314929962,0.10269573330879211,3.358964443206787
147,20275,20274,0.06898743659257889,-0.017184680327773094,0.8905781507492065,0.43217161297798157,-8.287973403930664,0.05357509106397629,2.0104410648345947,3.944668769836426,0.31521084904670715,-0.24555115401744843,0.1758912205696106,3.3505067825317383
148,20285,20284,-0.046624843031167984,0.11894601583480835,0.9106902480125427,1.8637374639511108,-7.861971378326416,0.33534544706344604,2.0089938640594482,3.9437003135681152,0.3158327639102936,0.02719247154891491,0.18933460116386414,3.3618719577789307
149,20295,20294,0.004661558195948601,-0.08042144775390625,1.0171111822128296,1.6098148822784424,-6.6550493240356445,0.3801990747451782,2.0123963356018066,3.942915916442871,0.31591346859931946,-0.15189899504184723,0.2197440266609192,3.3494620323181152
150,20305,20304,-0.011430568061769009,-0.0376194529235363,1.020490288734436,1.8966891765594482,-5.6811299324035645,-0.03570012003183365,2.012491464614868,3.9441919326782227,0.31432443857192993,0.11714828759431839,0.24724960327148438,3.3685061931610107
151,20315,20314,0.003546453546732664,-0.07936788350343704,0.8559305667877197,-0.663930356502533,-4.393733501434326,0.02100541442632675,2.0159690380096436,3.9438531398773193,0.3142651319503784,0.004660038277506828,0.22337263822555542,3.359551191329956
152,20325,20324,0.06114695966243744,-0.18474481999874115,0.9522373080253601,-1.9896339178085327,-4.6962409019470215,0.6898672580718994,2.016094923019409,3.9437928199768066,0.3145996034145355,0.18622921407222748,0.22233076393604279,3.368018865585327
153,20335,20334,0.004681183025240898,-0.1913892924785614,1.074776291847229,-2.032877206802368,-4.718824863433838,0.09838705509901047,2.0165674686431885,3.9436705112457275,0.31278109550476074,0.1847243458032608,0.27173250913619995,3.367349147796631
154,20345,20344,0.07202331721782684,-0.041695017367601395,0.9583225250244141,-2.071981191635132,-2.467475175857544,-0.00811850093305111,2.0178000926971436,3.9439034461975098,0.31265372037887573,0.2527289092540741,0.23375242948532104,3.374112606048584
155,20355,20354,0.04871972277760506,-0.048458900302648544,0.8503749966621399,-3.4533472061157227,-4.821602821350098,-0.027322925627231598,2.0168581008911133,3.9451687335968018,0.3127281665802002,0.4463348090648651,0.20471331477165222,3.385282278060913
156,20365,20364,0.01857808046042919,-0.12966006994247437,0.9341441988945007,-3.042797088623047,-5.193017959594727,0.49718955159187317,2.0175907611846924,3.945451021194458,0.3125799298286438,0.53023761510849,0.11954120546579361,3.3914012908935547
157,20375,20374,0.02084006741642952,0.043694354593753815,0.9557526111602783,-1.3259721994400024,-3.0830869674682617,-0.19638608396053314,2.018880844116211,3.9464898109436035,0.312116414308548,0.5153639316558838,0.029472822323441505,3.4003334045410156
158,20385,20384,-0.0364835187792778,0.04101371392607689,1.0312573909759521,0.6823203563690186,-2.796196699142456,0.005869550630450249,2.0209410190582275,3.9456512928009033,0.3117479383945465,0.4534130096435547,0.09017520397901535,3.3876895904541016
159,20395,20394,-0.008119432255625725,-0.06587443500757217,0.9715483784675598,1.1015616655349731,-1.866493821144104,0.4115958511829376,2.022273302078247,3.94568133354187,0.3113878667354584,0.48072993755340576,0.09899994730949402,3.385190486907959
160,20405,20404,-0.00831099133938551,-0.1388818621635437,1.037497878074646,1.8638992309570312,-1.5140758752822876,0.38339054584503174,2.022747278213501,3.945726156234741,0.3138386607170105,0.5679541826248169,0.04050169885158539,3.398284912109375
161,20415,20414,0.0196266807615757,-0.004968855995684862,0.9757235646247864,2.5031518936157227,-0.9911866188049316,0.27188822627067566,2.023280620574951,3.9461820125579834,0.3137204051017761,0.628681480884552,0.07792308181524277,3.4005773067474365
162,20425,20424,0.04991855472326279,-0.06468033045530319,0.9358783960342407,2.3787360191345215,-0.8349525928497314,0.8296937942504883,2.02471661567688,3.946834087371826,0.31354376673698425,0.589314341545105,0.05636250600218773,3.4108223915100098
163,20435,20434,0.01996210776269436,-0.1298891007900238,1.0158734321594238,1.0017940998077393,-0.80474454164505,0.7147736549377441,2.0260863304138184,3.9466845989227295,0.3139338493347168,0.6296058893203735,0.10296560078859329,3.416024923324585
164,20445,20444,-0.02065049670636654,-0.044936347752809525,1.0345373153686523,1.2729002237319946,-0.7845548987388611,0.7417761087417603,2.027461290359497,3.946493625640869,0.3137955665588379,0.6720675826072693,0.12835435569286346,3.420140504837036
165,20455,20454,0.09221974015235901,-0.018178565427660942,0.9734745025634766,0.46866360306739807,-0.38091909885406494,0.8125287294387817,2.0313472747802734,3.94636607170105,0.31351539492607117,0.4834268391132355,0.15868088603019714,3.422651529312134
166,20465,20464,0.024694111198186874,-0.018433498218655586,0.9906189441680908,-0.47863346338272095,-0.13210764527320862,1.3205187320709229,2.033987522125244,3.9461658000946045,0.31454402208328247,0.4582710862159729,0.17127491533756256,3.429957628250122
167,20475,20474,0.003929818514734507,-0.08188674598932266,1.0152409076690674,-1.3571641445159912,-1.1057565212249756,1.0504847764968872,2.035475254058838,3.9461209774017334,0.3144983947277069,0.5127249956130981,0.16828887164592743,3.442359209060669
168,20485,20484,0.0031460486352443695,-0.026111746206879616,1.0014469623565674,-2.103990077972412,-2.9960410594940186,1.1419084072113037,2.0369019508361816,3.946270704269409,0.31438329815864563,0.5067000985145569,0.07699130475521088,3.4676756858825684
169,20495,20494,-0.004335502162575722,-0.041837479919195175,1.0063014030456543,-2.498206615447998,-4.252014636993408,0.8412458896636963,2.033175230026245,3.9467148780822754,0.3143351972103119,0.6022730469703674,0.054965872317552567,3.4865167140960693
170,20505,20504,-0.019945938140153885,-0.04065989330410957,0.9842050671577454,-0.9187256693840027,-3.9933254718780518,1.1159015893936157,2.0333714485168457,3.9457483291625977,0.3163570165634155,0.7632080316543579,0.028408445417881012,3.4917349815368652
171,20515,20514,0.02420906163752079,0.03659091144800186,1.0448957681655884,-0.02663768269121647,-2.283891201019287,1.1646654605865479,2.036057472229004,3.9457521438598633,0.3163582384586334,0.6908148527145386,0.025675447657704353,3.49919056892395
172,20525,20524,0.01694248802959919,0.001112049212679267,1.0259782075881958,-0.22750607132911682,-0.0051659452728927135,1.3848503828048706,2.036700963973999,3.9458060264587402,0.3164421021938324,0.7624189257621765,0.03506947681307793,3.5104258060455322
173,20535,20534,0.007583266124129295,0.009240999817848206,1.0054192543029785,-0.9407872557640076,2.370772361755371,1.1569126844406128,2.0383095741271973,3.9459352493286133,0.31981411576271057,0.7206679582595825,0.04174736514687538,3.5210962295532227
174,20545,20544,0.032518647611141205,0.10497051477432251,1.0462453365325928,-2.334951639175415,4.347880840301514,1.3085029125213623,2.0393455028533936,3.9460811614990234,0.32009902596473694,0.7014663815498352,0.03343622386455536,3.533844470977783
175,20555,20554,0.017190037295222282,0.054392892867326736,1.0401440858840942,-2.907731056213379,4.299527645111084,1.028053641319275,2.0397825241088867,3.946314573287964,0.32045307755470276,0.7180795073509216,0.001901830080896616,3.548647403717041
176,20565,20564,-0.023736372590065002,0.087563157081604,1.0001486539840698,-2.356626272201538,3.4124574661254883,1.0299409627914429,2.0401623249053955,3.9465270042419434,0.3212307095527649,0.7281587719917297,-0.035293977707624435,3.5644326210021973
177,20575,20574,0.018399804830551147,0.14248451590538025,1.0149539709091187,-1.4933032989501953,2.7929563522338867,0.42447131872177124,2.042235851287842,3.947570323944092,0.3216158449649811,0.6062219738960266,-0.06451866030693054,3.5756969451904297
178,20585,20584,0.013117769733071327,0.07647976279258728,1.0130045413970947,-0.3992437720298767,3.3841917514801025,0.5705673694610596,2.043494939804077,3.94771146774292,0.32200339436531067,0.5669807195663452,-0.08110900968313217,3.5815188884735107
179,20595,20594,-0.066023088991642,0.06911373883485794,1.0325111150741577,1.7422374486923218,1.327136754989624,0.15159180760383606,2.04443359375,3.947442054748535,0.32241514325141907,0.5263949632644653,-0.07831762731075287,3.583139657974243
180,20605,20604,0.011424560099840164,-0.0036026984453201294,0.9759920835494995,3.467362403869629,0.0031062003690749407,0.03211308643221855,2.0454795360565186,3.9473302364349365,0.32371407747268677,0.4465515613555908,-0.044317930936813354,3.5857906341552734
181,20615,20614,-0.05300888046622276,0.11896286904811859,1.0344538688659668,4.727881908416748,-1.3135967254638672,-0.8042392730712891,2.0455453395843506,3.947009325027466,0.32429832220077515,0.5337252020835876,0.019689584150910378,3.580376386642456
182,20625,20624,-0.11544814705848694,0.09984206408262253,1.0198419094085693,6.351144313812256,-2.9341466426849365,-0.5899672508239746,2.0436675548553467,3.946749210357666,0.32494649291038513,0.6389305591583252,0.10550500452518463,3.571110963821411
183,20635,20634,-0.09436396509408951,0.07004325836896896,0.9632256031036377,3.441602945327759,0.3735300302505493,0.031576693058013916,2.0445778369903564,3.9514718055725098,0.3224966526031494,0.6774913668632507,0.057049091905355453,3.6107397079467773
184,20645,20644,0.0071077062748372555,0.0815710499882698,0.9439736008644104,1.388200044631958,2.6869688034057617,-0.5477159023284912,2.044494152069092,3.9512102603912354,0.32283732295036316,0.6712804436683655,0.13077516853809357,3.6031653881073
185,20655,20654,0.0009683645912446082,0.021305521950125694,0.9591858386993408,-0.760354220867157,3.6628270149230957,-0.9445018768310547,2.0439133644104004,3.949235439300537,0.32313597202301025,0.7014780640602112,0.08419087529182434,3.5979154109954834
186,20665,20664,0.0373169481754303,-0.01424288097769022,0.9522559642791748,-2.469505786895752,3.6492204666137695,-0.9032039642333984,2.045206308364868,3.9487240314483643,0.3208697736263275,0.6932454705238342,0.08319033682346344,3.598449945449829
187,20675,20674,0.01446365937590599,-0.017446767538785934,0.9787754416465759,-2.6786625385284424,4.108696937561035,-1.5380338430404663,2.0463662147521973,3.950700044631958,0.3208748400211334,0.5425916910171509,-0.01937014050781727,3.6026804447174072
188,20685,20684,0.06345627456903458,-0.05526164546608925,0.9280862808227539,-2.0093791484832764,6.431597709655762,-1.4258462190628052,2.0470235347747803,3.9527952671051025,0.320880264043808,0.46962741017341614,-0.03764902055263519,3.607395887374878
189,20695,20694,-0.017351210117340088,-0.004480471834540367,0.9912846684455872,-0.7619258165359497,8.306222915649414,-1.4075831174850464,2.0474352836608887,3.952470064163208,0.3208451569080353,0.42911607027053833,-0.05206255987286568,3.5928914546966553
190,20705,20704,-0.013401580974459648,-0.20184862613677979,0.9662672281265259,1.2024537324905396,4.9390950202941895,-0.7963083386421204,2.047135353088379,3.9521167278289795,0.32011473178863525,0.37408629059791565,-0.047512542456388474,3.585123300552368
191,20715,20714,0.0043730903416872025,-0.07571148872375488,0.9864796996116638,2.454286575317383,5.729244709014893,-1.785078525543213,2.047956705093384,3.9513742923736572,0.319989949464798,0.3392784297466278,-0.011540842242538929,3.56752347946167
192,20725,20724,0.05062560737133026,-0.02376236766576767,0.8961284160614014,2.2793021202087402,4.84462833404541,-1.8363933563232422,2.048332452774048,3.951173782348633,0.319827675819397,0.311868816614151,0.051497042179107666,3.5343616008758545
193,20735,20734,0.003617196576669812,-0.08788008242845535,0.9644970297813416,1.5707422494888306,2.970937728881836,-1.3915793895721436,2.0480148792266846,3.9506185054779053,0.31837713718414307,0.3674810528755188,0.026222631335258484,3.524061918258667
194,20745,20744,0.08762024343013763,-0.05754300579428673,0.8667359948158264,1.0612540245056152,1.1338152885437012,-1.4383546113967896,2.0486674308776855,3.950378179550171,0.31804347038269043,0.37180742621421814,0.07369669526815414,3.5054943561553955
195,20755,20754,0.005677906330674887,0.09833473712205887,0.9716193675994873,-0.6620068550109863,0.3939671218395233,-1.3031573295593262,2.0484368801116943,3.9509758949279785,0.31762412190437317,0.42240044474601746,0.044767025858163834,3.4984896183013916
196,20765,20764,0.005969917867332697,-0.012893829494714737,0.9240631461143494,-0.8738133907318115,2.425175666809082,-1.3470903635025024,2.0498828887939453,3.9504611492156982,0.31500673294067383,0.2968054413795471,0.05923683941364288,3.4860565662384033
197,20775,20774,-0.03173337131738663,-0.05875562131404877,1.1005971431732178,0.7205601930618286,5.987130641937256,-1.0310533046722412,2.049956798553467,3.9505598545074463,0.31432536244392395,0.32351768016815186,0.057433128356933594,3.4728856086730957
198,20785,20784,0.023865344002842903,-0.02396615780889988,1.0277740955352783,3.8445563316345215,10.955757141113281,-1.0981886386871338,2.050773859024048,3.950453042984009,0.3136434555053711,0.2764238119125366,0.08744319528341293,3.459984064102173
199,20795,20794,-0.04595419764518738,0.015176013112068176,0.9167924523353577,5.116983890533447,16.09807586669922,-0.2454369217157364,2.051708459854126,3.9502058029174805,0.31433340907096863,0.13181033730506897,0.16442511975765228,3.444905996322632
200,20805,20804,-0.0176322590559721,0.01258478406816721,1.0068084001541138,3.896651268005371,15.89946174621582,0.17867286503314972,2.052778959274292,3.9514365196228027,0.31374767422676086,-0.0865681916475296,0.10438016057014465,3.453306198120117
201,20815,20814,0.019273756071925163,-0.06994962692260742,1.0056424140930176,0.7629385590553284,11.085162162780762,0.49750903248786926,2.0512232780456543,3.951083183288574,0.31337422132492065,-0.01900888979434967,0.19739551842212677,3.475855588912964
202,20825,20824,-0.004053536802530289,0.09980473667383194,1.0539445877075195,-3.9952194690704346,5.517902851104736,0.9435288310050964,2.052107095718384,3.954462766647339,0.3128359913825989,-0.1649467945098877,0.14972713589668274,3.4859097003936768
203,20835,20834,0.026139743626117706,-0.07888282090425491,1.0947331190109253,-6.919567584991455,1.7740986347198486,1.9784971475601196,2.0528476238250732,3.953728199005127,0.31384482979774475,-0.21613343060016632,0.17306172847747803,3.485415458679199
204,20845,20844,0.030058691278100014,-0.08573447912931442,1.0464143753051758,-5.760610103607178,0.42759713530540466,2.272228956222534,2.052938938140869,3.95462965965271,0.31353095173835754,-0.18570169806480408,0.0026433973107486963,3.51238751411438
205,20855,20854,0.005248083733022213,-0.08500168472528458,0.9640749096870422,-3.7496445178985596,3.1847736835479736,2.6477463245391846,2.05391788482666,3.954674005508423,0.31319281458854675,-0.2591646909713745,-0.0647427886724472,3.534480333328247
206,20865,20864,-0.01544330082833767,0.006354382261633873,1.0289177894592285,-0.6084750294685364,4.924929141998291,3.1967740058898926,2.0523970127105713,3.9538888931274414,0.31483447551727295,-0.20277102291584015,-0.0213859174400568,3.5542383193969727
207,20875,20874,-0.029233936220407486,0.026564642786979675,1.06094229221344,3.1067492961883545,10.510480880737305,4.107703685760498,2.0534873008728027,3.9546759128570557,0.31462255120277405,-0.3336292505264282,-0.08995631337165833,3.585833787918091
208,20885,20884,-0.02205163612961769,0.007671901024878025,1.0186330080032349,5.157370090484619,14.139822006225586,4.911266326904297,2.054650068283081,3.9544384479522705,0.31448227167129517,-0.46430519223213196,-0.017413247376680374,3.6240649223327637
209,20895,20894,0.01059865951538086,-0.05498698353767395,0.9520915746688843,4.183652400970459,14.75558090209961,6.272354602813721,2.0553336143493652,3.9550769329071045,0.31326884031295776,-0.5687420964241028,0.011827632784843445,3.6741857528686523
210,20905,20904,-0.032281361520290375,0.07283630967140198,0.9286442399024963,-0.9194245338439941,10.198628425598145,5.208768844604492,2.0555431842803955,3.9559948444366455,0.31313684582710266,-0.7041866779327393,0.10965961962938309,3.7429404258728027
211,20915,20914,-0.0318249836564064,0.003926035016775131,0.9953444004058838,-7.0364556312561035,4.29095983505249,3.5633883476257324,2.0568010807037354,3.9557743072509766,0.3129225969314575,-0.8327383995056152,0.11586521565914154,3.796405076980591
212,20925,20924,-0.035109613090753555,0.10788974910974503,1.09874427318573,-11.38110065460205,-0.0542222261428833,2.628319501876831,2.0562021732330322,3.956357717514038,0.31279122829437256,-0.7631919384002686,0.026014864444732666,3.833976984024048
213,20935,20934,-0.0869729220867157,0.10428070276975632,1.0090397596359253,-13.560592651367188,-3.81366229057312,1.931161642074585,2.0580780506134033,3.9565622806549072,0.3151421844959259,-0.8006846904754639,-0.13507282733917236,3.853217601776123
214,20945,20944,0.007208895403891802,0.032069843262434006,1.0837650299072266,-10.169657707214355,-7.074148654937744,0.33768051862716675,2.0590782165527344,3.9575717449188232,0.3150637149810791,-0.8479605317115784,-0.34108710289001465,3.872252941131592
215,20955,20954,0.010258647613227367,-0.028103208169341087,1.0051101446151733,-3.617032051086426,-8.715163230895996,-1.5958316326141357,2.0580832958221436,3.9581356048583984,0.31523600220680237,-0.59635990858078,-0.48788413405418396,3.879685163497925
216,20965,20964,-0.0035456756595522165,-0.027736542746424675,1.0010210275650024,5.041830539703369,-7.657453536987305,-3.356255531311035,2.058204412460327,3.958329200744629,0.3159424364566803,-0.4916018843650818,-0.5262684226036072,3.8726377487182617
217,20975,20974,0.0539884977042675,0.019864792004227638,0.976356029510498,13.209749221801758,-5.1511359214782715,-5.118763446807861,2.059326171875,3.9604244232177734,0.31611448526382446,-0.4857417941093445,-0.49763742089271545,3.8667593002319336
218,20985,20984,0.013749216683208942,-0.05713155120611191,1.0605884790420532,12.332582473754883,1.3249831199645996,-6.865540504455566,2.059985637664795,3.959740161895752,0.31632259488105774,-0.4547272324562073,-0.2660146653652191,3.8327672481536865
219,20995,20994,0.0032630956266075373,-0.04760446026921272,1.007652759552002,7.192390441894531,4.840230464935303,-8.252365112304688,2.0609381198883057,3.9593029022216797,0.3152882754802704,-0.5120157599449158,-0.1971316933631897,3.7547922134399414
220,21005,21004,0.020937100052833557,-0.04683607444167137,0.8877830505371094,0.03939080238342285,7.944683074951172,-8.450902938842773,2.061471700668335,3.960374593734741,0.3153877258300781,-0.5669029951095581,-0.19230040907859802,3.6688244342803955
221,21015,21014,0.0730760395526886,-0.13188990950584412,0.9974886178970337,-3.7108592987060547,10.091906547546387,-8.263579368591309,2.062147378921509,3.9606306552886963,0.31546130776405334,-0.6782306432723999,-0.14929334819316864,3.585603713989258
222,21025,21024,0.006131662521511316,0.019289612770080566,0.9434174299240112,-2.4515011310577393,12.69491195678711,-8.851814270019531,2.0620923042297363,3.9615824222564697,0.3155006766319275,-0.7210721969604492,-0.25438302755355835,3.4974474906921387
223,21035,21034,-0.052863918244838715,0.018547233194112778,0.9154964089393616,1.7661066055297852,9.656495094299316,-8.754700660705566,2.0626161098480225,3.9611997604370117,0.3139137923717499,-0.9004515409469604,-0.24967549741268158,3.4329910278320312
224,21045,21044,-0.006826241035014391,0.005109705030918121,1.0120497941970825,7.539205551147461,5.4225664138793945,-9.178976058959961,2.0630435943603516,3.963515520095825,0.3137899339199066,-1.0188753604888916,-0.25642096996307373,3.3429253101348877
225,21055,21054,0.004658043384552002,0.1016579195857048,1.048412561416626,13.748590469360352,2.545038938522339,-10.028136253356934,2.063321352005005,3.9643194675445557,0.3136059641838074,-1.056457757949829,-0.2405402511358261,3.2474780082702637
226,21065,21064,-0.03312686085700989,0.05756024643778801,1.066139817237854,18.681493759155273,1.4048125743865967,-12.444345474243164,2.0628318786621094,3.9647297859191895,0.31259965896606445,-1.0381686687469482,-0.11941973119974136,3.1473467350006104
227,21075,21074,-0.04702603071928024,-0.0611768402159214,1.0513945817947388,22.228443145751953,-3.029478073120117,-12.4789400100708,2.063086986541748,3.9637296199798584,0.31247198581695557,-1.0245366096496582,0.17263580858707428,3.043854236602783
228,21085,21084,-0.01698444038629532,-0.012915682047605515,1.025441288948059,21.176836013793945,-3.530634880065918,-12.1937255859375,2.0634593963623047,3.9643912315368652,0.31242695450782776,-0.9086585640907288,0.3410848081111908,2.910970449447632
229,21095,21094,0.01411114726215601,0.0195965226739645,1.0316410064697266,15.020337104797363,-3.5488944053649902,-11.44041633605957,2.066753625869751,3.964611053466797,0.31482988595962524,-1.1257418394088745,0.574458658695221,2.7928452491760254
230,21105,21104,0.00043336855014786124,-0.036083415150642395,0.984688937664032,6.97358512878418,-4.158915996551514,-11.401065826416016,2.066885471343994,3.9652514457702637,0.3150387704372406,-0.9867528676986694,0.7032850384712219,2.6666812896728516
231,21115,21114,-0.03874887153506279,0.1731555312871933,1.0517171621322632,0.45786184072494507,-4.973564147949219,-12.018523216247559,2.067633628845215,3.9651315212249756,0.3152793347835541,-0.8652548789978027,0.7168010473251343,2.5095131397247314
232,21125,21124,0.05404191091656685,0.03712281957268715,0.9283028841018677,-3.4665894508361816,-3.0601656436920166,-11.784418106079102,2.067554473876953,3.964902400970459,0.3126700520515442,-0.810772716999054,0.7731920480728149,2.4030799865722656
233,21135,21134,0.020679380744695663,0.00391022302210331,0.9766845703125,-5.086111068725586,-1.727117896080017,-11.387170791625977,2.067669630050659,3.9643921852111816,0.31265661120414734,-0.7772719264030457,0.7541567087173462,2.2876110076904297
234,21145,21144,-0.014370053075253963,-0.0045969667844474316,1.0407776832580566,-4.698095798492432,-1.280756950378418,-11.79880428314209,2.0686440467834473,3.9654171466827393,0.3125562071800232,-0.8385280966758728,0.70734041929245,2.1607918739318848
235,21155,21154,-0.0036256720777601004,0.04487025365233421,0.9751846194267273,-2.8143341541290283,-0.12034498155117035,-11.11620044708252,2.069920301437378,3.965155601501465,0.312539666891098,-0.8220529556274414,0.5870018601417542,2.047813653945923
236,21165,21164,0.012572170235216618,-0.030500337481498718,0.9908943176269531,-1.7668722867965698,-0.5371888279914856,-11.405309677124023,2.070842981338501,3.9656808376312256,0.311286062002182,-0.8277028203010559,0.5815951824188232,1.93943190574646
237,21175,21174,-0.024662237614393234,0.009905443526804447,1.0264593362808228,0.2985815405845642,-1.8375688791275024,-11.256505012512207,2.071016550064087,3.9653031826019287,0.31122297048568726,-0.7428244948387146,0.5921057462692261,1.8354523181915283
238,21185,21184,0.020906109362840652,-0.009171253070235252,1.0153239965438843,2.860625982284546,-1.9179956912994385,-10.857189178466797,2.071474313735962,3.9648189544677734,0.3111157715320587,-0.7218589186668396,0.6353504061698914,1.7291597127914429
239,21195,21194,-0.03922736644744873,-0.00020429999858606607,1.0433313846588135,3.8225886821746826,-1.1617069244384766,-10.679546356201172,2.071967601776123,3.9663641452789307,0.3127119541168213,-0.7039218544960022,0.5568967461585999,1.6125043630599976
