,timestamp_start,timestamp_end,acc.x,acc.y,acc.z,gyro.x,gyro.y,gyro.z,stateEstimate.x,stateEstimate.y,stateEstimate.z,stabilizer.pitch,stabilizer.roll,stabilizer.yaw
0,68913,68911,0.001899799332022667,-0.051084186881780624,1.003020167350769,-0.962883472442627,-43.844146728515625,1.325888991355896,2.0124051570892334,4.052493095397949,0.18886125087738037,-0.746365487575531,0.054118089377880096,3.7146925926208496
1,68923,68921,0.02055426687002182,0.04452568292617798,0.910169780254364,-9.67184066772461,-38.91592025756836,1.7590819597244263,2.013936996459961,4.058616638183594,0.19121859967708588,-0.42644962668418884,-0.15017566084861755,3.687023401260376
2,68933,68931,0.0010420355247333646,0.023665901273489,0.9781960248947144,-14.382282257080078,-27.332406997680664,2.1116280555725098,2.015111207962036,4.059565544128418,0.1887761652469635,-0.035395655781030655,-0.3698885142803192,3.680405378341675
3,68943,68941,0.028011970221996307,-0.001748042181134224,0.9782599210739136,-14.33137035369873,-19.098594665527344,2.908015489578247,2.014080286026001,4.062904357910156,0.19069913029670715,0.30191752314567566,-0.6203802824020386,3.6873996257781982
4,68953,68951,-0.048698652535676956,0.11529972404241562,1.0114235877990723,-9.436302185058594,-9.745786666870117,3.6432769298553467,2.015293836593628,4.063544750213623,0.19246777892112732,0.4804297685623169,-0.8225627541542053,3.709057092666626
5,68963,68961,-0.01759454421699047,-0.07758047431707382,1.0096255540847778,-1.447414517402649,-4.681430816650391,3.978464365005493,2.016029119491577,4.063911437988281,0.1917770653963089,0.5460577607154846,-0.7594934701919556,3.7644219398498535
6,68973,68971,-0.007674770895391703,-0.12445992976427078,1.011170744895935,7.599049091339111,-4.527125835418701,3.313490152359009,2.0152428150177,4.0666327476501465,0.19363819062709808,0.6829741597175598,-0.7246175408363342,3.8082656860351562
7,68983,68981,-0.022314580157399178,-0.0289600882679224,0.966385006904602,12.325161933898926,-0.45524272322654724,3.4428927898406982,2.015625238418579,4.068728923797607,0.19537067413330078,0.6910196542739868,-0.6359190940856934,3.8425185680389404
8,68993,68991,-0.0223251860588789,0.014835567213594913,1.0156660079956055,12.467342376708984,-2.571726083755493,3.336029529571533,2.016479015350342,4.071049213409424,0.1971910297870636,0.8358338475227356,-0.49976423382759094,3.8808960914611816
9,69003,69001,-0.00145902659278363,-0.03390279412269592,1.0052423477172852,10.697708129882812,-6.948413372039795,3.171619415283203,2.017172336578369,4.07076358795166,0.1974991410970688,0.7162035703659058,-0.3729269802570343,3.917768955230713
10,69013,69011,0.0063978987745940685,-0.01562786102294922,1.0127251148223877,7.505712985992432,-10.33388900756836,3.1465165615081787,2.016265630722046,4.067936420440674,0.1992053985595703,0.8997496366500854,-0.21635760366916656,3.9458389282226562
11,69023,69021,-0.0093302670866251,0.03548414260149002,1.0824835300445557,1.7685394287109375,-11.57321834564209,3.409594774246216,2.0153427124023438,4.072027206420898,0.2009393274784088,1.0465980768203735,-0.21057675778865814,3.9785666465759277
12,69033,69031,0.014272602275013924,-0.05015253275632858,1.0154021978378296,-1.447733998298645,-10.201834678649902,2.4371392726898193,2.0138015747070312,4.072815418243408,0.20128880441188812,1.25942862033844,-0.27261701226234436,4.016170024871826
13,69043,69041,-0.024325983598828316,-0.0038643754087388515,1.0380076169967651,-3.3661623001098633,-7.943389892578125,2.0567705631256104,2.015207529067993,4.0728654861450195,0.20307213068008423,1.208283543586731,-0.29390749335289,4.0411505699157715
14,69053,69051,-0.00037272358895279467,0.05268245190382004,1.0079381465911865,-2.186267852783203,-4.210551738739014,1.8022788763046265,2.015049695968628,4.075881004333496,0.20476752519607544,1.3478057384490967,-0.47056207060813904,4.075859069824219
15,69063,69061,-0.003948835656046867,0.06489996612071991,1.0174731016159058,0.267278790473938,-1.1333235502243042,1.7128674983978271,2.015178918838501,4.07602596282959,0.20571444928646088,1.4819327592849731,-0.38328611850738525,4.081099510192871
16,69073,69071,0.022072626277804375,-0.04036717489361763,0.9904139637947083,3.311702251434326,1.5894094705581665,1.1666436195373535,2.0129878520965576,4.078751564025879,0.2074282318353653,1.6317864656448364,-0.3375590741634369,4.091932773590088
17,69083,69081,0.017339549958705902,0.006621317472308874,1.0196818113327026,6.506466388702393,3.333857536315918,1.141063928604126,2.0136351585388184,4.07634973526001,0.2092689722776413,1.49811851978302,-0.244797945022583,4.094959735870361
18,69093,69091,0.025842338800430298,0.0313081257045269,1.0300456285476685,5.954505920410156,6.300398826599121,0.2759731113910675,2.013369083404541,4.077381134033203,0.21101178228855133,1.4775091409683228,-0.1987893283367157,4.10887336730957
19,69103,69101,0.020543837919831276,-0.04669119417667389,0.9792811274528503,3.939610481262207,6.655001640319824,-0.45278656482696533,2.010181427001953,4.075150966644287,0.2126619964838028,1.790835976600647,-0.09795603156089783,4.103394031524658
20,69113,69111,0.000631543982308358,-0.013588414527475834,1.0068402290344238,2.509263515472412,5.759154796600342,-0.4086557626724243,2.009324789047241,4.075475215911865,0.214249387383461,1.8310060501098633,-0.10290246456861496,4.10894775390625
21,69123,69121,0.021223777905106544,-0.012071050703525543,1.0047638416290283,-0.7088463306427002,7.050573825836182,-1.2909950017929077,2.00962233543396,4.075498580932617,0.21615180373191833,1.703505277633667,-0.06991904973983765,4.0993194580078125
22,69133,69131,-0.009515805169939995,-0.024261940270662308,1.0097378492355347,-2.7281980514526367,8.107927322387695,-2.8166534900665283,2.011227607727051,4.063974857330322,0.21646413207054138,1.4856559038162231,1.509403109550476,3.7225306034088135
23,69143,69141,-0.04163473844528198,0.01798398792743683,0.9829891324043274,-4.854714393615723,9.114981651306152,-0.9705407023429871,2.011434555053711,4.064155101776123,0.21954227983951569,1.3581455945968628,1.2529488801956177,3.7456772327423096
24,69153,69151,-0.09196899086236954,0.1287277340888977,0.9741381406784058,-10.303196907043457,13.277464866638184,-0.24246780574321747,2.011641263961792,4.063800811767578,0.2223978489637375,1.17267644405365,0.9842156767845154,3.782538414001465
25,69163,69161,-0.004314496647566557,0.13153070211410522,0.9576961994171143,-21.182209014892578,13.446794509887695,-0.7417424321174622,2.0123484134674072,4.064154148101807,0.22448395192623138,0.9422911405563354,0.6799822449684143,3.8115220069885254
26,69173,69171,0.012641992419958115,0.02293839119374752,1.0020872354507446,-29.2966365814209,8.755162239074707,-2.252903699874878,2.0115933418273926,4.0646796226501465,0.22644470632076263,0.9179596304893494,0.36796435713768005,3.8277201652526855
27,69183,69181,-0.06520072370767593,0.05019731819629669,0.9802643060684204,-33.52338790893555,2.756270170211792,-3.2640655040740967,2.011547803878784,4.065553188323975,0.22855910658836365,0.8150468468666077,-0.18852515518665314,3.8462026119232178
28,69193,69191,-0.0052187382243573666,0.013350773602724075,0.9463939070701599,-32.303680419921875,-1.1467792987823486,-3.7939701080322266,2.0103704929351807,4.066127300262451,0.2303638756275177,0.94272381067276,-0.6836852431297302,3.8560330867767334
29,69203,69201,-0.024634771049022675,-0.0012078526197001338,1.0809108018875122,-24.37621307373047,-7.459480285644531,-2.892310619354248,2.010124683380127,4.0652642250061035,0.22981591522693634,0.9875276684761047,-0.9321650862693787,3.812281847000122
30,69213,69211,0.04029717668890953,-0.14899420738220215,1.0432069301605225,-10.83422565460205,-3.280811071395874,-3.730032205581665,2.0085344314575195,4.063331604003906,0.23140010237693787,1.0668386220932007,-1.2331641912460327,3.793672561645508
31,69223,69221,-0.029788751155138016,-0.012136289849877357,1.0441367626190186,1.0006837844848633,2.861689567565918,-3.9156882762908936,2.007986545562744,4.065179347991943,0.23305514454841614,1.0570429563522339,-1.3795872926712036,3.7659788131713867
32,69233,69231,0.005693426821380854,-0.02719096653163433,0.9440039992332458,8.700082778930664,7.506742000579834,-3.5502402782440186,2.0099785327911377,4.068241119384766,0.2344529628753662,0.7308289408683777,-1.7849664688110352,3.791102647781372
33,69243,69241,0.008196527138352394,-0.01732097752392292,0.9768368005752563,13.262162208557129,10.792745590209961,-3.7434656620025635,2.009472608566284,4.065178871154785,0.23717114329338074,0.7412322163581848,-1.2903262376785278,3.6939308643341064
34,69253,69251,0.01673448458313942,-0.07527376711368561,1.0446733236312866,15.7783203125,8.841837882995605,-3.419109582901001,2.008162260055542,4.061478614807129,0.23892179131507874,0.6525230407714844,-1.0740059614181519,3.644977569580078
35,69263,69261,0.07066020369529724,-0.10756528377532959,0.9720666408538818,12.922956466674805,9.202399253845215,-3.729304790496826,2.008497714996338,4.063788890838623,0.23993055522441864,0.4977324604988098,-1.2219810485839844,3.6500158309936523
36,69273,69271,0.004180401563644409,-0.05382809042930603,1.016178011894226,5.796814441680908,8.517027854919434,-4.874644756317139,2.012194871902466,4.069901943206787,0.24099518358707428,-0.040821243077516556,-1.5517206192016602,3.690011978149414
37,69283,69281,0.028520366176962852,0.012492689304053783,0.9377875328063965,2.5177221298217773,2.876107692718506,-5.155587196350098,2.010035276412964,4.066794395446777,0.24329344928264618,0.06983239948749542,-1.4154702425003052,3.615064859390259
38,69293,69291,0.051713742315769196,0.010881692171096802,0.9010132551193237,3.1684539318084717,-2.5173888206481934,-4.664087295532227,2.0097615718841553,4.069858551025391,0.2447012960910797,0.10740985721349716,-1.5298666954040527,3.5689592361450195
39,69303,69301,0.03826577588915825,-0.10741233080625534,1.0380752086639404,7.98016357421875,-6.53217887878418,-4.186511993408203,2.0083072185516357,4.067451000213623,0.24902184307575226,0.19964376091957092,-1.4504832029342651,3.5160226821899414
40,69313,69311,0.03406683728098869,-0.16581487655639648,0.992719292640686,15.844924926757812,-10.151902198791504,-3.9369499683380127,2.009021520614624,4.0720977783203125,0.2495926320552826,0.0638170838356018,-1.9102789163589478,3.522017002105713
41,69323,69321,-0.003603653283789754,-0.06873177736997604,0.9873103499412537,22.332178115844727,-10.764504432678223,-3.9816696643829346,2.007072925567627,4.0698747634887695,0.2525566816329956,0.2813858687877655,-1.4524121284484863,3.4620773792266846
42,69333,69331,0.05723080039024353,-0.02335565723478794,0.9538767337799072,31.271482467651367,-11.63191032409668,-3.6594300270080566,2.0057950019836426,4.067136287689209,0.25380656123161316,0.34647947549819946,-1.1166146993637085,3.42130184173584
43,69343,69341,0.016391264274716377,0.03962845355272293,0.9692628383636475,33.431400299072266,-7.959019660949707,-3.4643712043762207,2.0054333209991455,4.068545341491699,0.2555619478225708,0.5503907799720764,-0.7572004199028015,3.373525857925415
44,69353,69351,0.03603748232126236,0.1350325495004654,0.9713401198387146,30.564754486083984,-4.515583038330078,-3.3771064281463623,2.0029497146606445,4.065460681915283,0.2571924924850464,0.6787964105606079,-0.3998492360115051,3.332388162612915
45,69363,69361,0.020657643675804138,0.05227462574839592,0.9648444652557373,24.15558624267578,-3.3930912017822266,-3.007385492324829,2.0028655529022217,4.065905570983887,0.26049020886421204,0.6913658380508423,-0.049869321286678314,3.2999491691589355
46,69373,69371,0.027577193453907967,-0.0469876267015934,0.9482128024101257,15.077264785766602,0.19358259439468384,-3.737175226211548,2.0012917518615723,4.064992904663086,0.26208704710006714,0.7321377396583557,0.015059052035212517,3.268054246902466
47,69383,69381,0.015205399133265018,-0.03687649220228195,0.9360589981079102,7.116674423217773,2.6313319206237793,-4.373650074005127,2.0009422302246094,4.064626693725586,0.2637639045715332,0.7196065187454224,0.2478429526090622,3.2247281074523926
48,69393,69391,0.049766656011343,-0.023657748475670815,0.9161018133163452,2.4247071743011475,7.5707316398620605,-5.022407531738281,1.9990968704223633,4.064267635345459,0.2659059762954712,0.7916472554206848,0.35853374004364014,3.171189308166504
49,69403,69401,-0.012836715206503868,0.01869635097682476,0.9793397188186646,3.1277849674224854,3.4575846195220947,-4.466190338134766,1.9999988079071045,4.065189361572266,0.2674863040447235,0.6694448590278625,0.35473304986953735,3.1286163330078125
50,69413,69411,0.0597708560526371,-0.07121746987104416,0.9473024606704712,3.363386392593384,7.2875285148620605,-3.766800880432129,1.9984982013702393,4.066451549530029,0.2690078318119049,0.7267070412635803,0.43115097284317017,3.0819005966186523
51,69423,69421,0.023805100470781326,-0.04822668060660362,1.0286709070205688,7.123132705688477,3.4393744468688965,-3.7369494438171387,1.9979249238967896,4.063904762268066,0.27050140500068665,0.7167142033576965,0.609821081161499,3.0370380878448486
52,69433,69431,0.03569299355149269,-0.09931051731109619,0.9656790494918823,10.188362121582031,1.9936598539352417,-3.3097198009490967,1.99766206741333,4.0655341148376465,0.2739478349685669,0.6555531024932861,0.611443817615509,3.005127191543579
53,69443,69441,0.05610201507806778,-0.24973097443580627,0.9621873497962952,10.445138931274414,2.104450225830078,-3.318148612976074,1.9965038299560547,4.065049648284912,0.27552127838134766,0.602892279624939,0.7191208600997925,2.972778558731079
54,69453,69451,0.013210930861532688,-0.05216529592871666,0.9697692394256592,10.008869171142578,1.0534121990203857,-3.2917628288269043,1.996272325515747,4.062466621398926,0.27704980969429016,0.5655258297920227,0.9723326563835144,2.9321908950805664
55,69463,69461,0.03068569302558899,-0.0925864651799202,0.9312462210655212,9.281347274780273,0.5749698281288147,-3.122875452041626,1.9941086769104004,4.062637805938721,0.2784406244754791,0.6993197202682495,1.0515296459197998,2.908527135848999
56,69473,69471,0.11806894093751907,-0.023678183555603027,0.8563962578773499,6.627902984619141,1.8042030334472656,-3.1067187786102295,1.991952896118164,4.061594486236572,0.2797382175922394,0.7206851243972778,1.108365535736084,2.8813323974609375
57,69483,69481,0.08662396669387817,-0.03383480757474899,0.8781902194023132,0.81170654296875,6.341644287109375,-3.4227190017700195,1.989423394203186,4.05964469909668,0.28103411197662354,0.6345936059951782,1.1669037342071533,2.8388664722442627
58,69493,69491,0.08046477288007736,-0.04959604889154434,0.9426397681236267,-1.0577644109725952,3.910531520843506,-2.8570659160614014,1.9879884719848633,4.061005115509033,0.2828241288661957,0.6863628625869751,1.1579612493515015,2.820915937423706
59,69503,69501,0.043949998915195465,-0.05013376846909523,0.9885045886039734,-2.676572799682617,6.674429893493652,-3.548424005508423,1.9870539903640747,4.06205415725708,0.2839599549770355,0.6413145661354065,1.1869239807128906,2.7910873889923096
60,69513,69511,0.014858976937830448,-0.02547871693968773,0.9694547653198242,-3.413459300994873,9.583209991455078,-3.8068439960479736,1.9869356155395508,4.062266826629639,0.28505656123161316,0.5355768203735352,1.1838027238845825,2.751420497894287
61,69523,69521,0.011289660818874836,-0.030762365087866783,0.930999219417572,-1.8909763097763062,9.198799133300781,-3.4608750343322754,1.9857163429260254,4.060092449188232,0.2861233055591583,0.42530837655067444,1.1877224445343018,2.711719512939453
62,69533,69531,-0.018743256106972694,-0.004552806727588177,0.9567684531211853,-0.9234183430671692,8.753457069396973,-3.7844650745391846,1.9842591285705566,4.0594353675842285,0.2866469621658325,0.38580259680747986,1.2049018144607544,2.6859312057495117
63,69543,69541,-0.05298883467912674,0.05668508633971214,0.9683606028556824,0.6408300399780273,8.436019897460938,-2.833101272583008,1.9842400550842285,4.0601301193237305,0.287605881690979,0.26927241683006287,1.235381007194519,2.6473920345306396
64,69553,69551,-0.049666959792375565,0.1081930622458458,0.9290449619293213,0.3488815724849701,8.728270530700684,-2.7752017974853516,1.9828399419784546,4.059350490570068,0.28851306438446045,0.2346435785293579,1.2717241048812866,2.6297178268432617
65,69563,69561,-0.011863123625516891,0.12786930799484253,0.8688172101974487,-1.4715864658355713,6.238681793212891,-2.4777801036834717,1.9792839288711548,4.061888217926025,0.289879709482193,0.27508866786956787,1.213664174079895,2.6306209564208984
66,69573,69571,0.02064427360892296,0.11251849681138992,0.8509418964385986,-2.878776788711548,4.933318614959717,-2.790210485458374,1.9770324230194092,4.061324119567871,0.2906095087528229,0.18522025644779205,1.1293736696243286,2.6024363040924072
67,69583,69581,0.003548267064616084,0.16921502351760864,0.9127146601676941,-3.84200119972229,5.6971540451049805,-2.510031223297119,1.9762951135635376,4.061505317687988,0.2912665903568268,0.09763143956661224,1.109122395515442,2.5691442489624023
68,69593,69591,-0.051561374217271805,0.15703268349170685,1.016130805015564,-4.442007541656494,6.7861127853393555,-2.6070497035980225,1.9744478464126587,4.061102390289307,0.2956446707248688,0.0809602364897728,1.0655890703201294,2.5535507202148438
69,69603,69601,-0.018992098048329353,0.04428508132696152,0.9871958494186401,-4.079662799835205,6.625306606292725,-2.652575731277466,1.9734452962875366,4.057351112365723,0.2964754104614258,-0.08894044160842896,1.0939509868621826,2.5093507766723633
70,69613,69611,-0.0013131251325830817,-0.016419250518083572,0.9703893065452576,-4.332787036895752,8.004881858825684,-2.2344424724578857,1.9724195003509521,4.0577287673950195,0.29726842045783997,-0.10898394137620926,1.0420840978622437,2.493886947631836
71,69623,69621,-0.012771008536219597,0.01177749689668417,0.9506248235702515,-4.7857794761657715,7.73193359375,-3.0482637882232666,1.9722959995269775,4.056119441986084,0.29802581667900085,-0.2983691394329071,0.980048418045044,2.447685480117798
72,69633,69631,-0.07775679975748062,0.12274396419525146,0.9762366414070129,-5.766996383666992,6.0215020179748535,-3.257776975631714,1.9702385663986206,4.05599308013916,0.29988035559654236,-0.32183825969696045,0.9067317843437195,2.4286551475524902
73,69643,69641,-0.10799508541822433,0.17086651921272278,1.0281304121017456,-4.542749404907227,4.977231979370117,-2.6346092224121094,1.9694963693618774,4.0560302734375,0.3006514310836792,-0.38440021872520447,0.8374789357185364,2.3964614868164062
74,69653,69651,0.013003665953874588,-0.023918116465210915,0.9404820799827576,-3.0628674030303955,3.679476737976074,-2.4470198154449463,1.9671729803085327,4.054553508758545,0.3014172315597534,-0.36005574464797974,0.7877097129821777,2.3839681148529053
75,69663,69661,0.014945178292691708,0.019049642607569695,0.994353711605072,-1.904394507408142,0.7700141668319702,-2.0653533935546875,1.9676636457443237,4.055513381958008,0.3001478314399719,-0.4672122895717621,0.758156418800354,2.347583055496216
76,69673,69671,-0.05643339827656746,0.0712294727563858,1.0810297727584839,0.5865654349327087,-0.4978572726249695,-1.7559839487075806,1.9659415483474731,4.052959442138672,0.30078452825546265,-0.5103235244750977,0.758241593837738,2.3187344074249268
77,69683,69681,-0.035445138812065125,0.02430499531328678,1.0408824682235718,2.0785040855407715,-0.4684183895587921,-1.351571798324585,1.9649615287780762,4.052220344543457,0.30082836747169495,-0.5499497056007385,0.794198215007782,2.2997233867645264
78,69693,69691,-0.01771596074104309,0.046384070068597794,0.9963630437850952,0.13229507207870483,3.4050281047821045,-1.6574369668960571,1.962868571281433,4.048363208770752,0.29894647002220154,-0.6136354207992554,0.8899701833724976,2.284665584564209
79,69703,69701,0.07373923808336258,-0.036369942128658295,0.9246783256530762,-1.4329767227172852,1.1376748085021973,-1.933004379272461,1.9594179391860962,4.044152736663818,0.29943543672561646,-0.4635571241378784,0.9461751580238342,2.304527759552002
80,69713,69711,-0.010656298138201237,0.17773787677288055,0.9950332641601562,-4.944534778594971,0.42678216099739075,-2.009263515472412,1.9573463201522827,4.0447282791137695,0.299944132566452,-0.4443263113498688,0.8778412342071533,2.287194013595581
81,69723,69721,0.007177543826401234,0.2419225424528122,0.9499273300170898,-7.893491268157959,3.2544963359832764,-2.0516340732574463,1.9554229974746704,4.0435662269592285,0.3012450039386749,-0.507571816444397,0.7629439830780029,2.252493143081665
82,69733,69731,0.008753228932619095,0.13438285887241364,0.9281442761421204,-9.03164005279541,1.7039932012557983,-1.307814121246338,1.954838514328003,4.044193744659424,0.30173057317733765,-0.5780594944953918,0.6862652897834778,2.230037212371826
83,69743,69741,-0.05433574318885803,0.01326822116971016,1.0124783515930176,-9.194056510925293,2.2121543884277344,-1.2251431941986084,1.9546300172805786,4.045154094696045,0.3021128177642822,-0.5764046907424927,0.6019776463508606,2.2218143939971924
84,69753,69751,-0.02821461856365204,0.015833616256713867,1.0310693979263306,-8.051859855651855,1.0639493465423584,-1.8519963026046753,1.9542624950408936,4.043910980224609,0.3024832010269165,-0.644317626953125,0.5245620012283325,2.201220989227295
85,69763,69761,-0.031220100820064545,0.016634734347462654,0.9812063574790955,-6.34686803817749,0.5217101573944092,-1.766241431236267,1.9531890153884888,4.045894145965576,0.30006489157676697,-0.6938387751579285,0.39308229088783264,2.1722893714904785
86,69773,69771,-0.018746988847851753,0.003785734297707677,0.958379328250885,-4.207250118255615,-0.014974418096244335,-1.7703551054000854,1.9517234563827515,4.044394016265869,0.30047160387039185,-0.6296070218086243,0.5311230421066284,2.1941041946411133
87,69783,69781,-0.03270367532968521,0.08434274047613144,0.9700552225112915,-2.5760600566864014,-3.383521318435669,-1.313907504081726,1.9501800537109375,4.0443949699401855,0.3005295395851135,-0.5550504326820374,0.453851580619812,2.1781065464019775
88,69793,69791,0.004357463680207729,0.0633726641535759,0.9544002413749695,-1.715316653251648,-4.511481285095215,-0.9226875305175781,1.9498300552368164,4.044500350952148,0.2977379262447357,-0.5294645428657532,0.39679083228111267,2.1606950759887695
89,69803,69801,-0.022403445094823837,0.0893750861287117,1.0585967302322388,-3.4973809719085693,0.9026100039482117,-0.3387492299079895,1.9494764804840088,4.044320106506348,0.2976856529712677,-0.5410383939743042,0.3307282626628876,2.1445999145507812
90,69813,69811,-0.009377378970384598,0.03642357513308525,1.046022891998291,-6.261824131011963,11.677563667297363,-0.9049779772758484,1.9484915733337402,4.043001174926758,0.2976435124874115,-0.6217409372329712,0.22941555082798004,2.13128924369812
91,69823,69821,-0.016710365191102028,0.040412284433841705,1.026253581047058,-6.356381893157959,18.04779624938965,-1.7377177476882935,1.9495751857757568,4.043456077575684,0.2970817983150482,-0.9197443723678589,0.10411465167999268,2.098520040512085
92,69833,69831,-0.052248965948820114,0.17131900787353516,0.923385500907898,-7.273492813110352,24.904691696166992,-1.5844327211380005,1.9485936164855957,4.043089389801025,0.2971266508102417,-1.088067889213562,0.1348116099834442,2.102266788482666
93,69843,69841,-0.08505716919898987,0.2225930094718933,0.944542407989502,-5.4529829025268555,22.682104110717773,-1.9586737155914307,1.9490443468093872,4.042700290679932,0.2970564067363739,-1.4333795309066772,0.09188571572303772,2.0837643146514893
94,69853,69851,-0.015251644887030125,0.10719560086727142,0.9741857647895813,-2.593413829803467,15.154731750488281,-1.188481092453003,1.9488757848739624,4.043639659881592,0.29700618982315063,-1.605633020401001,0.008147474378347397,2.061725616455078
95,69863,69861,-0.020749319344758987,0.016318246722221375,1.0393065214157104,-0.703437864780426,6.544614315032959,-1.279808521270752,1.947613000869751,4.04344367980957,0.29862457513809204,-1.7097671031951904,-0.032953351736068726,2.044480085372925
96,69873,69871,-0.004292425699532032,-0.09946736693382263,1.0511085987091064,0.5298389792442322,-1.835099697113037,-0.8082975149154663,1.9461957216262817,4.043169975280762,0.298674613237381,-1.6634012460708618,0.034817781299352646,2.051030397415161
97,69883,69881,-0.009406543336808681,-0.07267332077026367,1.0392649173736572,0.9078574776649475,-3.5567452907562256,-0.9429783225059509,1.9443436861038208,4.04179573059082,0.29877346754074097,-1.4635411500930786,0.10752622038125992,2.061828374862671
98,69893,69891,-0.05399712175130844,0.0024896753020584583,1.0104973316192627,-1.460189938545227,-1.7501423358917236,-0.7691762447357178,1.943747639656067,4.04201078414917,0.29985707998275757,-1.4028371572494507,0.16259881854057312,2.0643506050109863
99,69903,69901,-0.011703966185450554,-0.020117808133363724,0.9823418855667114,-4.634604454040527,0.8571479320526123,-1.304288387298584,1.943858027458191,4.042322158813477,0.3000114858150482,-1.4117413759231567,0.07451500743627548,2.040883779525757
100,69913,69911,0.04597512260079384,-0.044548843055963516,1.0214632749557495,-6.5156426429748535,6.815062999725342,-1.0554211139678955,1.9426124095916748,4.0427703857421875,0.300187349319458,-1.4237045049667358,-0.050335802137851715,2.015298366546631
101,69923,69921,0.02485891990363598,-0.14283357560634613,0.9969971179962158,-8.096314430236816,9.906832695007324,-1.3179627656936646,1.9420552253723145,4.044009685516357,0.30181726813316345,-1.5821126699447632,-0.20195604860782623,1.9850519895553589
102,69933,69931,0.007544366642832756,-0.03869034722447395,1.0361560583114624,-6.882348537445068,10.910966873168945,-0.7950523495674133,1.9429842233657837,4.044389724731445,0.3020355999469757,-1.7641488313674927,-0.2605697810649872,1.9788165092468262
103,69943,69941,0.023612791672348976,0.012529231607913971,1.0027680397033691,-3.3548531532287598,10.850712776184082,-0.24367570877075195,1.942956566810608,4.0447773933410645,0.30223900079727173,-1.9504560232162476,-0.28004780411720276,1.981391429901123
104,69953,69951,0.02895512990653515,0.04223669692873955,1.0307328701019287,0.23892448842525482,7.214388370513916,-0.38245803117752075,1.9435200691223145,4.044142723083496,0.3024619519710541,-2.091135025024414,-0.24020344018936157,1.9929174184799194
105,69963,69961,0.01743176020681858,0.016566548496484756,1.004237413406372,2.690725326538086,1.3290157318115234,-0.9809896945953369,1.9418853521347046,4.043800354003906,0.29999735951423645,-2.1281888484954834,-0.23393090069293976,1.984525442123413
106,69973,69971,-0.000591324525885284,-0.016152136027812958,0.9543192386627197,2.4256234169006348,-4.619048118591309,-0.85367351770401,1.9395642280578613,4.041776180267334,0.3001537621021271,-2.061491012573242,-0.20693807303905487,1.9748440980911255
107,69983,69981,-0.019117310643196106,-0.01615794189274311,1.0102276802062988,1.6527591943740845,-9.083905220031738,-0.5454677939414978,1.9393914937973022,4.042291641235352,0.3003382086753845,-1.9124292135238647,-0.189873605966568,1.9654390811920166
108,69993,69991,0.027865512296557426,-0.015352300368249416,1.0125983953475952,-0.08002685010433197,-9.279378890991211,-1.4791079759597778,1.9367778301239014,4.0413336753845215,0.3005979359149933,-1.717429280281067,-0.12344249337911606,1.971717357635498
109,70003,70001,-0.017073025926947594,0.09471507370471954,0.9876831769943237,-3.124058723449707,-9.239035606384277,-1.0027889013290405,1.9380823373794556,4.041091442108154,0.3006693124771118,-1.8604193925857544,-0.18762482702732086,1.9535385370254517
110,70013,70011,0.019944606348872185,-0.034778449684381485,0.979100227355957,-5.264172077178955,-4.155258655548096,-0.45099180936813354,1.9371638298034668,4.038784027099609,0.3008289039134979,-1.7047966718673706,-0.19290584325790405,1.9525859355926514
111,70023,70021,-0.017768951132893562,-0.000980124925263226,0.9957603812217712,-5.6357855796813965,-0.39658457040786743,-0.5760864615440369,1.9362058639526367,4.0372419357299805,0.3022279441356659,-1.6087477207183838,-0.30130764842033386,1.9282145500183105
112,70033,70031,-0.006079519167542458,-0.0246281698346138,1.0627368688583374,-5.2835822105407715,1.6594833135604858,-0.3463771343231201,1.9364069700241089,4.038351535797119,0.3026237189769745,-1.5905085802078247,-0.4121716618537903,1.9073967933654785
113,70043,70041,0.09214136749505997,-0.08908868581056595,0.9632390737533569,-3.5091466903686523,5.459173679351807,0.14557421207427979,1.9367029666900635,4.039217472076416,0.3026421368122101,-1.6442370414733887,-0.42271095514297485,1.9174163341522217
114,70053,70051,0.06457744538784027,-0.07442862540483475,0.9867217540740967,-1.3692489862442017,2.6553399562835693,0.19225329160690308,1.937580943107605,4.0388922691345215,0.30346667766571045,-1.8283512592315674,-0.47580578923225403,1.917670726776123
115,70063,70061,0.05500466749072075,-0.2149507999420166,0.9879401326179504,1.3484805822372437,-2.2362332344055176,0.01766064018011093,1.9369028806686401,4.0389533042907715,0.30375927686691284,-1.7695480585098267,-0.47524234652519226,1.9152320623397827
116,70073,70071,-0.030147355049848557,-0.0905315950512886,1.0880587100982666,3.0318424701690674,-6.390975475311279,0.1568726897239685,1.9379780292510986,4.038557052612305,0.303951621055603,-1.795729637145996,-0.4404178261756897,1.9239625930786133
117,70083,70081,0.024532875046133995,-0.005849947687238455,0.9967166185379028,3.186889171600342,-9.319023132324219,0.11640289425849915,1.9386135339736938,4.0383501052856445,0.3041652739048004,-1.7558271884918213,-0.3955090343952179,1.933441162109375
118,70093,70091,-0.00968115497380495,0.004985537379980087,1.0212876796722412,2.7940926551818848,-10.452771186828613,0.09162416309118271,1.9365698099136353,4.0387959480285645,0.30189040303230286,-1.5118651390075684,-0.43730711936950684,1.9053336381912231
119,70103,70101,0.03082631714642048,-0.0047165220603346825,0.9944133162498474,2.0284690856933594,-7.227025508880615,-0.009620752185583115,1.9368585348129272,4.0378499031066895,0.3020625114440918,-1.3874179124832153,-0.316961407661438,1.9295878410339355
120,70113,70111,0.02928665280342102,0.0022424550261348486,1.00458562374115,2.245335102081299,-8.031463623046875,0.002167090540751815,1.9387239217758179,4.037802696228027,0.30209407210350037,-1.5821720361709595,-0.3679008483886719,1.9314085245132446
121,70123,70121,-0.044369250535964966,0.03579491749405861,0.9860119223594666,0.0979170873761177,-4.369997024536133,-0.0450541190803051,1.938058614730835,4.036601543426514,0.3005691468715668,-1.3919897079467773,-0.34877708554267883,1.9189223051071167
122,70133,70131,0.0027643449138849974,-0.07429075241088867,1.0224822759628296,-0.1713109314441681,-2.133976697921753,-0.8368681073188782,1.938643455505371,4.038067817687988,0.3005868196487427,-1.4217931032180786,-0.35208213329315186,1.9182066917419434
123,70143,70141,-0.013046511448919773,0.034752942621707916,1.0292423963546753,0.7570704221725464,-3.824274778366089,-0.9710486531257629,1.940218448638916,4.036435127258301,0.3006644546985626,-1.4205681085586548,-0.3482212424278259,1.91441011428833
124,70153,70151,7.287855260074139e-05,0.06938193738460541,1.034518837928772,3.305196523666382,-1.6606414318084717,-1.5158640146255493,1.9390262365341187,4.036546230316162,0.30214548110961914,-1.2800021171569824,-0.3149159252643585,1.8988465070724487
125,70163,70161,0.03887690603733063,-0.03823724761605263,0.9331077933311462,5.470192909240723,-6.265604019165039,-0.8114326596260071,1.9402167797088623,4.036261081695557,0.3023860454559326,-1.2025179862976074,-0.23546187579631805,1.8923810720443726
126,70173,70171,-0.01533881388604641,-0.02552088163793087,0.9979796409606934,6.383345603942871,-8.456304550170898,-0.1861424595117569,1.9410390853881836,4.037705898284912,0.30260154604911804,-1.1515246629714966,-0.3684031069278717,1.8457671403884888
127,70183,70181,-0.04213474690914154,0.07435207813978195,1.017591953277588,5.328627109527588,-7.205219268798828,0.7783302664756775,1.9407154321670532,4.037292003631592,0.30280300974845886,-1.0834572315216064,-0.24738697707653046,1.8622586727142334
128,70193,70191,0.014801065437495708,-0.005734254606068134,0.9958542585372925,5.009322643280029,-7.604791164398193,0.5034675598144531,1.9418948888778687,4.0369954109191895,0.30473434925079346,-1.0231038331985474,-0.14931322634220123,1.8803881406784058
129,70203,70201,-0.018980545923113823,-0.05700176954269409,1.017159104347229,4.435057640075684,-8.92746353149414,0.7523689866065979,1.9420099258422852,4.03619909286499,0.3049924075603485,-0.9498962163925171,-0.13918787240982056,1.879875659942627
130,70213,70211,0.017025282606482506,-0.15303005278110504,1.0100281238555908,3.5941991806030273,-4.463634967803955,-0.008013238199055195,1.9430674314498901,4.035113334655762,0.30523881316185,-0.911015510559082,-0.0641728937625885,1.8911570310592651
131,70223,70221,-0.02463301084935665,-0.03195923939347267,1.0130765438079834,3.5701699256896973,-4.873101234436035,-0.5018451809883118,1.9416604042053223,4.03286600112915,0.3050941228866577,-0.7242785096168518,0.00580040505155921,1.8831965923309326
132,70233,70231,0.06489567458629608,-0.0647890716791153,0.9167454242706299,1.6326409578323364,-0.16130873560905457,-0.8828991055488586,1.9437611103057861,4.03414249420166,0.3053261935710907,-0.8596428036689758,-0.1232554242014885,1.8723280429840088
133,70243,70241,0.10295450687408447,-0.01260331179946661,0.9324496388435364,-1.5332763195037842,1.2562140226364136,-0.8303807377815247,1.944077968597412,4.034971237182617,0.3056809902191162,-0.7326886653900146,-0.08287297934293747,1.8601707220077515
134,70253,70251,0.09123271703720093,-0.05253589525818825,0.9631940126419067,-1.5306642055511475,-0.8133581280708313,-1.5145392417907715,1.9446734189987183,4.035022258758545,0.3075922131538391,-0.7085574865341187,-0.08588025718927383,1.8499082326889038
135,70263,70261,-0.040002208203077316,0.03741510212421417,0.9984328150749207,-0.7063169479370117,-2.9984395503997803,-0.9763545393943787,1.9463804960250854,4.034316062927246,0.30774107575416565,-0.820807933807373,-0.09517234563827515,1.8453714847564697
136,70273,70271,0.017044417560100555,-0.041312020272016525,0.9575270414352417,0.2406676709651947,-2.0518739223480225,-1.3642833232879639,1.9459766149520874,4.033605575561523,0.3080621063709259,-0.6832568645477295,-0.09154733270406723,1.8325154781341553
137,70283,70281,0.014647696167230606,0.0031489802058786154,0.9656269550323486,0.657874584197998,-2.383690357208252,-0.981885552406311,1.9482861757278442,4.033498764038086,0.30810147523880005,-0.7692306041717529,-0.07196512818336487,1.8282161951065063
138,70293,70291,-0.007010947447270155,0.026054037734866142,1.000014305114746,2.592963933944702,-2.473153829574585,-0.9774978756904602,1.9481430053710938,4.034317970275879,0.3083121180534363,-0.6768081188201904,-0.03687899559736252,1.82315993309021
139,70303,70301,0.009238644503057003,-0.022691333666443825,0.9831401705741882,3.6763970851898193,-2.2796194553375244,0.15055888891220093,1.9496026039123535,4.034268379211426,0.3083951473236084,-0.6763115525245667,0.015325861051678658,1.8190504312515259
140,70313,70311,-0.02547352761030197,0.08242052793502808,1.0354737043380737,3.3144285678863525,-0.5477266311645508,-0.01878715306520462,1.9498622417449951,4.033667087554932,0.3085363805294037,-0.6210846900939941,0.0776292011141777,1.8177176713943481
141,70323,70321,-0.0390499122440815,0.0738091915845871,0.9949080944061279,1.8075132369995117,-0.20507623255252838,0.904653787612915,1.9522839784622192,4.0337324142456055,0.31002065539360046,-0.8192472457885742,0.050939444452524185,1.8209733963012695
142,70333,70331,0.006462483201175928,-0.10742945969104767,0.9686526656150818,0.7117435932159424,1.0736929178237915,-0.12410610914230347,1.9515299797058105,4.033722400665283,0.31039246916770935,-0.7074936628341675,0.01335450541228056,1.8207401037216187
143,70343,70341,-0.031037909910082817,0.09349782764911652,1.041768193244934,0.4702676236629486,-4.692041873931885,-0.6060757637023926,1.9505716562271118,4.032087326049805,0.31076231598854065,-0.5890234112739563,0.12096701562404633,1.8171988725662231
144,70353,70351,0.017956934869289398,-0.03008142299950123,0.9606109261512756,0.6901584267616272,-7.785744667053223,-0.8539689183235168,1.950852870941162,4.03243350982666,0.3137686252593994,-0.4945458471775055,0.1384316235780716,1.810775876045227
145,70363,70361,-0.024756411090493202,-0.030727164819836617,0.9902476668357849,-0.13322633504867554,-11.503569602966309,-0.5315348505973816,1.9529361724853516,4.032826900482178,0.31410276889801025,-0.5653759837150574,0.15413090586662292,1.8048758506774902
146,70373,70371,-0.029007291421294212,-0.06015213578939438,0.957491397857666,-3.2190299034118652,-9.99697208404541,0.08264723420143127,1.9523391723632812,4.0336689949035645,0.31466156244277954,-0.2863982617855072,0.06851889938116074,1.7937383651733398
147,70383,70381,0.014749418944120407,-0.06811954081058502,0.9901980757713318,-4.371975421905518,-10.387009620666504,0.2850646376609802,1.952566385269165,4.033234119415283,0.3170439600944519,-0.09930049628019333,0.10600995272397995,1.7907828092575073
148,70393,70391,0.07641854137182236,-0.16417190432548523,0.9773363471031189,-2.055891513824463,-9.518194198608398,0.13468073308467865,1.954099178314209,4.0334978103637695,0.31749045848846436,-0.07028058171272278,0.050501082092523575,1.7923307418823242
149,70403,70401,0.010358919389545918,-0.08165261894464493,1.0317288637161255,-0.2430858612060547,-6.464517593383789,0.897524356842041,1.9554810523986816,4.033132076263428,0.3179069757461548,-0.0650186538696289,0.01857888139784336,1.794806957244873
150,70413,70411,-0.007840374484658241,-0.09875810891389847,0.9807500243186951,2.8280625343322754,-0.7264939546585083,0.6807652115821838,1.9564223289489746,4.032827377319336,0.31845781207084656,0.04202638939023018,0.031182486563920975,1.8014317750930786
151,70423,70421,0.02360515296459198,-0.046288371086120605,0.9425792098045349,4.339416980743408,4.582850456237793,0.4056437313556671,1.9582678079605103,4.0332112312316895,0.3157249689102173,-0.0015505228657275438,0.08512411266565323,1.797709584236145
152,70433,70431,0.03530252352356911,0.0019057531608268619,0.9477943181991577,4.940568447113037,6.132289409637451,0.9017237424850464,1.9584980010986328,4.03242826461792,0.316022127866745,0.04715019464492798,0.08549884706735611,1.8055195808410645
153,70443,70441,0.05336950346827507,-0.03711060434579849,0.945121169090271,3.52512788772583,5.149343490600586,1.2780550718307495,1.9593333005905151,4.032434463500977,0.3162943124771118,0.057563912123441696,0.17310640215873718,1.8112678527832031
154,70453,70451,0.05252080038189888,-0.10904756188392639,0.9765551090240479,1.4516432285308838,2.0425684452056885,1.2208341360092163,1.960312843322754,4.032660007476807,0.31560954451560974,-0.07857132703065872,0.23339897394180298,1.8237621784210205
155,70463,70461,0.01226095762103796,-0.1270403414964676,1.0280399322509766,-2.8616368770599365,-0.18465358018875122,-0.37587451934814453,1.9608603715896606,4.032505512237549,0.31569135189056396,-0.0938601866364479,0.17053864896297455,1.832952857017517
156,70473,70471,0.03386574238538742,-0.1405198574066162,0.9246249794960022,-6.977180004119873,-1.6760761737823486,-1.1456726789474487,1.9604445695877075,4.032080173492432,0.3158213496208191,0.005784587003290653,0.12496825307607651,1.833081841468811
157,70483,70481,0.021905921399593353,-0.003629038343206048,0.9753028750419617,-7.838549613952637,-1.8710540533065796,-2.050041913986206,1.9622516632080078,4.0331220626831055,0.3145691454410553,-0.02096117101609707,0.025338592007756233,1.8270554542541504
158,70493,70491,0.0543825738132,0.07619128376245499,0.9264876246452332,-6.679543495178223,-0.16670872271060944,-2.807312250137329,1.9618498086929321,4.031721591949463,0.3145686686038971,0.04774664342403412,0.06920924037694931,1.8049482107162476
159,70503,70501,0.10515253990888596,0.01610468700528145,0.9045321345329285,-2.485393524169922,-0.30245837569236755,-4.018493175506592,1.9619218111038208,4.032606601715088,0.3144204318523407,0.09865407645702362,-0.029013408347964287,1.7832258939743042
160,70513,70511,0.03188952058553696,-0.02892066352069378,0.9917281270027161,0.8960883021354675,-0.2347506582736969,-4.751514434814453,1.9631683826446533,4.03192663192749,0.31406867504119873,-0.017502177506685257,-0.06426869332790375,1.742713451385498
161,70523,70521,0.016126278787851334,-0.057167019695043564,1.0017337799072266,4.297469615936279,-0.06091700494289398,-5.461239337921143,1.9628190994262695,4.031219482421875,0.3138112425804138,0.023404745385050774,-0.036584507673978806,1.6940587759017944
162,70533,70531,-0.027804220095276833,-0.006083607207983732,1.0253480672836304,6.9040985107421875,3.54526424407959,-5.261554718017578,1.9620355367660522,4.030457496643066,0.31355613470077515,0.10572881996631622,0.03995118662714958,1.639674425125122
163,70543,70541,-0.028398437425494194,-0.012950179167091846,0.9845216274261475,6.535810947418213,5.37559700012207,-5.390682220458984,1.9624214172363281,4.029874324798584,0.31330880522727966,0.13328300416469574,0.1434582769870758,1.5822336673736572
164,70553,70551,-0.009482601657509804,0.10602991282939911,0.9987433552742004,4.097140312194824,6.613814830780029,-4.553102970123291,1.963873028755188,4.030023574829102,0.3158316910266876,-0.03429197147488594,0.29677775502204895,1.4746496677398682
165,70563,70561,-0.0073095643892884254,0.05598148703575134,0.9887534976005554,-2.010354995727539,4.144446849822998,-4.397793292999268,1.963579773902893,4.030406951904297,0.3157816231250763,0.0097409812733531,0.2159457802772522,1.484312653541565
166,70573,70571,0.01016820315271616,-0.0574384368956089,0.98055100440979,-7.253969669342041,0.765232503414154,-4.3670477867126465,1.9644955396652222,4.030848503112793,0.31568822264671326,-0.04278784245252609,0.1820603311061859,1.441860556602478
167,70583,70581,0.022842692211270332,-0.0327548086643219,0.9580910801887512,-15.485910415649414,-9.942758560180664,-4.813060283660889,1.9634912014007568,4.03075647354126,0.3168296217918396,0.07145813852548599,0.11232445389032364,1.4069972038269043
168,70593,70591,-0.007966131903231144,-0.01545153371989727,0.9928860664367676,-22.5131778717041,-14.43820858001709,-5.794493198394775,1.9632279872894287,4.030372142791748,0.3167997896671295,0.35389235615730286,-0.200382798910141,1.2945549488067627
169,70603,70601,0.04648887366056442,-0.027369696646928787,0.9718201160430908,-23.034299850463867,-15.17441463470459,-6.080959320068359,1.964656114578247,4.028153419494629,0.31673598289489746,0.2200857400894165,-0.12693189084529877,1.284685492515564
170,70613,70611,0.05468239635229111,-0.07591702789068222,0.9773248434066772,-17.409103393554688,-11.790960311889648,-6.617856979370117,1.965227723121643,4.029455661773682,0.31660765409469604,0.5335479974746704,-0.7019781470298767,1.1773403882980347
171,70623,70621,0.03217774257063866,0.019366484135389328,1.046849250793457,-8.851174354553223,-3.8231406211853027,-7.415420055389404,1.9662251472473145,4.029547691345215,0.3158988058567047,0.5014889240264893,-0.6993908882141113,1.1768643856048584
172,70633,70631,0.044309478253126144,0.08368466049432755,1.0238597393035889,-0.04266175255179405,4.021915912628174,-7.729693412780762,1.9663363695144653,4.028329372406006,0.3158656656742096,0.6442673206329346,-0.7217174172401428,1.0124722719192505
173,70643,70641,0.010527998208999634,0.0969347208738327,1.065597414970398,8.090989112854004,6.2643842697143555,-7.704735279083252,1.9672281742095947,4.027185440063477,0.3157995939254761,0.5958982110023499,-0.6090405583381653,0.9981181025505066
174,70653,70651,-0.03241592273116112,0.030382486060261726,0.9782552719116211,12.370174407958984,13.636845588684082,-8.151900291442871,1.9675647020339966,4.026968479156494,0.31759628653526306,0.5435958504676819,-0.5657855272293091,0.922836184501648
175,70663,70661,-0.03869488835334778,0.09924369305372238,0.9795377850532532,9.740330696105957,9.21747875213623,-6.582658290863037,1.9682912826538086,4.025667190551758,0.3176496922969818,0.4183588922023773,-0.45145270228385925,0.8391990065574646
176,70673,70671,0.015895748510956764,-0.009035701863467693,1.0027992725372314,3.2557907104492188,9.69275951385498,-7.3763957023620605,1.9682739973068237,4.026083469390869,0.31768614053726196,0.2946012318134308,-0.31595972180366516,0.7626681923866272
177,70683,70681,0.014343171380460262,-0.05893322080373764,1.0506316423416138,-0.6423106789588928,5.621876239776611,-7.286916732788086,1.968179702758789,4.025398254394531,0.319204181432724,0.20669719576835632,-0.27674317359924316,0.6826082468032837
178,70693,70691,-0.0069208466447889805,0.015266472473740578,1.0494416952133179,-2.7885351181030273,0.5460899472236633,-7.07778787612915,1.9670523405075073,4.024456024169922,0.31941312551498413,0.1937883049249649,-0.30289357900619507,0.601921021938324
179,70703,70701,0.0024817916564643383,-0.04193410277366638,1.0181883573532104,-1.9316800832748413,-0.38098618388175964,-6.782767295837402,1.967309832572937,4.025540351867676,0.31960707902908325,0.16131867468357086,-0.3510689437389374,0.5582899451255798
180,70713,70711,-0.04099378362298012,-0.0034818851854652166,1.0250540971755981,1.3941408395767212,-3.045165538787842,-6.00528621673584,1.9664530754089355,4.024735927581787,0.32159239053726196,0.16082605719566345,-0.3765731453895569,0.4841150939464569
181,70723,70721,-0.05187053605914116,0.010712740011513233,1.0204951763153076,4.40363883972168,-1.6053229570388794,-5.419682025909424,1.9647067785263062,4.023244857788086,0.32203128933906555,0.24583226442337036,-0.3532107472419739,0.41991716623306274
182,70733,70731,-0.07610421627759933,-0.010335232131183147,1.0528050661087036,5.7486748695373535,6.007579803466797,-5.0087809562683105,1.9644790887832642,4.022871017456055,0.32243475317955017,0.2693201005458832,-0.282533198595047,0.3668390214443207
183,70743,70741,-0.04082747921347618,0.015564617700874805,1.0658499002456665,5.974399089813232,5.388398170471191,-4.857550144195557,1.9650046825408936,4.023891925811768,0.32290005683898926,0.215726837515831,-0.34534844756126404,0.3233864903450012
184,70753,70751,-0.049759358167648315,0.027225995436310768,1.0989891290664673,3.3197250366210938,11.526989936828613,-5.461080074310303,1.96458899974823,4.023111343383789,0.32061776518821716,0.11121812462806702,-0.2541581988334656,0.285421758890152
185,70763,70761,-0.017038792371749878,-0.02860918641090393,0.99745774269104,2.1816294193267822,7.782894611358643,-5.207162857055664,1.9652940034866333,4.022124767303467,0.32099753618240356,-0.020361166447401047,-0.19624002277851105,0.228311225771904
186,70773,70771,-0.011200232431292534,-0.10023106634616852,0.9745321869850159,2.2349493503570557,8.49453353881836,-5.487710475921631,1.9656260013580322,4.023686408996582,0.32141050696372986,-0.1295253336429596,-0.23206140100955963,0.18048807978630066
187,70783,70781,0.012486180290579796,-0.09772789478302002,0.9453585147857666,4.1641764640808105,10.058753967285156,-6.318348407745361,1.965303659439087,4.023712158203125,0.3205593228340149,-0.13848014175891876,-0.17570897936820984,0.1343027800321579
188,70793,70791,0.04925035312771797,0.03893274441361427,0.8861930966377258,5.877612113952637,6.137327194213867,-5.746273040771484,1.9660577774047852,4.024806022644043,0.3208634853363037,-0.22215694189071655,-0.175008624792099,0.0774063840508461
189,70803,70801,0.033029042184352875,-0.04317605867981911,0.9123790860176086,9.055910110473633,7.266218662261963,-6.121708869934082,1.9664679765701294,4.024890422821045,0.3210522532463074,-0.3659459054470062,-0.12916891276836395,0.025160232558846474
190,70813,70811,0.02798072248697281,-0.0407378152012825,0.9220196604728699,12.346575736999512,10.300312995910645,-6.456328868865967,1.9677382707595825,4.024895191192627,0.32113540172576904,-0.4406682550907135,-0.029182128608226776,-0.030862221494317055
191,70823,70821,0.025742461904883385,-0.007037901319563389,0.9154974818229675,15.24567985534668,11.170080184936523,-7.158292293548584,1.9680041074752808,4.0252532958984375,0.3211871385574341,-0.5543097853660583,0.12393242865800858,-0.09471522271633148
192,70833,70831,0.03185340017080307,0.14870037138462067,0.909103274345398,13.106603622436523,8.353734016418457,-7.486536979675293,1.9690794944763184,4.0250773429870605,0.32118988037109375,-0.6761119365692139,0.2958308458328247,-0.16463418304920197
193,70843,70841,0.019302330911159515,0.2025049775838852,0.9803354740142822,8.397306442260742,1.8216394186019897,-7.42343282699585,1.9684468507766724,4.024857044219971,0.3212229013442993,-0.7429032325744629,0.42511093616485596,-0.24034900963306427
194,70853,70851,-0.015529900789260864,0.1630469411611557,0.9843646883964539,3.6064467430114746,-4.242830276489258,-6.642919540405273,1.9687254428863525,4.025268077850342,0.32145005464553833,-0.710645854473114,0.4784204661846161,-0.311699777841568
195,70863,70861,-0.020675914362072945,0.08356970548629761,0.953938901424408,-0.1605687141418457,-5.621861457824707,-5.405909538269043,1.9684441089630127,4.025230884552002,0.32139506936073303,-0.6040172576904297,0.536206066608429,-0.3859460949897766
196,70873,70871,0.0785946175456047,-0.03328618407249451,0.9308257699012756,-1.8093078136444092,-4.853087425231934,-5.513038158416748,1.968381643295288,4.024656295776367,0.321365088224411,-0.47946643829345703,0.532631516456604,-0.4441964626312256
197,70883,70881,0.008188886567950249,-0.02221468649804592,0.9468668699264526,-0.8572022318840027,-0.8492093086242676,-5.613879680633545,1.9697463512420654,4.023981094360352,0.32251402735710144,-0.5368386507034302,0.5070128440856934,-0.5149083733558655
198,70893,70891,0.009557577781379223,-0.008752896450459957,0.9778884649276733,2.8774969577789307,2.300631046295166,-5.038585186004639,1.969804048538208,4.023574352264404,0.3223959803581238,-0.4777221977710724,0.5050638318061829,-0.5717641711235046
199,70903,70901,0.02309962920844555,-0.11957700550556183,1.0042216777801514,10.394035339355469,3.337907314300537,-3.802138566970825,1.9695621728897095,4.02339506149292,0.32223397493362427,-0.4643005430698395,0.5807557702064514,-0.6138248443603516
200,70913,70911,0.03181638568639755,-0.13212499022483826,1.0132148265838623,13.344569206237793,2.82795786857605,-2.123234272003174,1.9699749946594238,4.023582935333252,0.32004496455192566,-0.6157631874084473,0.5106028318405151,-0.6626883149147034
201,70923,70921,0.007773403078317642,-0.09267138689756393,0.9736114144325256,13.468657493591309,4.348354816436768,-1.3067965507507324,1.9692869186401367,4.024478435516357,0.3198038339614868,-0.5340892672538757,0.7481926679611206,-0.6659980416297913
202,70933,70931,0.037281617522239685,-0.07949694246053696,0.9811061024665833,9.685491561889648,4.310512542724609,-0.038460999727249146,1.9698899984359741,4.023033142089844,0.3194428086280823,-0.6367513537406921,0.8808285593986511,-0.69928377866745
203,70943,70941,-0.015727445483207703,0.00045307516120374203,1.028085708618164,4.110027313232422,7.42422342300415,0.627869188785553,1.969368577003479,4.022497177124023,0.31913530826568604,-0.6664111018180847,1.0270137786865234,-0.7021387219429016
204,70953,70951,0.031015850603580475,0.10335240513086319,0.9896382093429565,-0.7494274377822876,6.008330345153809,1.252541422843933,1.9695100784301758,4.022885799407959,0.320169061422348,-0.724753737449646,0.916278064250946,-0.7105575799942017
205,70963,70961,0.0030588738154619932,-0.013452040031552315,0.9708716869354248,-5.924564838409424,5.310832977294922,1.6881922483444214,1.9694340229034424,4.023096084594727,0.31988272070884705,-0.7770782709121704,0.8875797986984253,-0.7028055787086487
206,70973,70971,-0.030905110761523247,0.017747366800904274,1.0049506425857544,-11.308609962463379,1.2028579711914062,1.5138710737228394,1.9698436260223389,4.022103786468506,0.3195575475692749,-0.8708372712135315,0.8522523641586304,-0.6889716386795044
207,70983,70981,-0.038375213742256165,0.09103424847126007,1.0090932846069336,-14.1172456741333,-2.6899375915527344,2.2109580039978027,1.970167875289917,4.021556377410889,0.3202134966850281,-0.8165375590324402,0.8174449801445007,-0.6630622744560242
208,70993,70991,-0.006875678431242704,-0.04547513648867607,0.9730110168457031,-12.955683708190918,-2.779960870742798,3.1748757362365723,1.9706207513809204,4.021144390106201,0.31991803646087646,-0.8013378977775574,0.7384123206138611,-0.6410880088806152
209,71003,71001,0.007012497633695602,-0.11403725296258926,1.0113285779953003,-7.514350414276123,-1.584423542022705,3.782863140106201,1.9722707271575928,4.0213494300842285,0.31957629323005676,-0.8638172745704651,0.5268352031707764,-0.636350691318512
210,71013,71011,-0.03306689113378525,-0.03264804556965828,1.0682293176651,-1.4138095378875732,0.19274193048477173,4.647305965423584,1.9738281965255737,4.021537780761719,0.31977787613868713,-0.9459536075592041,0.40686139464378357,-0.6121421456336975
211,71023,71021,-0.054382454603910446,0.1440066397190094,1.0338139533996582,4.868378639221191,2.8987061977386475,5.46183967590332,1.9734044075012207,4.022005081176758,0.3195967972278595,-0.8919435143470764,0.3941550552845001,-0.5450654029846191
212,71033,71031,-0.08033864945173264,0.1910601258277893,1.0167226791381836,8.20472240447998,7.366156101226807,6.185196876525879,1.9739075899124146,4.020678997039795,0.31944912672042847,-0.8970958590507507,0.4745483994483948,-0.48874279856681824
213,71043,71041,-0.021270612254738808,-0.05003863945603371,1.0077409744262695,8.732512474060059,8.790787696838379,6.928954124450684,1.9733216762542725,4.020357608795166,0.3182401657104492,-0.9472388625144958,0.6013317108154297,-0.4210774004459381
214,71053,71051,0.024824177846312523,0.1870526373386383,0.9463564157485962,4.699831008911133,7.754566192626953,7.446846961975098,1.9728766679763794,4.02007532119751,0.3180280923843384,-1.0153405666351318,0.7163437008857727,-0.34218907356262207
215,71063,71061,0.03617941960692406,0.03990933671593666,0.9709460735321045,-0.7858874797821045,0.8140477538108826,7.176950931549072,1.973785161972046,4.019668102264404,0.3177778422832489,-1.1265742778778076,0.7580854892730713,-0.2715512216091156
216,71073,71071,0.017801938578486443,-0.0018586900550872087,1.0244663953781128,-7.057368755340576,-3.4940743446350098,7.104946136474609,1.974700689315796,4.02055549621582,0.3175590932369232,-1.147801160812378,0.7074998617172241,-0.20445336401462555
217,71083,71081,-0.0011701863259077072,-0.02429608814418316,0.9682644605636597,-12.845268249511719,-5.490145206451416,7.301910877227783,1.974859356880188,4.019664287567139,0.31610456109046936,-1.0804567337036133,0.7171309590339661,-0.11587492376565933
218,71093,71091,0.021282952278852463,-0.05242954194545746,0.9146866798400879,-18.512847900390625,-7.693581581115723,7.9571638107299805,1.9763462543487549,4.019359588623047,0.31568628549575806,-1.1113653182983398,0.6176373362541199,-0.05106166750192642
219,71103,71101,0.07117138803005219,-0.0998251885175705,0.9358823895454407,-21.077547073364258,-11.494392395019531,7.558381080627441,1.9771409034729004,4.019400119781494,0.3154061436653137,-0.9316620826721191,0.43439197540283203,0.03128746896982193
220,71113,71111,0.02841922454535961,-0.17354346811771393,1.012346863746643,-18.034353256225586,-11.709319114685059,7.3719892501831055,1.9788416624069214,4.017568111419678,0.3152162432670593,-0.9609946608543396,0.38274556398391724,0.10674183815717697
221,71123,71121,-0.0027472192887216806,0.005211947485804558,0.9912038445472717,-10.441821098327637,-10.766594886779785,7.286156177520752,1.9795949459075928,4.017797946929932,0.31489330530166626,-0.7458638548851013,0.06393447518348694,0.1649104654788971
222,71133,71131,0.021061653271317482,-0.07056599110364914,0.9758033156394958,-2.519087314605713,-4.017129421234131,7.6034626960754395,1.9803414344787598,4.015532493591309,0.31447863578796387,-0.5903781652450562,0.11385627090930939,0.2443092316389084
223,71143,71141,0.015904176980257034,0.055139247328042984,0.9954602122306824,2.3581349849700928,-1.1809289455413818,7.28126859664917,1.9806067943572998,4.014957904815674,0.31401386857032776,-0.5173860788345337,0.03883371874690056,0.31847891211509705
224,71153,71151,0.011279089376330376,-0.03951636329293251,0.9903750419616699,1.3311656713485718,-1.8308454751968384,6.65478515625,1.9819211959838867,4.014834403991699,0.31335049867630005,-0.712178111076355,0.02660534717142582,0.38746270537376404
225,71163,71161,0.05943583697080612,-0.0857275202870369,0.996711015701294,-4.722344398498535,0.7114042043685913,4.300670623779297,1.9825387001037598,4.0150909423828125,0.3128839135169983,-0.6817684769630432,-0.020151983946561813,0.45007050037384033
226,71173,71171,0.023005306720733643,-0.039305660873651505,1.0324623584747314,-11.298410415649414,-1.030257225036621,2.9644339084625244,1.9832313060760498,4.015113353729248,0.312331885099411,-0.7391813397407532,-0.08062005043029785,0.5026032328605652
227,71183,71181,-0.03873547911643982,0.01796673610806465,0.9988068342208862,-16.415603637695312,-2.5303659439086914,1.9632045030593872,1.9828203916549683,4.013797760009766,0.3125346302986145,-0.6034166812896729,-0.16479070484638214,0.5340969562530518
228,71193,71191,-0.002304461318999529,0.12581557035446167,1.0740197896957397,-15.061841011047363,-7.930152416229248,1.456115484237671,1.98387610912323,4.014246940612793,0.31208547949790955,-0.5928815603256226,-0.30966049432754517,0.565300703048706
229,71203,71201,0.021403543651103973,0.024572251364588737,1.0412715673446655,-8.91457748413086,-12.874634742736816,-0.14883457124233246,1.98375403881073,4.010946750640869,0.3114858865737915,-0.6587792038917542,-0.34658393263816833,0.5603238940238953
230,71213,71211,-0.024333905428647995,0.025868995115160942,1.0823978185653687,-1.4615206718444824,-16.10531234741211,-0.8695480823516846,1.9844374656677246,4.010843276977539,0.3139309287071228,-0.48147618770599365,-0.5162104964256287,0.5595334768295288
231,71223,71221,-0.04209780693054199,-0.04018557444214821,1.0385850667953491,2.4011757373809814,-19.745166778564453,-0.2708238959312439,1.9860767126083374,4.008426666259766,0.31375131011009216,-0.4076754152774811,-0.4188743829727173,0.5486647486686707
232,71233,71231,-0.014570550061762333,-0.0421619787812233,1.01192307472229,1.3403844833374023,-19.830991744995117,0.024316906929016113,1.9854809045791626,4.007423400878906,0.3138501048088074,-0.05449273809790611,-0.43614616990089417,0.5277811884880066
233,71243,71241,-0.007968762889504433,-0.05271685868501663,1.0375100374221802,-5.912684917449951,-13.444585800170898,-2.8752551078796387,1.986693263053894,4.007503986358643,0.3121945858001709,0.10484471917152405,-0.49227842688560486,0.5242489576339722
234,71253,71251,-0.03447426110506058,0.04679349064826965,1.010990858078003,-17.26587677001953,-0.6570060849189758,-5.143769264221191,1.9889246225357056,4.006167888641357,0.3120109736919403,0.08182816207408905,-0.5244595408439636,0.4895215928554535
235,71263,71261,0.012187687680125237,-0.12327728420495987,1.002780795097351,-23.530696868896484,10.35024356842041,-7.569402694702148,1.9895541667938232,4.006231784820557,0.31199076771736145,0.20165801048278809,-0.7125239372253418,0.4460395574569702
236,71273,71271,0.02472982183098793,-0.12761561572551727,1.0141656398773193,-24.054407119750977,11.277565956115723,-8.405635833740234,1.9900357723236084,4.007195949554443,0.3119172155857086,0.15858569741249084,-1.0594664812088013,0.37936365604400635
237,71283,71281,-0.033996932208538055,0.10098065435886383,1.0152419805526733,-22.03876495361328,11.671455383300781,-8.567767143249512,1.9913499355316162,4.006263732910156,0.3111499845981598,-0.005597472656518221,-1.243996500968933,0.2796514928340912
238,71293,71291,-0.027738751843571663,-0.050097767263650894,1.0397034883499146,-11.850164413452148,5.002074241638184,-9.021798133850098,1.9914360046386719,4.004766464233398,0.31119129061698914,-0.054125167429447174,-1.439868688583374,0.1853710561990738
239,71303,71301,-0.0034101828932762146,-0.000819134118501097,1.052646279335022,-3.3446435928344727,-3.602215051651001,-8.829103469848633,1.991551399230957,4.002964973449707,0.3113308548927307,-0.009821598418056965,-1.489465594291687,0.06192474067211151
240,71313,71311,-0.0050117336213588715,0.06823515146970749,1.0202783346176147,4.615020275115967,-5.172995090484619,-9.41480541229248,1.9920825958251953,4.00134801864624,0.31332284212112427,0.05395646020770073,-1.3933382034301758,-0.03802206367254257
