,timestamp_start,timestamp_end,acc.x,acc.y,acc.z,gyro.x,gyro.y,gyro.z,stateEstimate.x,stateEstimate.y,stateEstimate.z,stabilizer.pitch,stabilizer.roll,stabilizer.yaw
0,24689,24686,0.015751883387565613,-0.0024868682958185673,0.9731038212776184,11.691835403442383,21.11086082458496,-12.384089469909668,0.5319068431854248,0.5225111842155457,0.1578184962272644,1.984113097190857,0.3127061724662781,2.8950023651123047
1,24699,24696,0.01684519089758396,0.012223802506923676,0.9556785225868225,6.469480514526367,19.811037063598633,-13.685294151306152,0.5325371623039246,0.5229429602622986,0.16098198294639587,1.8137694597244263,0.33359381556510925,2.8160533905029297
2,24709,24706,-0.0110737020149827,0.010176358744502068,0.9863695502281189,0.43015947937965393,15.125676155090332,-15.200044631958008,0.5322511792182922,0.5235145092010498,0.16406051814556122,1.5305266380310059,0.41755083203315735,2.6752865314483643
3,24719,24716,0.0030965048354119062,0.014476311393082142,0.9724860191345215,-3.8468501567840576,7.5270256996154785,-15.226716995239258,0.5327681303024292,0.5234729051589966,0.16624882817268372,1.5662269592285156,0.6969565749168396,2.4106104373931885
4,24729,24726,0.02976127900183201,0.023029658943414688,0.9490714073181152,-6.922537326812744,-0.05177922546863556,-14.511487007141113,0.5317465662956238,0.5216559767723083,0.1691824197769165,1.2620861530303955,0.798846423625946,2.2088496685028076
5,24739,24736,-0.009196663275361061,0.002165957121178508,0.9938755035400391,-8.981535911560059,-5.641593933105469,-13.747304916381836,0.5331575274467468,0.5205690264701843,0.17191241681575775,1.1691516637802124,0.6150630116462708,2.105860471725464
6,24749,24746,0.010261567309498787,0.033067237585783005,0.9790989756584167,-10.469210624694824,-7.9064836502075195,-13.737064361572266,0.5337648987770081,0.5209900736808777,0.1752338707447052,1.0107591152191162,0.41948941349983215,2.0009381771087646
7,24759,24756,0.010286933742463589,-0.0032651375513523817,0.9620358943939209,-10.515727043151855,-7.308453559875488,-13.702664375305176,0.5352528095245361,0.521507203578949,0.17796896398067474,1.1118992567062378,0.22246161103248596,1.894524097442627
8,24769,24766,0.010685843415558338,0.0007362922769971192,0.9682347178459167,-6.74135160446167,-5.190525531768799,-14.280137062072754,0.5353078842163086,0.5219817161560059,0.18083533644676208,0.5390142798423767,-0.008076869882643223,1.7807488441467285
9,24779,24776,0.014893436804413795,0.02721536159515381,0.9795763492584229,0.09079909324645996,-4.535518646240234,-14.48256778717041,0.5399186611175537,0.5229908227920532,0.18240836262702942,0.7546661496162415,-0.07005155831575394,1.641139030456543
10,24789,24786,-0.008981261402368546,0.01348949782550335,0.9946121573448181,7.548677444458008,-6.323596954345703,-14.36957836151123,0.539538562297821,0.5229969024658203,0.18570266664028168,0.8796194791793823,0.05694202333688736,1.4703211784362793
11,24799,24796,0.012476103380322456,0.021497059613466263,0.9798675775527954,12.860795021057129,-9.171391487121582,-13.881515502929688,0.5396437644958496,0.5221494436264038,0.1886732578277588,1.0284720659255981,0.27557286620140076,1.2982202768325806
12,24809,24806,0.0035655510146170855,0.010605975985527039,0.969132661819458,11.88862133026123,-9.054024696350098,-12.815672874450684,0.5396738052368164,0.5210402607917786,0.19001197814941406,1.1146860122680664,0.30922600626945496,1.1798762083053589
13,24819,24816,-0.003693352220579982,-0.020463719964027405,0.942799985408783,4.337273597717285,-5.121176242828369,-11.440413475036621,0.5401450395584106,0.5215495824813843,0.19264279305934906,1.3132274150848389,0.44175878167152405,1.0489094257354736
14,24829,24826,0.026756154373288155,-0.00459053460508585,0.9405181407928467,-3.248485565185547,-0.9460242390632629,-10.085248947143555,0.539756178855896,0.5212741494178772,0.19524945318698883,1.425179123878479,0.4503727853298187,0.9422464370727539
15,24839,24836,0.0011870900634676218,-0.002614908153191209,0.9735115170478821,-8.338663101196289,2.198258638381958,-8.863389015197754,0.539570152759552,0.5213823318481445,0.1977703720331192,1.608688473701477,0.49432408809661865,0.8280957937240601
16,24849,24846,-0.01222584955394268,0.10545788705348969,1.013044834136963,-9.152865409851074,4.646364688873291,-7.126549243927002,0.5384269952774048,0.5206176042556763,0.20121070742607117,1.5081125497817993,0.33129116892814636,0.7567218542098999
17,24859,24856,-0.01295285951346159,0.03533673658967018,0.9667457938194275,-9.389850616455078,8.404562950134277,-5.716673374176025,0.5390557050704956,0.5211077928543091,0.20383921265602112,1.2950105667114258,-0.048464104533195496,0.7446982860565186
18,24869,24866,0.029327327385544777,-0.010359255596995354,0.9226323366165161,-8.55247688293457,10.794230461120605,-4.632302761077881,0.5404020547866821,0.5233733057975769,0.20647506415843964,-0.6508651375770569,1.1749939918518066,0.4303781986236572
19,24879,24876,-0.008176854811608791,-0.0009253622847609222,0.9741250276565552,-4.829093933105469,9.289538383483887,-3.005969285964966,0.555979311466217,0.5128568410873413,0.20979078114032745,-0.47356224060058594,1.0495100021362305,0.39961549639701843
20,24889,24886,0.010763222351670265,0.04565681889653206,0.9785290956497192,-4.4919209480285645,0.7754567861557007,-2.962918519973755,0.5556362271308899,0.5120174884796143,0.2145579755306244,-0.275755375623703,0.830909252166748,0.39729025959968567
21,24899,24896,-0.00969617161899805,0.007288304157555103,0.9532045722007751,-8.881216049194336,-13.416594505310059,-3.5147814750671387,0.5549489259719849,0.5122755765914917,0.21955876052379608,-0.002821460599079728,0.820250391960144,0.3780840039253235
22,24909,24906,0.03711681067943573,0.015010909177362919,0.9334539175033569,-13.519601821899414,-28.2532901763916,-2.9307034015655518,0.554158627986908,0.5110260248184204,0.22027945518493652,0.490108460187912,0.5881932973861694,0.3693065345287323
23,24919,24916,0.02622932195663452,-0.01964114047586918,0.9230045080184937,-17.604093551635742,-37.98992919921875,-2.814976453781128,0.5524690747261047,0.5111885666847229,0.2237977683544159,1.1421403884887695,0.23177140951156616,0.36958664655685425
24,24929,24926,-0.0035965789575129747,0.015495753847062588,0.9657605886459351,-20.593584060668945,-39.18293380737305,-2.121542453765869,0.5502170324325562,0.5122065544128418,0.22689197957515717,1.6412266492843628,-0.15878672897815704,0.3623563051223755
25,24939,24936,-0.018579669296741486,0.03565340116620064,0.9825666546821594,-21.253570556640625,-32.16797637939453,-1.8992373943328857,0.5497164726257324,0.5134333372116089,0.22936107218265533,2.02115535736084,-0.13989287614822388,0.3213241696357727
26,24949,24946,-0.01237663347274065,0.050489120185375214,0.9708597660064697,-16.228376388549805,-20.395200729370117,-1.0526429414749146,0.5502251386642456,0.5110042095184326,0.22898489236831665,2.4628798961639404,-0.40309393405914307,0.3144768476486206
27,24959,24956,-0.0003044889308512211,0.021347206085920334,0.945223331451416,-10.634013175964355,-5.219792366027832,-0.052525993436574936,0.5494620203971863,0.5108166337013245,0.23102279007434845,2.7403810024261475,-0.6429854035377502,0.319867342710495
28,24969,24966,-0.00995052233338356,0.01117170974612236,0.955880880355835,-4.011841773986816,10.530548095703125,0.21253611147403717,0.5489185452461243,0.5109437704086304,0.233007550239563,2.8166844844818115,-0.7732023596763611,0.324110746383667
29,24979,24976,-0.026968983933329582,0.033421456813812256,0.9826797246932983,0.5467352867126465,22.528316497802734,0.7806803584098816,0.5486835837364197,0.5106934309005737,0.23459534347057343,2.716108560562134,-0.7323498129844666,0.30600297451019287
30,24989,24986,-0.010075248777866364,0.026472482830286026,0.9571883082389832,3.168653726577759,30.6549072265625,1.4681388139724731,0.5485637187957764,0.5094475746154785,0.23659157752990723,2.504467725753784,-0.779672384262085,0.3221094012260437
31,24999,24996,0.016931328922510147,0.009466584771871567,0.9214131236076355,2.1830973625183105,32.600460052490234,1.394061803817749,0.5482771992683411,0.5094088912010193,0.23851057887077332,2.4039089679718018,-0.658365786075592,0.29231739044189453
32,25009,25006,0.034470733255147934,-0.017430370673537254,0.897458016872406,-0.15308892726898193,30.150848388671875,1.8401896953582764,0.5461622476577759,0.508003830909729,0.2393229901790619,2.127192735671997,-0.7089536190032959,0.3169562518596649
33,25019,25016,-0.012309552170336246,0.09725731611251831,0.9293116331100464,-3.432040214538574,24.422292709350586,2.350684642791748,0.5452700853347778,0.5081366300582886,0.2410506308078766,2.0341477394104004,-0.7916274666786194,0.332894891500473
34,25029,25026,-0.031596384942531586,0.07183318585157394,0.9803988337516785,-5.901643753051758,17.085956573486328,2.370392084121704,0.5426703691482544,0.5084460973739624,0.24244891107082367,1.814415693283081,-0.8449229001998901,0.35475972294807434
35,25039,25036,0.0025639617815613747,0.04181146249175072,0.9694561958312988,-6.709026336669922,12.541715621948242,2.457272529602051,0.5417125225067139,0.5082233548164368,0.24403351545333862,1.6920008659362793,-0.996598482131958,0.3956325650215149
36,25049,25046,0.03320944309234619,0.021421950310468674,0.9322122931480408,-4.570632457733154,11.377456665039062,2.4795944690704346,0.5405136346817017,0.5088294744491577,0.2434314787387848,1.7574431896209717,-1.0591174364089966,0.39436736702919006
37,25059,25056,0.025835881009697914,-0.020293816924095154,0.9231061935424805,-0.8381394743919373,13.209552764892578,2.69276762008667,0.5377618670463562,0.508497416973114,0.24453312158584595,1.6574922800064087,-1.1451019048690796,0.42652127146720886
38,25069,25066,-0.01989384926855564,0.029182957485318184,0.9930995106697083,2.314598560333252,16.656686782836914,2.7706315517425537,0.5365690588951111,0.5086706876754761,0.24585139751434326,1.372008204460144,-1.0239418745040894,0.4418213963508606
39,25079,25076,-0.01850106008350849,0.14001622796058655,0.9535231590270996,4.31640100479126,21.3196964263916,2.193796157836914,0.5371074676513672,0.507163941860199,0.24650919437408447,1.3839190006256104,-1.0083667039871216,0.43965327739715576
40,25089,25086,0.021026814356446266,0.037895265966653824,0.9222275614738464,4.572264194488525,24.778545379638672,2.3816940784454346,0.5343139171600342,0.5069608092308044,0.24751535058021545,1.1669503450393677,-0.9644281268119812,0.4570065438747406
41,25099,25096,-0.0024861169513314962,0.009756899438798428,0.9851139783859253,3.9598519802093506,26.992368698120117,1.5724050998687744,0.5331559181213379,0.5066922903060913,0.2486955225467682,0.82672518491745,-0.9201699495315552,0.49065136909484863
42,25109,25106,0.004337520804256201,0.028468335047364235,0.9888210892677307,3.0208804607391357,27.546100616455078,0.8609907627105713,0.5328834652900696,0.5064771771430969,0.25069087743759155,0.8160677552223206,-0.8853743672370911,0.458257794380188
43,25119,25116,0.022683288902044296,-0.038312312215566635,0.9431139230728149,2.283864736557007,24.77973175048828,0.8414387702941895,0.5290511250495911,0.5062600374221802,0.25160086154937744,0.5095816254615784,-0.8658249378204346,0.46956175565719604
44,25129,25126,-0.008598342537879944,0.05997719615697861,1.0206671953201294,0.6394616961479187,22.6220645904541,-0.16935241222381592,0.5280249118804932,0.506166934967041,0.2527889013290405,0.1761680245399475,-0.8635485172271729,0.4904281497001648
45,25139,25136,0.02132504992187023,-0.010963749140501022,0.9466741681098938,-0.0369960218667984,20.192201614379883,-0.702960193157196,0.5276203751564026,0.5061938166618347,0.253349244594574,0.1711726188659668,-0.9495863914489746,0.4588046371936798
46,25149,25146,-0.006298741325736046,0.01846199855208397,1.0091807842254639,-0.20964962244033813,18.311927795410156,-0.514691174030304,0.5240262746810913,0.5069782733917236,0.2542212903499603,-0.16822119057178497,-0.891287088394165,0.4697882831096649
47,25159,25156,0.020659010857343674,0.02994001843035221,0.9851586222648621,1.3103080987930298,18.129608154296875,-0.43018561601638794,0.5240439772605896,0.5063008666038513,0.25549715757369995,-0.4067157804965973,-0.8990450501441956,0.4723530113697052
48,25169,25166,-0.021219851449131966,0.07563483715057373,1.0075585842132568,3.344738006591797,17.110576629638672,-0.38514673709869385,0.5232939720153809,0.5062857866287231,0.2565995752811432,-0.41634106636047363,-0.9368754625320435,0.43616512417793274
49,25179,25176,0.022787313908338547,0.020693566650152206,0.9778319597244263,4.648189067840576,17.58810806274414,0.5439556837081909,0.5202457904815674,0.5067852735519409,0.2566297650337219,-0.6466359496116638,-0.8797295689582825,0.43922534584999084
50,25189,25186,0.01962750032544136,-0.04878515377640724,0.9691917896270752,7.001020431518555,18.258304595947266,0.9487350583076477,0.519460141658783,0.5065546035766602,0.2576788663864136,-0.7390952706336975,-0.7942953705787659,0.42931094765663147
51,25199,25196,0.008341893553733826,0.030377747491002083,1.0061297416687012,6.746063709259033,17.712078094482422,1.6625750064849854,0.5172020196914673,0.5060977935791016,0.2585572302341461,-0.9168785810470581,-0.6868521571159363,0.43923327326774597
52,25209,25206,0.014897922053933144,0.010694701224565506,0.9813892245292664,4.3462605476379395,17.071989059448242,2.8509879112243652,0.5157997012138367,0.5056321024894714,0.2582837641239166,-1.228061318397522,-0.6671449542045593,0.47133007645606995
53,25219,25216,0.003403177484869957,0.012413379736244678,1.003862738609314,1.176566243171692,15.899046897888184,3.0279674530029297,0.515806257724762,0.5061052441596985,0.259282648563385,-1.2945959568023682,-0.6140377521514893,0.48242685198783875
54,25229,25226,0.03559352084994316,0.023642171174287796,0.9948971271514893,-1.415374517440796,13.680086135864258,2.5642075538635254,0.5133916735649109,0.5059611797332764,0.26009538769721985,-1.6122850179672241,-0.6760960817337036,0.5219212770462036
55,25239,25236,-0.008114386349916458,0.005542163737118244,1.0082974433898926,-2.279303789138794,12.238825798034668,2.9161343574523926,0.5139060616493225,0.5068100094795227,0.26002269983291626,-1.7359230518341064,-0.6916036009788513,0.545451819896698
56,25249,25246,0.034087471663951874,0.014001029543578625,0.998857855796814,-1.277498722076416,9.12936019897461,2.611459493637085,0.5126824975013733,0.5069383978843689,0.26083606481552124,-1.7609065771102905,-0.71141117811203,0.5598906874656677
57,25259,25256,-0.006203055381774902,0.03713495656847954,1.030397653579712,0.628600001335144,7.331265449523926,2.4916772842407227,0.5105341076850891,0.5070117115974426,0.26163238286972046,-1.969504952430725,-0.7117724418640137,0.6033322215080261
58,25269,25266,0.02418575808405876,-0.025009408593177795,0.9763810038566589,4.160435676574707,6.472603797912598,2.416060447692871,0.5106426477432251,0.5070197582244873,0.2625344693660736,-2.0687367916107178,-0.6681793332099915,0.6402090191841125
59,25279,25276,0.012083269655704498,0.06990379840135574,1.035503625869751,7.135106563568115,4.763092517852783,2.1614387035369873,0.5099084973335266,0.5067511796951294,0.26244068145751953,-1.993760108947754,-0.711017370223999,0.6183868646621704
60,25289,25286,0.013647879473865032,-0.032591741532087326,0.9950160384178162,9.373434066772461,1.853291392326355,2.559431314468384,0.5073741674423218,0.5078104734420776,0.26321104168891907,-2.026674509048462,-0.6300769448280334,0.6408032178878784
61,25299,25296,0.01908375881612301,0.043368369340896606,1.0091638565063477,9.678906440734863,0.8224358558654785,2.783533811569214,0.5061957836151123,0.5079249739646912,0.2640098035335541,-2.1588778495788574,-0.4565243124961853,0.7097299695014954
62,25309,25306,-0.006940966006368399,0.0014694263227283955,1.0472768545150757,8.343707084655762,1.1636351346969604,2.0256268978118896,0.5064784288406372,0.5072439908981323,0.2651735544204712,-2.066856861114502,-0.433867871761322,0.6978237628936768
63,25319,25316,0.04082196578383446,-0.004315368831157684,0.9533766508102417,6.531964302062988,1.1831579208374023,2.30888032913208,0.504445493221283,0.5081580281257629,0.26600274443626404,-2.1256957054138184,-0.2862599492073059,0.7492945194244385
64,25329,25326,-0.019872741773724556,0.06394308805465698,1.072864055633545,4.857606887817383,1.4344640970230103,2.4218196868896484,0.5040343403816223,0.5076274871826172,0.2668953537940979,-2.2464523315429688,-0.3804270029067993,0.7190961241722107
65,25339,25336,0.04158450663089752,-0.04280031844973564,0.9481798410415649,3.6118931770324707,1.9036271572113037,2.640587568283081,0.5043160319328308,0.5096557140350342,0.2705492079257965,-2.221170663833618,-0.27995240688323975,0.7624251842498779
66,25349,25346,-0.00727212056517601,0.07374710589647293,1.0558395385742188,3.3780410289764404,1.2656505107879639,2.483977794647217,0.5030716061592102,0.5093538165092468,0.271615207195282,-2.327174663543701,-0.1976855844259262,0.8164770603179932
67,25359,25356,0.01298079639673233,-0.03007148951292038,1.0000927448272705,3.2503795623779297,-1.012408971786499,2.4476265907287598,0.5033236145973206,0.5091001987457275,0.2727026641368866,-2.3264143466949463,-0.25668835639953613,0.8005274534225464
68,25369,25366,0.02456977218389511,0.02670626901090145,0.9821268916130066,3.471648693084717,-4.79081916809082,2.5862631797790527,0.502639651298523,0.5103843212127686,0.2737623155117035,-2.2785768508911133,-0.16681502759456635,0.8481708765029907
69,25379,25376,-0.010345758870244026,0.031224414706230164,1.0528061389923096,4.449878692626953,-7.8065080642700195,2.9788689613342285,0.5017681121826172,0.5100197196006775,0.272755891084671,-2.1813788414001465,-0.07219615578651428,0.8970287442207336
70,25389,25386,0.04405553638935089,-0.010360991582274437,0.936067521572113,6.1273193359375,-9.276098251342773,3.357602596282959,0.500668466091156,0.5096457600593567,0.2737254500389099,-2.111176013946533,-0.030441153794527054,0.9236883521080017
71,25399,25396,-0.01950232684612274,0.05666665360331535,1.0731199979782104,5.8987040519714355,-8.526001930236816,3.96437668800354,0.5001730918884277,0.5099623799324036,0.27468758821487427,-2.089634895324707,-0.04732680320739746,0.9250001907348633
72,25409,25406,0.03977379575371742,-0.027934258803725243,0.9458189010620117,5.063150882720947,-7.465068817138672,3.833721399307251,0.5004359483718872,0.5111311674118042,0.2774306535720825,-2.002073287963867,0.0114585030823946,0.9643780589103699
73,25419,25416,-0.013775935396552086,0.0605989545583725,1.0528920888900757,4.8888773918151855,-7.300194263458252,3.722672462463379,0.4999690055847168,0.5114971995353699,0.2784992456436157,-1.9887020587921143,-0.07942458242177963,0.9404256343841553
74,25429,25426,0.05254870653152466,-0.004819212015718222,0.8917531371116638,4.473116397857666,-7.590724468231201,4.441189765930176,0.500343382358551,0.5134685039520264,0.27954062819480896,-1.9064619541168213,0.05017653852701187,1.0119707584381104
75,25439,25436,0.011334924958646297,0.07042340189218521,1.0032800436019897,5.554413318634033,-8.202438354492188,5.094138145446777,0.4999649226665497,0.5130308270454407,0.27936264872550964,-1.8172242641448975,0.1731746941804886,1.0885151624679565
76,25449,25446,0.03431409224867821,-0.011903409846127033,0.9648146629333496,6.550674915313721,-9.426899909973145,4.37615966796875,0.4995323419570923,0.5125610828399658,0.28031060099601746,-1.7755061388015747,0.1651313751935959,1.1088870763778687
77,25459,25456,-0.016911296173930168,0.02268051542341709,1.0127755403518677,6.558616638183594,-9.423641204833984,4.576113224029541,0.49972954392433167,0.5136460661888123,0.2812281847000122,-1.7114766836166382,0.2425379455089569,1.1567833423614502
78,25469,25466,0.012666878290474415,0.016605975106358528,1.005981206893921,6.7924017906188965,-10.090932846069336,4.234188079833984,0.4999304413795471,0.5139473080635071,0.2844635844230652,-1.6297590732574463,0.3193565011024475,1.205399513244629
79,25479,25476,0.022716457024216652,0.025643441826105118,0.9745509624481201,6.795454025268555,-10.858644485473633,4.092733383178711,0.5000226497650146,0.5141982436180115,0.28551411628723145,-1.4659119844436646,0.32733139395713806,1.2244688272476196
80,25489,25486,-0.0005450041498988867,0.034734807908535004,0.9907979369163513,6.855720043182373,-11.81842041015625,4.651459693908691,0.4992828965187073,0.51523756980896,0.28654560446739197,-1.4341237545013428,0.4787878692150116,1.2939612865447998
81,25499,25496,0.01817382499575615,-0.007787841372191906,0.9729640483856201,5.919687747955322,-12.42113971710205,3.9877371788024902,0.5001393556594849,0.5147102475166321,0.28761643171310425,-1.3157373666763306,0.5460311770439148,1.33966863155365
82,25509,25506,-0.017611188814044,0.03828553482890129,1.0139974355697632,4.761396884918213,-13.156084060668945,3.5856664180755615,0.5000934600830078,0.5150290131568909,0.2880244255065918,-1.102831244468689,0.6674345135688782,1.404314398765564
83,25519,25516,0.00970438402146101,0.07955966889858246,0.8980306386947632,2.4229776859283447,-12.374848365783691,3.0446653366088867,0.49913960695266724,0.5145822167396545,0.2889748215675354,-1.0389454364776611,0.758025050163269,1.4474642276763916
84,25529,25526,-0.014045464806258678,0.09470003098249435,1.0203951597213745,-0.6930282115936279,-11.508180618286133,2.0429584980010986,0.4998982548713684,0.514329195022583,0.28991246223449707,-1.1173570156097412,0.7231409549713135,1.4435651302337646
85,25539,25536,0.016542155295610428,0.000384667597245425,0.940069317817688,-2.7701666355133057,-9.361394882202148,0.66246497631073,0.5024255514144897,0.5152172446250916,0.2942935526371002,-0.9235782623291016,0.6524509787559509,1.4488329887390137
86,25549,25546,0.012510458938777447,0.001931107952259481,0.9712455868721008,-3.603705644607544,-8.703861236572266,-0.09271679073572159,0.5017703771591187,0.5161359906196594,0.29539722204208374,-0.7641105651855469,0.6305946111679077,1.4601378440856934
87,25559,25556,0.07720708847045898,-0.020723417401313782,0.9208225607872009,-3.3035924434661865,-7.347743988037109,-0.8583186864852905,0.5011884570121765,0.5163252353668213,0.29644474387168884,-0.8529343605041504,0.5977292060852051,1.4422229528427124
88,25569,25566,-0.010041534900665283,0.06518615782260895,1.008179783821106,-1.5285520553588867,-7.269510746002197,-1.4336435794830322,0.5030488967895508,0.5165612101554871,0.29379189014434814,-0.7652673721313477,0.5820822715759277,1.4366652965545654
89,25579,25576,-0.00866532139480114,0.04377959296107292,0.9898509979248047,-0.7428157925605774,-5.136715888977051,-1.5786871910095215,0.5032324194908142,0.5166298151016235,0.29453331232070923,-0.629881739616394,0.5148007869720459,1.4170713424682617
90,25589,25586,0.006271672435104847,-0.016045643016695976,0.9475834369659424,-0.4451884627342224,-5.944514274597168,-1.2435178756713867,0.5027714967727661,0.5174431800842285,0.29527172446250916,-0.7257347702980042,0.5326586961746216,1.3915276527404785
91,25599,25596,-0.01322248950600624,0.007271953392773867,0.9710001945495605,-0.7640045285224915,-7.589686393737793,-0.8960833549499512,0.5047948956489563,0.5174627900123596,0.29595112800598145,-0.5742510557174683,0.6187947988510132,1.4053702354431152
92,25609,25606,0.004966408014297485,0.05044550821185112,0.9821361303329468,-0.8582555651664734,-9.514307975769043,-0.8746076226234436,0.5042211413383484,0.5166148543357849,0.2966623902320862,-0.47527021169662476,0.5489758849143982,1.386569619178772
93,25619,25616,0.04140108451247215,0.0026842865627259016,0.9301572442054749,-2.136202812194824,-10.313765525817871,-0.6940500736236572,0.5043067336082458,0.5174762010574341,0.2972922921180725,-0.35289353132247925,0.4743673503398895,1.3697959184646606
94,25629,25626,-0.01293077040463686,0.05713482201099396,1.0036165714263916,-3.454345464706421,-10.324593544006348,-0.3829425275325775,0.5042985677719116,0.5184219479560852,0.2978757917881012,-0.29061564803123474,0.45198917388916016,1.3579515218734741
95,25639,25636,0.02856864593923092,0.024900922551751137,0.9234607815742493,-4.742468357086182,-8.430437088012695,-0.2689303159713745,0.5052563548088074,0.5186648964881897,0.30330657958984375,-0.09134160727262497,0.40660572052001953,1.3630417585372925
96,25649,25646,0.008729859255254269,-0.011715823784470558,0.9677174687385559,-4.833760738372803,-7.454357624053955,-0.6881678700447083,0.5045016407966614,0.5189638137817383,0.30411866307258606,-0.1362970471382141,0.3515620231628418,1.3450950384140015
97,25659,25656,-0.019702864810824394,0.05353829637169838,1.000015139579773,-4.289148807525635,-6.875468730926514,-1.0351811647415161,0.506330132484436,0.5193284153938293,0.304897278547287,0.028313910588622093,0.29916197061538696,1.346009612083435
98,25669,25666,0.018899114802479744,-0.02060181275010109,0.9269642233848572,-2.98984432220459,-6.453108310699463,-0.8463883996009827,0.5057225823402405,0.5195968747138977,0.3050699532032013,0.02527591958642006,0.2606447637081146,1.3285434246063232
99,25679,25676,0.0035158745013177395,0.021509110927581787,0.989924967288971,-1.7660455703735352,-7.198222637176514,-0.8998027443885803,0.5068941712379456,0.5198203921318054,0.3057349622249603,0.17081817984580994,0.24289476871490479,1.327289342880249
100,25689,25686,-0.0218945499509573,0.0061182426288723946,0.9342824816703796,-1.7409127950668335,-7.201117038726807,-0.623723566532135,0.5063416361808777,0.5199105739593506,0.30637210607528687,0.15780098736286163,0.23526683449745178,1.3095344305038452
101,25699,25696,-0.006751930806785822,0.03916091099381447,0.9617409706115723,-1.5053761005401611,-7.093947887420654,-0.41234269738197327,0.5074882507324219,0.52003014087677,0.30694833397865295,0.2381235957145691,0.3024606704711914,1.305558443069458
102,25709,25706,0.029116090387105942,0.018424758687615395,0.9321458339691162,-0.7594238519668579,-5.2676544189453125,-0.7318388223648071,0.5076749324798584,0.519258975982666,0.3050183653831482,0.3780198097229004,0.29428723454475403,1.306490182876587
103,25719,25716,0.004271048121154308,0.02285604737699032,0.9800834059715271,0.03995977342128754,-4.701459884643555,-1.858899712562561,0.5071881413459778,0.5192835330963135,0.30536705255508423,0.4172540605068207,0.22302189469337463,1.2962872982025146
104,25729,25726,-0.025578223168849945,0.016685834154486656,0.9658476114273071,1.9003946781158447,-4.38765811920166,-2.5797924995422363,0.5076180696487427,0.5201483368873596,0.30567029118537903,0.3764336407184601,0.25281381607055664,1.268502116203308
105,25739,25736,0.012416164390742779,0.009530209936201572,0.9734591841697693,2.633056879043579,-3.963900566101074,-2.9937491416931152,0.5089626312255859,0.5200377702713013,0.306408554315567,0.4806649386882782,0.3001169264316559,1.2455991506576538
106,25749,25746,0.008355461992323399,0.008909209631383419,0.9608210325241089,1.209241271018982,-3.572086811065674,-3.8576183319091797,0.5086102485656738,0.5198256373405457,0.3066898286342621,0.5747033953666687,0.26785439252853394,1.2203915119171143
107,25759,25756,-0.0013897338649258018,0.025931190699338913,0.9963590502738953,0.269260436296463,-2.0911176204681396,-4.098223686218262,0.5082515478134155,0.5205551385879517,0.3069308400154114,0.5809879899024963,0.29694485664367676,1.1787283420562744
108,25769,25766,0.0018931507365778089,-0.009950472973287106,0.9654421806335449,-0.7970594763755798,5.04955530166626,-3.9770729541778564,0.5088913440704346,0.5204963088035583,0.3088756799697876,0.590473473072052,0.311964750289917,1.1360529661178589
109,25779,25776,-0.0167276319116354,-0.023402711376547813,0.9865309000015259,-1.7907207012176514,12.437850952148438,-3.6644227504730225,0.5091995000839233,0.5205076932907104,0.30918192863464355,0.47452983260154724,0.23176927864551544,1.0991792678833008
110,25789,25786,0.010358789004385471,0.046451352536678314,0.9810104370117188,-1.8737503290176392,19.749183654785156,-3.8303966522216797,0.5100513100624084,0.5214870572090149,0.3094645142555237,0.24263282120227814,0.221364364027977,1.0561182498931885
111,25799,25796,-0.036795370280742645,0.0668080598115921,1.0053622722625732,-0.9607766270637512,23.29817771911621,-3.6599361896514893,0.5114501118659973,0.5216298699378967,0.3094558119773865,-0.06418178975582123,0.21324226260185242,1.009832739830017
112,25809,25806,-0.03287212550640106,0.01687156967818737,0.9954127073287964,0.9726688861846924,22.831647872924805,-3.365910053253174,0.5131003856658936,0.5217245817184448,0.3096391260623932,-0.1726493090391159,0.22710172832012177,0.9796950817108154
113,25819,25816,0.00981851201504469,0.032537855207920074,0.9856659770011902,2.211463689804077,17.51412582397461,-3.711662769317627,0.5122010111808777,0.5216256976127625,0.3100002110004425,-0.40056097507476807,0.1902625411748886,0.9496505856513977
114,25829,25826,0.07905934751033783,0.02793717011809349,0.9087517857551575,3.34771466255188,11.27529239654541,-3.521772861480713,0.5126926898956299,0.5223120450973511,0.3102041780948639,-0.5497736930847168,0.2528518736362457,0.9127795100212097
115,25839,25836,-0.0172220841050148,0.01835291087627411,1.0307551622390747,4.518022537231445,3.434701919555664,-3.173326015472412,0.5127882361412048,0.5220310091972351,0.3092650771141052,-0.5720127820968628,0.25886476039886475,0.8842142820358276
116,25849,25846,0.0073197283782064915,-0.04045568406581879,0.9706069231033325,3.393648862838745,-0.2121465802192688,-2.9845361709594727,0.5121890306472778,0.5225118398666382,0.3094322979450226,-0.5712800025939941,0.3423924446105957,0.8529074788093567
117,25859,25856,-0.014577026478946209,0.06823965162038803,1.0476731061935425,1.3958415985107422,-0.9706003665924072,-2.3222923278808594,0.5121380686759949,0.5222206115722656,0.3095647990703583,-0.5258625149726868,0.3949143886566162,0.8253036737442017
118,25869,25866,0.037533123046159744,-0.03989746794104576,0.9206922054290771,-1.4216784238815308,0.4056260883808136,-2.2250356674194336,0.5119883418083191,0.5220810174942017,0.31155651807785034,-0.5600963234901428,0.33196553587913513,0.8013805150985718
119,25879,25876,-0.016000501811504364,0.06085975095629692,1.0656049251556396,-4.570239067077637,3.311030149459839,-2.6145896911621094,0.5127778649330139,0.5230156183242798,0.31173595786094666,-0.5517246127128601,0.3026955723762512,0.778856635093689
120,25889,25886,0.020596278831362724,-0.022690050303936005,0.9297242760658264,-6.268261432647705,6.7711052894592285,-2.7979304790496826,0.5129743814468384,0.52330082654953,0.3119235336780548,-0.6026079654693604,0.232868030667305,0.7518430352210999
121,25899,25896,0.03088958188891411,0.18505249917507172,0.9471443295478821,-5.481486797332764,9.972212791442871,-3.339723825454712,0.51349937915802,0.5237398147583008,0.31343331933021545,-0.6480237245559692,0.15731260180473328,0.7229058742523193
122,25909,25906,0.02218400128185749,0.11883682012557983,0.9606574773788452,-1.938957691192627,10.433416366577148,-3.7246639728546143,0.5134310126304626,0.5241388082504272,0.31364890933036804,-0.803443431854248,0.10714299231767654,0.6870033740997314
123,25919,25916,0.034956928342580795,0.009295261465013027,0.9795250296592712,2.4534785747528076,9.628426551818848,-4.633757591247559,0.514208197593689,0.5243345499038696,0.3137800097465515,-0.9338468909263611,0.11667180061340332,0.6503530740737915
124,25929,25926,-0.00876548606902361,-0.023301180452108383,1.0052070617675781,5.742271423339844,8.807226181030273,-4.4784040451049805,0.5148766040802002,0.5241711735725403,0.3139069378376007,-0.8987759947776794,0.1934523582458496,0.6118572354316711
125,25939,25936,0.007509992923587561,0.01378630194813013,0.9744249582290649,7.092073440551758,7.563385963439941,-4.121876239776611,0.5138219594955444,0.5237075686454773,0.3134499490261078,-1.0101591348648071,0.30944862961769104,0.5695964694023132
126,25949,25946,0.008500591851770878,0.04041628539562225,1.0119197368621826,6.990307331085205,5.566165924072266,-3.3719518184661865,0.5144007802009583,0.5231426954269409,0.3135190010070801,-1.0907436609268188,0.28326311707496643,0.5251995921134949
127,25959,25956,0.006553729996085167,-0.01107095554471016,0.9636680483818054,5.1166605949401855,4.594925403594971,-2.6604747772216797,0.5147891044616699,0.5242975950241089,0.3136099874973297,-1.143829107284546,0.32518714666366577,0.490506112575531
128,25969,25966,0.009213254787027836,0.057369790971279144,1.0216425657272339,2.418278217315674,3.526465654373169,-1.9091118574142456,0.515099048614502,0.5247440934181213,0.31275227665901184,-1.1776751279830933,0.4080004394054413,0.46618199348449707
129,25979,25976,0.008139856159687042,-0.03078356571495533,0.9401249289512634,-0.9721544981002808,2.3648176193237305,-1.7195394039154053,0.5153698921203613,0.5245271325111389,0.3127621114253998,-1.1912508010864258,0.36533400416374207,0.441633403301239
130,25989,25986,0.014694947749376297,0.059686075896024704,1.029286503791809,-4.2768049240112305,1.3700157403945923,-1.33979332447052,0.5155396461486816,0.5253878235816956,0.3127676546573639,-1.2628639936447144,0.34474751353263855,0.4216896593570709
131,25999,25996,0.005072011146694422,-0.008921646513044834,0.9540516138076782,-7.061272621154785,1.3426731824874878,-1.6677298545837402,0.5164883732795715,0.5256678462028503,0.31346747279167175,-1.2403972148895264,0.2734348177909851,0.4062153398990631
132,26009,26006,0.010684145614504814,0.04089551046490669,1.0242763757705688,-7.165124416351318,0.8388245701789856,-2.0303189754486084,0.5165343284606934,0.5261600017547607,0.31349849700927734,-1.2914820909500122,0.17485567927360535,0.3846980035305023
133,26019,26016,0.018121395260095596,0.013053320348262787,0.9812051057815552,-5.231809139251709,0.09188336133956909,-1.9169281721115112,0.5174058079719543,0.5266962051391602,0.31346774101257324,-1.2533921003341675,0.16357117891311646,0.37366700172424316
134,26029,26026,-0.007927446626126766,0.016940010711550713,1.0181357860565186,-1.2177809476852417,0.7113646864891052,-1.310491681098938,0.5174081325531006,0.5262507796287537,0.313530832529068,-1.2919447422027588,0.11909467726945877,0.35481786727905273
135,26039,26036,0.012608557008206844,0.02397998236119747,0.9953632950782776,4.544877052307129,2.0322272777557373,-0.656673789024353,0.5182813405990601,0.5263521075248718,0.31400391459465027,-1.2585439682006836,0.15670421719551086,0.34864339232444763
136,26049,26046,0.016817087307572365,-0.0046144393272697926,0.9900208711624146,8.91247844696045,1.7475545406341553,0.07624003291130066,0.5183475613594055,0.5260213613510132,0.31408461928367615,-1.2327449321746826,0.19944800436496735,0.34312570095062256
137,26059,26056,-0.0005851440946571529,0.053626250475645065,1.0245540142059326,10.366812705993652,0.7903715968132019,0.63797527551651,0.5184035301208496,0.5262004733085632,0.31415337324142456,-1.353886604309082,0.37290918827056885,0.35289835929870605
138,26069,26066,0.036081455647945404,0.03850523382425308,0.9971404671669006,9.324277877807617,0.21361133456230164,0.8275993466377258,0.5200043320655823,0.5254142880439758,0.3099792003631592,-1.3929795026779175,0.23883825540542603,0.32611018419265747
139,26079,26076,0.021203074604272842,0.09005744755268097,1.0320645570755005,5.000229835510254,-1.5360100269317627,0.8845811486244202,0.5209149122238159,0.5280718803405762,0.3098229467868805,-1.4054547548294067,0.24128936231136322,0.3198888897895813
140,26089,26086,0.01013960875570774,-0.03090808168053627,0.9687227010726929,2.943610429763794,-3.6070337295532227,0.9607529640197754,0.5216239094734192,0.5293137431144714,0.3096283972263336,-1.373582124710083,0.19408492743968964,0.3142189085483551
141,26099,26096,0.014531436376273632,0.058989327400922775,1.0283949375152588,0.7102218270301819,-4.421023845672607,0.9887024164199829,0.522197961807251,0.53073650598526,0.31197816133499146,-1.3858281373977661,0.34391096234321594,0.3409821689128876
142,26109,26106,-0.015024980530142784,0.05108686164021492,0.9255839586257935,1.8069511651992798,-4.067796230316162,0.5043044686317444,0.5234391689300537,0.5298256278038025,0.3119713068008423,-1.315260410308838,0.39636656641960144,0.3569656014442444
143,26119,26116,0.010177538730204105,0.05986858904361725,0.9703150987625122,2.8173670768737793,-4.810380935668945,1.1828794479370117,0.5239337086677551,0.5296549201011658,0.3119557797908783,-1.242637276649475,0.4610992670059204,0.37024179100990295
144,26129,26126,0.008444204926490784,0.04410164803266525,1.010132074356079,5.185250282287598,-4.856012344360352,1.294250249862671,0.5244399905204773,0.5294172167778015,0.3135364353656769,-1.2398179769515991,0.4731907844543457,0.37606704235076904
145,26139,26136,-0.021609291434288025,-0.005683587398380041,1.0335755348205566,6.372478485107422,-3.9966187477111816,1.3397048711776733,0.5257075428962708,0.5298528075218201,0.3135157525539398,-1.1590855121612549,0.6629489064216614,0.40986815094947815
146,26149,26146,0.046378377825021744,0.023108020424842834,0.9566240906715393,5.616470813751221,-3.0278875827789307,0.7774192690849304,0.5261641144752502,0.5285684466362,0.31356382369995117,-1.0915509462356567,0.6185859441757202,0.4073062241077423
147,26159,26156,-0.039388347417116165,0.04176175594329834,1.0721392631530762,5.476369380950928,-4.039385795593262,0.7936298847198486,0.5266838669776917,0.5298067927360535,0.31364500522613525,-1.0272077322006226,0.7298245429992676,0.4246579110622406
148,26169,26166,0.05138232186436653,-0.02440197952091694,0.9384278655052185,3.5854852199554443,-5.1381354331970215,0.11027570068836212,0.5271354913711548,0.5293735861778259,0.31278494000434875,-1.0999648571014404,0.7458064556121826,0.42072659730911255
149,26179,26176,-0.027370212599635124,0.05739206075668335,1.0754191875457764,1.4998353719711304,-5.398306846618652,-0.8067917823791504,0.5292056798934937,0.5298938751220703,0.31270694732666016,-1.074926733970642,0.7340697646141052,0.4119504988193512
150,26189,26186,0.0398409366607666,-0.03868133947253227,0.9518030881881714,-0.09528671205043793,-5.420915603637695,-1.6467472314834595,0.530406653881073,0.5305655598640442,0.3126869201660156,-0.9678821563720703,0.7651275396347046,0.40728697180747986
151,26199,26196,-0.021207720041275024,0.0654657632112503,1.066673755645752,-0.42604321241378784,-5.675045490264893,-2.6288177967071533,0.530747652053833,0.5305619835853577,0.3124801814556122,-0.8579503893852234,0.7710604667663574,0.394121378660202
152,26209,26206,0.01773133873939514,-0.021234683692455292,0.9791706204414368,-0.1878545731306076,-5.8109130859375,-2.7368505001068115,0.531063437461853,0.5306010842323303,0.31252336502075195,-0.8236844539642334,0.7730735540390015,0.36785244941711426
153,26219,26216,0.004629208240658045,0.047689031809568405,1.023923635482788,-0.29942137002944946,-5.632243633270264,-2.6807897090911865,0.5322265028953552,0.5306211113929749,0.31251761317253113,-0.6397306323051453,0.7796648740768433,0.35025355219841003
154,26229,26226,0.005758006125688553,-0.01147034764289856,1.0076011419296265,0.19974912703037262,-5.468466281890869,-2.5892488956451416,0.5318897366523743,0.5305880308151245,0.31542688608169556,-0.913468062877655,0.7159895896911621,0.2922438085079193
155,26239,26236,0.014116602949798107,0.024382419884204865,1.0063303709030151,0.37988829612731934,-4.093997001647949,-2.414533853530884,0.5363477468490601,0.5313671231269836,0.31549012660980225,-0.7213073372840881,0.7326310276985168,0.2771775424480438
156,26249,26246,0.0004244399315211922,0.0107682840898633,1.0161243677139282,-0.08559627085924149,-4.493716716766357,-2.5453615188598633,0.5359652042388916,0.5313308835029602,0.3158532977104187,-0.6975765824317932,0.7430477738380432,0.2515360116958618
157,26259,26256,0.012333999387919903,0.013571037910878658,0.9964425563812256,-1.0125133991241455,-5.828219890594482,-2.8723413944244385,0.5372042059898376,0.5313372015953064,0.31605273485183716,-0.6592748165130615,0.7396481037139893,0.22512871026992798
158,26269,26266,0.0018031276995316148,0.025478823110461235,1.0146514177322388,-0.9318341612815857,-7.154906749725342,-3.0926241874694824,0.5383564233779907,0.5314053297042847,0.31588882207870483,-0.5268558859825134,0.730246901512146,0.20171548426151276
159,26279,26276,0.009172049351036549,-0.011317073367536068,0.9847878217697144,-1.498081922531128,-7.1803879737854,-3.1403186321258545,0.5386366248130798,0.5314536094665527,0.3161587119102478,-0.3869321644306183,0.7159051299095154,0.1752358078956604
160,26289,26286,0.007874763570725918,0.04315713793039322,1.0202484130859375,-1.7957665920257568,-6.375845432281494,-3.0637693405151367,0.5388743877410889,0.5315366387367249,0.3164254128932953,-0.47625455260276794,0.7670469284057617,0.13440249860286713
161,26299,26296,0.007690040394663811,-0.024125665426254272,0.9695993065834045,-1.7405153512954712,-4.990718364715576,-3.327909231185913,0.5416486263275146,0.5308426022529602,0.3174009621143341,-0.34608596563339233,0.6603590846061707,0.10407791286706924
162,26309,26306,0.011925562284886837,0.06048482656478882,1.0317636728286743,-1.7611486911773682,-5.186012268066406,-3.487783908843994,0.5420337319374084,0.5317911505699158,0.31772780418395996,-0.3074243664741516,0.707033634185791,0.07172445952892303
163,26319,26316,0.003092912258580327,-0.022633567452430725,0.9642605185508728,-1.3312475681304932,-6.228037357330322,-3.06010365486145,0.5432472825050354,0.5311053395271301,0.31796932220458984,-0.25969627499580383,0.675839364528656,0.03589749336242676
164,26329,26326,0.015830937772989273,0.03255341947078705,1.018898367881775,0.11374565213918686,-6.21701717376709,-2.8414201736450195,0.5444620251655579,0.5311875343322754,0.31981465220451355,-0.20225921273231506,0.7327848076820374,0.005418022163212299
165,26339,26336,-0.003703512717038393,-0.0014870469458401203,0.972190260887146,0.8887887597084045,-6.093653202056885,-2.3390297889709473,0.5456039309501648,0.5303637981414795,0.32013654708862305,-0.2881017029285431,0.802374541759491,-0.03426799923181534
166,26349,26346,0.012717034667730331,0.010247765108942986,0.9947868585586548,0.21433807909488678,-5.103238105773926,-2.0913403034210205,0.5483651161193848,0.5294734239578247,0.320319801568985,-0.14819909632205963,0.7975034117698669,-0.05121355503797531
167,26359,26356,-0.003554994473233819,0.016271868720650673,0.9816920161247253,-1.8505825996398926,-5.4396796226501465,-2.469916820526123,0.5487323999404907,0.5294247269630432,0.3207254707813263,-0.021918123587965965,0.7718997001647949,-0.06584112346172333
168,26369,26366,0.012339535169303417,0.021179907023906708,0.9782429337501526,-3.9409048557281494,-7.088385105133057,-3.2566375732421875,0.5489543676376343,0.5295611619949341,0.3180897831916809,0.03849387168884277,0.782378077507019,-0.09128707647323608
169,26379,26376,0.002607312984764576,0.0204921904951334,0.985267698764801,-4.837646007537842,-7.783787250518799,-3.9970717430114746,0.5500220656394958,0.5290161371231079,0.31819865107536316,0.2584019601345062,0.7625365257263184,-0.11307521909475327
170,26389,26386,0.014926060102880001,0.007201485801488161,0.9820412993431091,-5.806234359741211,-6.917652606964111,-4.920193672180176,0.5494235754013062,0.5285608172416687,0.31840741634368896,0.16985946893692017,0.6520780920982361,-0.16570210456848145
171,26399,26396,-0.003738565370440483,0.01044709887355566,0.9838756322860718,-5.717610836029053,-3.71281361579895,-5.940700531005859,0.5521703362464905,0.5289779901504517,0.3179877698421478,0.14452460408210754,0.6835106611251831,-0.22990281879901886
172,26409,26406,0.01973280869424343,0.017688758671283722,0.9883278012275696,-4.816061973571777,0.5655596256256104,-6.283500671386719,0.5542614459991455,0.5277347564697266,0.31795281171798706,0.22089795768260956,0.5653242468833923,-0.2830642759799957
173,26419,26416,-0.004514878615736961,-0.0072489469312131405,0.9821470975875854,-3.6745448112487793,3.2247700691223145,-6.051278591156006,0.5549677014350891,0.5281181931495667,0.3180488348007202,0.1677602082490921,0.46881622076034546,-0.3457787334918976
174,26429,26426,-0.003438420593738556,0.05788519233465195,1.0331575870513916,-1.6019837856292725,2.9088501930236816,-6.235617637634277,0.5566564798355103,0.5284193158149719,0.3173661530017853,0.24025693535804749,0.472449392080307,-0.4018455445766449
175,26439,26436,0.012487775646150112,-0.015904217958450317,0.9528560638427734,-0.1984986513853073,1.5865761041641235,-6.502296447753906,0.5567235350608826,0.5277581214904785,0.31742528080940247,0.23194213211536407,0.572078287601471,-0.4729182720184326
176,26449,26446,0.01340425293892622,-0.027906915172934532,0.9805013537406921,0.1072143167257309,-0.2263984978199005,-5.821789264678955,0.5575963258743286,0.526157021522522,0.31739550828933716,0.23806136846542358,0.5373997092247009,-0.5315083861351013
177,26459,26456,-0.0022228332236409187,0.040654223412275314,1.0329715013504028,-0.9649706482887268,-1.6997473239898682,-6.094053745269775,0.5583464503288269,0.526157021522522,0.3162679374217987,0.1986871212720871,0.5761203169822693,-0.5963279604911804
178,26469,26466,-0.002905686618760228,-0.005667712073773146,0.9821856617927551,-3.053647756576538,-2.2812538146972656,-5.9607133865356445,0.5598301887512207,0.5253649353981018,0.3161192238330841,0.18543313443660736,0.5114768147468567,-0.6532824039459229
179,26479,26476,0.019583186134696007,0.032007236033678055,0.9919256567955017,-5.4805169105529785,-2.2583541870117188,-5.254726409912109,0.5612308382987976,0.5255678296089172,0.31600821018218994,0.1815953552722931,0.4849875271320343,-0.7134220004081726
180,26489,26486,0.007361775729805231,-0.006488891318440437,0.9892858266830444,-7.8028364181518555,-1.151063084602356,-4.537895202636719,0.5626296997070312,0.5251296162605286,0.3158612847328186,0.23803360760211945,0.41456517577171326,-0.7622300982475281
181,26499,26496,-0.008856170810759068,-0.0061688609421253204,1.0086370706558228,-8.75707721710205,-0.5374927520751953,-4.760613918304443,0.5633004903793335,0.5248925089836121,0.3154791593551636,0.20333921909332275,0.2494296431541443,-0.8006735444068909
182,26509,26506,0.030681263655424118,0.03763335570693016,1.0008825063705444,-8.479592323303223,0.29054951667785645,-5.046755790710449,0.5648731589317322,0.5255232453346252,0.3153288662433624,0.2382803112268448,0.29699015617370605,-0.8645100593566895
183,26519,26516,-0.007425783667713404,0.000572922290302813,1.0148195028305054,-5.724754333496094,1.5477122068405151,-4.771274089813232,0.5656061172485352,0.5236694812774658,0.31522318720817566,0.2575109899044037,0.27869898080825806,-0.9215788841247559
184,26529,26526,0.01336843241006136,0.01652882806956768,0.9952087998390198,-2.820977210998535,2.4744620323181152,-4.641936302185059,0.5664660930633545,0.5224645733833313,0.3166874647140503,0.325852632522583,0.22543436288833618,-0.9664748907089233
185,26539,26536,0.016941532492637634,-0.009845715947449207,1.0044243335723877,-1.9441782236099243,3.234863519668579,-4.488923072814941,0.5665558576583862,0.5219349265098572,0.3167310059070587,0.22557805478572845,0.20806290209293365,-1.0162338018417358
186,26549,26546,-0.00498212268576026,0.04472602531313896,1.030031681060791,-1.0978602170944214,3.7425498962402344,-4.680395126342773,0.5683727860450745,0.5212562680244446,0.31665101647377014,0.26190757751464844,0.1373160034418106,-1.0524545907974243
187,26559,26556,0.029217926785349846,-0.018597926944494247,0.9577247500419617,-0.9660219550132751,3.244704008102417,-4.992847919464111,0.5686007142066956,0.5213459730148315,0.31716716289520264,0.22288429737091064,0.08068493753671646,-1.092111587524414
188,26569,26566,-0.008623858913779259,-0.004506902769207954,1.0125590562820435,-2.293372392654419,1.5828660726547241,-5.425424575805664,0.5696021914482117,0.5214213728904724,0.3172021806240082,0.2053043693304062,0.15672285854816437,-1.153044581413269
189,26579,26576,0.00877575483173132,0.06075918674468994,1.0215872526168823,-3.932685375213623,0.9239895343780518,-6.232242584228516,0.5704240798950195,0.519946813583374,0.31720444560050964,0.1329144537448883,0.0639035701751709,-1.1978486776351929
190,26589,26586,0.013795699924230576,-0.01927407830953598,0.9602780938148499,-7.026774883270264,0.008118238300085068,-6.649818420410156,0.5720718502998352,0.5202105045318604,0.3171936571598053,0.2176535278558731,0.08655357360839844,-1.2682024240493774
191,26599,26596,0.018874220550060272,0.013295122422277927,1.001133680343628,-9.118977546691895,-0.5799170136451721,-6.6834611892700195,0.5720058679580688,0.5190083384513855,0.3182383179664612,0.17206400632858276,-0.010251681320369244,-1.3305917978286743
192,26609,26606,-0.007916978560388088,0.021321216598153114,1.0199198722839355,-10.916479110717773,-0.8889618515968323,-6.5265092849731445,0.5734848976135254,0.5188177227973938,0.3182741105556488,0.28267794847488403,-0.06974231451749802,-1.4024943113327026
193,26619,26616,0.018294990062713623,0.00806965958327055,0.9762176275253296,-11.42943000793457,-0.8377962708473206,-6.055103778839111,0.5732720494270325,0.5179731845855713,0.31841880083084106,0.10168536007404327,-0.08465161174535751,-1.4751139879226685
194,26629,26626,0.017385702580213547,-0.026120655238628387,0.982932448387146,-10.966938972473145,-0.12628982961177826,-6.575207233428955,0.5763187408447266,0.5163354277610779,0.31650811433792114,0.2044086903333664,-0.3178119957447052,-1.5232030153274536
195,26639,26636,0.0052562071941792965,0.02684173174202442,1.0187455415725708,-9.3670015335083,0.955055296421051,-6.912442684173584,0.5762689113616943,0.5171660780906677,0.31660380959510803,0.14205823838710785,-0.31678104400634766,-1.6013954877853394
196,26649,26646,0.005976566579192877,0.026647398248314857,1.0187863111495972,-7.024897575378418,1.9028350114822388,-6.257475852966309,0.5778874158859253,0.5153895020484924,0.31647711992263794,0.06930465996265411,-0.37260162830352783,-1.6724642515182495
197,26659,26656,-0.006355560850352049,0.010027340613305569,1.0064418315887451,-3.6288392543792725,2.1790034770965576,-5.606950759887695,0.579617977142334,0.5142951011657715,0.3179366886615753,0.05820074677467346,-0.5252568125724792,-1.7260316610336304
198,26669,26666,0.013938367366790771,0.04300188273191452,1.003806471824646,0.7193531394004822,1.7484158277511597,-5.184248924255371,0.5805940628051758,0.5146410465240479,0.3180024325847626,0.11133721470832825,-0.5341315269470215,-1.7911547422409058
199,26679,26676,0.013997315429151058,-0.01889299787580967,0.9544711112976074,4.325597286224365,-0.030696094036102295,-5.006283760070801,0.5807310938835144,0.5138333439826965,0.31811779737472534,0.10465312749147415,-0.5521844625473022,-1.8415440320968628
200,26689,26686,0.01489834114909172,0.0014836128102615476,0.9894207119941711,5.577324390411377,-2.723809242248535,-5.122988700866699,0.5815586447715759,0.5135918259620667,0.3181699812412262,0.13408170640468597,-0.45140060782432556,-1.9001126289367676
201,26699,26696,0.002690341789275408,0.014961541630327702,1.0114127397537231,4.205816745758057,-3.3092825412750244,-4.511211395263672,0.5821306109428406,0.5124150514602661,0.31601405143737793,0.2511911988258362,-0.4185526967048645,-1.9568556547164917
202,26709,26706,0.013690747320652008,-0.013522940687835217,0.9696025252342224,1.5387670993804932,-2.9457170963287354,-3.650676727294922,0.5819441080093384,0.5121086239814758,0.31598809361457825,0.15687020123004913,-0.3376619219779968,-1.9941619634628296
203,26719,26716,0.00015750467719044536,0.057665448635816574,1.0348111391067505,-2.171928644180298,-0.22249436378479004,-3.179192066192627,0.5841389298439026,0.5110841989517212,0.31577068567276,0.20280694961547852,-0.38399651646614075,-2.0258843898773193
204,26729,26726,-0.025385553017258644,0.014718371443450451,0.9496985673904419,-6.374083042144775,2.0011744499206543,-3.407332420349121,0.5849149823188782,0.5111790895462036,0.31815123558044434,0.2838441729545593,-0.48067763447761536,-2.0577399730682373
205,26739,26736,0.011672615073621273,0.02813650853931904,0.9582874774932861,-10.878669738769531,4.2572712898254395,-3.3460707664489746,0.5849869251251221,0.5115628242492676,0.31819888949394226,0.1751638799905777,-0.5019480586051941,-2.0876646041870117
206,26749,26746,0.033682931214571,0.023427575826644897,0.9856272339820862,-11.98300838470459,5.694876670837402,-3.2457447052001953,0.586832582950592,0.5106287002563477,0.3180629014968872,0.10964623093605042,-0.6522157788276672,-2.1143670082092285
207,26759,26756,-0.0017452794127166271,0.006766702048480511,1.0100653171539307,-9.21679401397705,6.068886756896973,-2.89575457572937,0.5880170464515686,0.5106770396232605,0.31759393215179443,0.03578098863363266,-0.5852023363113403,-2.164628267288208
208,26769,26766,0.016557903960347176,0.009389480575919151,0.9860287308692932,-5.034118175506592,5.081308841705322,-3.0526366233825684,0.5891062021255493,0.508131206035614,0.3174724280834198,0.03628045693039894,-0.7663171887397766,-2.1925041675567627
209,26779,26776,0.0079402606934309,-0.01267826184630394,0.997997522354126,-0.935157835483551,4.520681858062744,-2.8250179290771484,0.5894516706466675,0.5085858106613159,0.3174739480018616,0.042159553617239,-0.7917776107788086,-2.232754945755005
210,26789,26786,0.0009763154666870832,0.015539418905973434,1.0157029628753662,1.578384518623352,4.584898471832275,-3.3768484592437744,0.5896748304367065,0.5078861117362976,0.3148556351661682,-0.022686218842864037,-0.8328298330307007,-2.257424831390381
211,26799,26796,0.04196812957525253,0.0016557477647438645,1.0283552408218384,2.7650339603424072,4.6430158615112305,-3.9834694862365723,0.5907571911811829,0.5077950954437256,0.3145994544029236,0.002237303415313363,-0.7769533395767212,-2.3023104667663574
212,26809,26806,0.005374159663915634,-0.0071530877612531185,1.0512304306030273,3.699866771697998,5.471812725067139,-4.302206993103027,0.5909026265144348,0.5068561434745789,0.3144310414791107,0.005688481032848358,-0.7684330344200134,-2.3467116355895996
213,26819,26816,0.005204254761338234,0.04966412112116814,1.0269490480422974,2.599574327468872,6.11305570602417,-4.435733795166016,0.591216504573822,0.5065912008285522,0.3142836093902588,-0.08635586500167847,-0.749074399471283,-2.3836264610290527
214,26829,26826,0.036712124943733215,-0.01210805680602789,0.9671591520309448,-0.2382495403289795,5.594791412353516,-4.566371440887451,0.5924174189567566,0.506348192691803,0.3146872818470001,-0.10271956026554108,-0.7576543092727661,-2.4313018321990967
215,26839,26836,-0.0026057546492666006,0.004334558267146349,1.0332250595092773,-3.4495205879211426,4.813439846038818,-5.014634609222412,0.5927637219429016,0.5063318610191345,0.31460753083229065,-0.2556741535663605,-0.7389066219329834,-2.463477611541748
216,26849,26846,-0.0028767166659235954,0.016290921717882156,1.0133967399597168,-4.416024684906006,4.505425453186035,-4.928406238555908,0.5946409106254578,0.5056859254837036,0.3144034445285797,-0.31985512375831604,-0.7597982883453369,-2.5115153789520264
217,26859,26856,0.003984252456575632,0.04132051393389702,1.0338521003723145,-3.4008424282073975,3.560117483139038,-4.304534435272217,0.5957622528076172,0.5051603317260742,0.31689271330833435,-0.3689034581184387,-0.7848629951477051,-2.5594642162323
218,26869,26866,0.009981255047023296,0.00550041114911437,0.9967375993728638,-2.61559796333313,2.326620578765869,-3.9241042137145996,0.5967369675636292,0.5045960545539856,0.3169359862804413,-0.3253984749317169,-0.8696911931037903,-2.6104846000671387
219,26879,26876,0.0039579374715685844,0.005764872767031193,1.0226677656173706,-1.5941027402877808,1.53865647315979,-4.148887634277344,0.596852719783783,0.5048056840896606,0.3171033561229706,-0.27067831158638,-0.8602910041809082,-2.662658452987671
220,26889,26886,0.04301285743713379,0.027586080133914948,0.994826078414917,1.3290104866027832,1.57884681224823,-4.048128604888916,0.5968009829521179,0.5041124224662781,0.3143538534641266,-0.21283277869224548,-0.8945953845977783,-2.713545322418213
221,26899,26896,0.010129201225936413,-0.00826999917626381,1.02379310131073,3.460613489151001,1.3069090843200684,-3.985692262649536,0.5968015789985657,0.5040560364723206,0.31432655453681946,-0.30371806025505066,-0.8848015069961548,-2.7393429279327393
222,26909,26906,-0.004047717433422804,0.04351315647363663,1.0427542924880981,3.3388404846191406,2.1350982189178467,-3.5254950523376465,0.5984050631523132,0.503798246383667,0.31421196460723877,-0.3137471377849579,-0.851306140422821,-2.7789270877838135
223,26919,26916,0.008442431688308716,0.020199798047542572,1.0185807943344116,3.1189534664154053,4.536127090454102,-2.7621636390686035,0.5992429256439209,0.5035142302513123,0.3141377568244934,-0.2771012783050537,-0.8161340355873108,-2.823014974594116
224,26929,26926,-0.0030656158924102783,0.029773803427815437,1.0313053131103516,1.9110980033874512,5.0304365158081055,-2.4234166145324707,0.5993638634681702,0.503257155418396,0.3119060695171356,-0.41161778569221497,-0.7949366569519043,-2.834824323654175
225,26939,26936,0.0015048085479065776,0.026491759344935417,1.0288583040237427,0.18330077826976776,6.04931116104126,-2.425239086151123,0.6011937260627747,0.503076434135437,0.3116605579853058,-0.5585252046585083,-0.7907230854034424,-2.8439645767211914
226,26949,26946,0.0059809028171002865,0.020464355126023293,1.0193020105361938,0.10824374109506607,5.885072231292725,-2.589694023132324,0.603151798248291,0.5029683709144592,0.3113691210746765,-0.5629768371582031,-0.8001055121421814,-2.8779237270355225
227,26959,26956,0.07821318507194519,0.00577750988304615,0.9853238463401794,1.430433988571167,3.60089373588562,-2.714369535446167,0.6035410761833191,0.5029302835464478,0.3118155598640442,-0.7031106948852539,-0.8091188669204712,-2.8906853199005127
228,26969,26966,0.025267403572797775,-0.011842325329780579,1.0222439765930176,3.8683693408966064,-0.007234817836433649,-2.714407205581665,0.605397641658783,0.5028356909751892,0.3115834593772888,-0.7868282794952393,-0.7853312492370605,-2.9087679386138916
229,26979,26976,0.006393712013959885,0.040392592549324036,1.0194306373596191,6.572295188903809,-3.151475191116333,-2.976334571838379,0.6069806814193726,0.5025508403778076,0.31136026978492737,-0.7346392869949341,-0.7132161855697632,-2.942323684692383
230,26989,26986,0.02197674848139286,-0.026706023141741753,0.9721679091453552,7.949479579925537,-6.624124050140381,-2.2863404750823975,0.6074795722961426,0.502055823802948,0.30976444482803345,-0.7015065550804138,-0.6112080216407776,-2.9684412479400635
231,26999,26996,0.020499147474765778,0.017203830182552338,1.026129961013794,7.583622455596924,-8.052011489868164,-1.832887053489685,0.6085523962974548,0.5014860033988953,0.3095482587814331,-0.5525572299957275,-0.6435773968696594,-3.0066282749176025
232,27009,27006,-0.041480254381895065,0.0014275431167334318,1.0366004705429077,7.884299278259277,-7.125421524047852,-1.3702272176742554,0.6088075041770935,0.5024860501289368,0.3094933032989502,-0.4022080600261688,-0.5054792165756226,-3.031980037689209
233,27019,27016,-0.04587528854608536,-0.08456787467002869,1.11107337474823,6.478046894073486,-5.705347061157227,-1.1006304025650024,0.608995258808136,0.50185227394104,0.30942070484161377,-0.4840840697288513,-0.4647864103317261,-3.022876501083374
234,27029,27026,0.007951274514198303,-0.05986223369836807,1.0270192623138428,4.043686866760254,0.7628268003463745,-1.7569217681884766,0.6116379499435425,0.502076268196106,0.30762094259262085,-0.4081548750400543,-0.4488997459411621,-3.040471315383911
235,27039,27036,0.009699493646621704,0.008156990632414818,1.0049405097961426,1.9997950792312622,2.9380719661712646,-1.6460691690444946,0.6124233603477478,0.5024942755699158,0.3075396716594696,-0.551110029220581,-0.3888205587863922,-3.041240692138672
236,27049,27046,0.02890157513320446,0.04632990434765816,1.0181337594985962,1.13178551197052,3.1093618869781494,-1.9995380640029907,0.6149325370788574,0.5022044777870178,0.30727681517601013,-0.5536631345748901,-0.35843124985694885,-3.060781240463257
237,27059,27056,-0.007179714273661375,0.024056119844317436,1.032854437828064,1.926085114479065,-0.04212503507733345,-2.0192625522613525,0.6160008311271667,0.5020950436592102,0.31029200553894043,-0.4693908393383026,-0.3357084393501282,-3.092090606689453
238,27069,27066,0.041300926357507706,-0.009879891760647297,1.0665966272354126,3.011223077774048,-4.85700798034668,-1.3488322496414185,0.6160377264022827,0.5019693970680237,0.31055259704589844,-0.5579993724822998,-0.2949692904949188,-3.1021745204925537
