,timestamp_start,timestamp_end,acc.x,acc.y,acc.z,gyro.x,gyro.y,gyro.z,stateEstimate.x,stateEstimate.y,stateEstimate.z,stabilizer.pitch,stabilizer.roll,stabilizer.yaw
0,36464,36462,0.00762488367035985,-0.1289670765399933,1.0702449083328247,25.70274543762207,-7.995625972747803,2.6143789291381836,1.717193365097046,3.8633241653442383,0.17771528661251068,-1.3162190914154053,-1.9621665477752686,2.9002344608306885
1,36474,36472,0.0008910922333598137,-0.13658684492111206,1.0231398344039917,32.376041412353516,-11.579591751098633,2.756432056427002,1.7189821004867554,3.8666961193084717,0.17861901223659515,-1.3525619506835938,-1.926435112953186,2.917609214782715
2,36484,36482,-0.009476542472839355,0.034041911363601685,1.0172386169433594,31.401994705200195,-10.669720649719238,2.7913849353790283,1.718162178993225,3.864278793334961,0.17963668704032898,-1.380205750465393,-1.5040981769561768,2.9778201580047607
3,36494,36492,0.007069598417729139,0.09767316281795502,1.034646987915039,24.58155059814453,-8.973052024841309,2.151430606842041,1.7210208177566528,3.867088794708252,0.1809539496898651,-1.3302322626113892,-1.2570953369140625,3.004713296890259
4,36504,36502,-0.015665708109736443,0.030226824805140495,1.05216646194458,15.551121711730957,-8.898921012878418,0.7399409413337708,1.7226353883743286,3.8700339794158936,0.18212008476257324,-1.2840291261672974,-1.1710526943206787,3.0036280155181885
5,36514,36512,-0.0003996581071987748,-0.020637117326259613,0.9984626770019531,7.227867126464844,-6.910315990447998,0.5301690697669983,1.7229753732681274,3.8712263107299805,0.18164120614528656,-1.2224055528640747,-1.1921882629394531,2.979545831680298
6,36524,36522,-0.008440034464001656,-0.0033836085349321365,1.071205973625183,3.400113105773926,-10.043106079101562,0.8514237403869629,1.725534439086914,3.873060464859009,0.18362846970558167,-1.1779265403747559,-0.9479743838310242,3.0241830348968506
7,36534,36532,-0.0007043724763207138,-0.06262413412332535,1.1262751817703247,4.905185222625732,-6.089865684509277,-0.9040588736534119,1.7236522436141968,3.8748700618743896,0.18513983488082886,-1.0828555822372437,-1.001928687095642,3.0112762451171875
8,36544,36542,0.008717871271073818,-0.05694675073027611,1.0201150178909302,8.61259651184082,-4.046219825744629,-1.7396116256713867,1.7242603302001953,3.8761146068573,0.18565447628498077,-1.1109201908111572,-1.0234657526016235,3.0026047229766846
9,36554,36552,0.005058875773102045,-0.016000373288989067,1.0303908586502075,14.717924118041992,-6.481710910797119,-1.064405918121338,1.7227928638458252,3.8772077560424805,0.18727634847164154,-1.00348699092865,-0.965611457824707,2.97615647315979
10,36564,36562,0.004535502754151821,-0.06016480177640915,1.0426030158996582,20.325927734375,-10.020123481750488,-0.8060421347618103,1.7214133739471436,3.8767151832580566,0.18932344019412994,-0.8915393352508545,-0.6825616359710693,2.9919965267181396
11,36574,36572,0.00907837226986885,-0.054394349455833435,1.1125752925872803,23.649507522583008,-12.018698692321777,-1.0465573072433472,1.7210302352905273,3.8773601055145264,0.1909140646457672,-0.8528680801391602,-0.6001377105712891,2.967068910598755
12,36584,36582,0.005423529073596001,-0.02194380760192871,1.1041027307510376,24.540821075439453,-12.688257217407227,-1.349218487739563,1.722448468208313,3.8781661987304688,0.1901695430278778,-0.841961681842804,-0.37207189202308655,2.96923565864563
13,36594,36592,-0.020831504836678505,0.05507376790046692,1.0111247301101685,21.99920654296875,-13.122859954833984,-1.5823270082473755,1.7229185104370117,3.8790979385375977,0.19212520122528076,-0.5984225869178772,-0.06399780511856079,2.958773136138916
14,36604,36602,0.015506057068705559,-0.004884287714958191,1.0324589014053345,17.697118759155273,-12.122669219970703,-1.5349050760269165,1.724086046218872,3.880413293838501,0.19383448362350464,-0.5723633170127869,0.048347003757953644,2.92878794670105
15,36614,36612,0.004030528012663126,-0.15312673151493073,1.069185733795166,11.964492797851562,-14.014636039733887,-2.168165922164917,1.7250590324401855,3.8825244903564453,0.19551768898963928,-0.42938417196273804,0.31685465574264526,2.9310030937194824
16,36624,36622,-0.04017594829201698,-0.04654989391565323,1.1188876628875732,8.062522888183594,-9.714005470275879,-2.838495969772339,1.7261160612106323,3.884768009185791,0.1975077986717224,-0.17468707263469696,0.48453983664512634,2.911701202392578
17,36634,36632,0.04636084660887718,-0.004300135187804699,0.9904713034629822,4.77323055267334,-7.7599992752075195,-3.080662488937378,1.7274419069290161,3.887401580810547,0.19946932792663574,-0.15241700410842896,0.28088241815567017,2.837554931640625
18,36644,36642,0.03895648568868637,-0.05600675940513611,1.0082892179489136,3.882412910461426,-4.615850448608398,-3.305851459503174,1.7280607223510742,3.8876447677612305,0.20285286009311676,-0.11342104524374008,0.4258739948272705,2.820249319076538
19,36654,36652,-0.013788961805403233,-0.09687093645334244,1.0504752397537231,6.333723068237305,-6.321009635925293,-3.297818899154663,1.7292577028274536,3.8880271911621094,0.20488551259040833,-0.22292731702327728,0.40803736448287964,2.7752597332000732
20,36664,36662,-0.00655893562361598,-0.004446169827133417,1.0409939289093018,8.583158493041992,-7.278750896453857,-3.566512107849121,1.7294418811798096,3.8893823623657227,0.20712342858314514,-0.12855510413646698,0.5134668350219727,2.7487995624542236
21,36674,36672,0.010701890103518963,0.11157949268817902,0.9829243421554565,12.160822868347168,-9.319520950317383,-3.3990209102630615,1.7297687530517578,3.890162467956543,0.20952847599983215,0.07870055735111237,0.735670804977417,2.7354202270507812
22,36684,36682,0.005077487323433161,0.12418192625045776,1.0207600593566895,13.549155235290527,-11.092720031738281,-3.345329761505127,1.7296384572982788,3.891439437866211,0.21083636581897736,0.2740526795387268,0.8295554518699646,2.707785129547119
23,36694,36692,0.0492384135723114,-0.03343018516898155,0.9822505712509155,12.876378059387207,-10.888874053955078,-3.3834047317504883,1.7291018962860107,3.892230987548828,0.2129487842321396,0.4737629294395447,0.9414113163948059,2.681178569793701
24,36704,36702,-0.003746288362890482,-0.14356257021427155,1.0103387832641602,10.664644241333008,-8.331707000732422,-4.003512859344482,1.7294456958770752,3.892000913619995,0.21518099308013916,0.5236616730690002,1.122805118560791,2.6419551372528076
25,36714,36712,-0.016911720857024193,-0.14596021175384521,0.9996287226676941,7.899454593658447,-5.055787086486816,-4.388429641723633,1.7289913892745972,3.8927454948425293,0.21691273152828217,0.5276339054107666,1.1816794872283936,2.590336799621582
26,36724,36722,0.022110145539045334,0.027367159724235535,0.9998841881752014,4.4694061279296875,-0.18411198258399963,-4.936994552612305,1.7297470569610596,3.8930447101593018,0.21910545229911804,0.5411327481269836,1.2711118459701538,2.54167103767395
27,36734,36732,0.004802842624485493,0.01495739258825779,0.9977733492851257,1.3751978874206543,1.6200231313705444,-5.347308158874512,1.729660153388977,3.8928465843200684,0.22125957906246185,0.5755448341369629,1.370398998260498,2.4980578422546387
28,36744,36742,0.005003103520721197,-0.012035733088850975,0.9744662046432495,-1.2178488969802856,2.0170490741729736,-6.016200542449951,1.7293843030929565,3.8924269676208496,0.22526335716247559,0.5809534192085266,1.4859954118728638,2.446851968765259
29,36754,36752,-0.010567658580839634,0.0010099210776388645,0.9804204106330872,-2.083387613296509,1.3640048503875732,-6.110082149505615,1.729332447052002,3.8928029537200928,0.22751905024051666,0.5799681544303894,1.3942078351974487,2.3931798934936523
30,36764,36762,0.005836719647049904,-0.018373753875494003,0.9551699161529541,-2.6690149307250977,-0.10334546864032745,-6.5257344245910645,1.729933500289917,3.892852306365967,0.2297486662864685,0.5071660876274109,1.4451401233673096,2.3202128410339355
31,36774,36772,0.005413657054305077,-0.03899439796805382,0.9608613848686218,-2.1097922325134277,-2.1056036949157715,-6.447813034057617,1.7298635244369507,3.8928747177124023,0.23193895816802979,0.5425241589546204,1.4790453910827637,2.2612130641937256
32,36784,36782,-0.04634638875722885,0.0870283916592598,0.9731606245040894,-1.2498979568481445,-3.3013267517089844,-6.570860862731934,1.7310680150985718,3.894965887069702,0.23467841744422913,0.45228084921836853,1.353406310081482,2.1719226837158203
33,36794,36792,-0.03356926515698433,0.06235678493976593,0.9504734873771667,0.3198510408401489,-3.545595169067383,-7.111339569091797,1.7295043468475342,3.8929545879364014,0.2369077503681183,0.6382476687431335,1.5637762546539307,2.129774570465088
34,36804,36802,-0.006736325100064278,-0.030212031677365303,0.9603188037872314,0.15158361196517944,-5.419966220855713,-6.800930976867676,1.7267652750015259,3.893033981323242,0.2392037957906723,0.5979570746421814,1.0704001188278198,2.0664188861846924
35,36814,36812,0.011287887580692768,-0.03047771565616131,0.955062210559845,0.24148717522621155,-4.450994491577148,-6.447570323944092,1.7249342203140259,3.8931102752685547,0.2405380755662918,0.6352255940437317,1.0935121774673462,1.9930405616760254
36,36824,36822,0.0013576204655691981,-0.02546011470258236,0.9701098799705505,1.1307201385498047,-3.043936252593994,-6.282688140869141,1.723211407661438,3.89321231842041,0.2427762895822525,0.7374586462974548,1.195050597190857,1.9267247915267944
37,36834,36832,-0.011260502971708775,-0.010411346331238747,0.96500563621521,3.392778158187866,0.03069113753736019,-5.635174751281738,1.7256237268447876,3.8923754692077637,0.24481894075870514,0.5550117492675781,1.301505446434021,1.8121888637542725
38,36844,36842,-0.019629696384072304,-0.011395659297704697,0.9488478302955627,4.926346778869629,1.5294519662857056,-5.155622482299805,1.7261382341384888,3.892751693725586,0.24881233274936676,0.5819330811500549,1.2726247310638428,1.767859935760498
39,36854,36852,-0.0038010638672858477,-0.026774290949106216,0.9348735809326172,4.504059791564941,1.1487209796905518,-4.662806987762451,1.7267787456512451,3.8922951221466064,0.25082093477249146,0.587546706199646,1.3450547456741333,1.7200158834457397
40,36864,36862,0.008512395434081554,-0.025073841214179993,0.9405466914176941,2.396604299545288,1.1052066087722778,-4.538415908813477,1.7266530990600586,3.892184019088745,0.2527850270271301,0.589536726474762,1.4734992980957031,1.6715826988220215
41,36874,36872,0.005943221505731344,-0.006092974916100502,0.9605897068977356,1.0700197219848633,1.1220370531082153,-4.809447765350342,1.7273284196853638,3.8915481567382812,0.25234124064445496,0.5832560658454895,1.5587389469146729,1.6235008239746094
42,36884,36882,-0.08952838182449341,-0.0769454762339592,1.0167667865753174,-3.0956735610961914,-1.0712997913360596,-4.83535099029541,1.725842833518982,3.8921778202056885,0.2541065514087677,0.7953090667724609,1.5365561246871948,1.6239033937454224
43,36894,36892,-0.03511110320687294,0.01139234472066164,0.9933982491493225,-5.583460330963135,1.076888918876648,-4.886794567108154,1.725780963897705,3.893148899078369,0.2557736337184906,0.7998800277709961,1.5160987377166748,1.575203537940979
44,36904,36902,-0.1068304255604744,-0.05351218208670616,1.043819785118103,-8.038787841796875,2.320324182510376,-4.878637790679932,1.723754644393921,3.895183801651001,0.2573860287666321,0.8278787732124329,1.4588960409164429,1.5415499210357666
45,36914,36912,-0.11637367308139801,-0.08407188951969147,1.0508441925048828,-8.008727073669434,4.2982635498046875,-4.673556327819824,1.7236342430114746,3.8965110778808594,0.2598588764667511,0.9027463793754578,1.3651937246322632,1.5128583908081055
46,36924,36922,-0.09000620990991592,-0.0871969610452652,1.0271672010421753,-8.85342025756836,7.3153076171875,-4.504537105560303,1.7267060279846191,3.8960835933685303,0.2616683840751648,0.6994778513908386,1.4163353443145752,1.4123073816299438
47,36934,36932,-0.0663185566663742,-0.0980948954820633,1.002659559249878,-7.642322063446045,7.97919225692749,-4.0037617683410645,1.7247109413146973,3.89683198928833,0.26346325874328613,0.7771943807601929,1.2091728448867798,1.4106377363204956
48,36944,36942,-0.05561208724975586,-0.1026332825422287,0.980781078338623,-6.689583778381348,7.675022125244141,-4.3678507804870605,1.7244023084640503,3.896679162979126,0.26877570152282715,0.7439972758293152,1.2572801113128662,1.364341139793396
49,36954,36952,-0.012859405018389225,0.014053980819880962,0.9548349380493164,-4.843922138214111,8.064044952392578,-4.001226425170898,1.7251800298690796,3.8978769779205322,0.27085474133491516,0.5042518973350525,1.0057350397109985,1.307709813117981
50,36964,36962,-0.029192447662353516,-0.029987270012497902,0.9601987600326538,-4.801636695861816,6.278564453125,-3.447157859802246,1.7247791290283203,3.89343523979187,0.2729473412036896,0.610889732837677,1.5343810319900513,1.251145601272583
51,36974,36972,-0.02558993175625801,-0.07634937018156052,0.9280014038085938,-3.1712474822998047,3.383519411087036,-3.267364501953125,1.7235593795776367,3.8955695629119873,0.2686142921447754,0.639438271522522,1.1929842233657837,1.2630653381347656
52,36984,36982,-0.012185672298073769,-0.07909790426492691,0.9122578501701355,-6.11722469329834,1.581378698348999,-3.5673558712005615,1.7228387594223022,3.896165609359741,0.2701808214187622,0.6159158945083618,1.103428602218628,1.2338690757751465
53,36994,36992,0.020788872614502907,-0.048880692571401596,0.9043196439743042,-8.784357070922852,2.805347442626953,-3.0262510776519775,1.7245362997055054,3.8969125747680664,0.2715577185153961,0.5275652408599854,0.9670541882514954,1.1924738883972168
54,37004,37002,0.010088881477713585,-0.002854056190699339,0.9247806072235107,-9.074167251586914,3.141356945037842,-3.234060764312744,1.7284047603607178,3.8953185081481934,0.27291086316108704,0.15338048338890076,1.037920355796814,1.0812039375305176
55,37014,37012,0.019792785868048668,-0.017946545034646988,0.9146538972854614,-9.942962646484375,3.95088791847229,-3.0587685108184814,1.7294198274612427,3.8959970474243164,0.2747677266597748,0.028062621131539345,0.8592656850814819,1.0411162376403809
56,37024,37022,0.07069786638021469,-0.06168591231107712,0.85151606798172,-8.8939790725708,3.3367135524749756,-2.788109302520752,1.7262567281723022,3.8973286151885986,0.2762054204940796,0.3701476454734802,0.594758152961731,1.0931345224380493
57,37034,37032,0.07531741261482239,-0.059067320078611374,0.8420688509941101,-7.512622833251953,-0.15407073497772217,-3.160130023956299,1.7278985977172852,3.8980460166931152,0.27727532386779785,0.11314410716295242,0.44370633363723755,1.0302659273147583
58,37044,37042,0.09039793908596039,-0.037405889481306076,0.8526651263237,-4.324301719665527,-0.3447510302066803,-2.6202259063720703,1.7281734943389893,3.8985066413879395,0.2797316014766693,0.05588923394680023,0.40412789583206177,0.9927241802215576
59,37054,37052,0.0955774337053299,-0.003621813375502825,0.8762787580490112,-0.994136393070221,-1.0690035820007324,-2.525411605834961,1.72938871383667,3.8973217010498047,0.2804737985134125,-0.07089632004499435,0.3451137840747833,0.9521830677986145
60,37064,37062,0.07282286882400513,0.045116525143384933,0.9128376841545105,0.6270741820335388,-2.458812713623047,-2.4057250022888184,1.7277997732162476,3.8969099521636963,0.28121688961982727,0.057098157703876495,0.33770135045051575,0.9425537586212158
61,37074,37072,0.04122050479054451,0.09169446676969528,0.9493736624717712,2.0081491470336914,-4.065521717071533,-2.5019428730010986,1.7290955781936646,3.8954992294311523,0.2806990146636963,0.05480191484093666,0.42874690890312195,0.9140591025352478
62,37084,37082,-0.025503581389784813,0.0204395093023777,0.9874997735023499,1.3006296157836914,-3.8331210613250732,-2.3038926124572754,1.7291313409805298,3.895559072494507,0.2810916602611542,0.12780331075191498,0.4483702480792999,0.8916773796081543
63,37094,37092,-0.01176078338176012,0.020349591970443726,0.9708817005157471,-1.4944543838500977,-2.214588165283203,-2.305278778076172,1.7321693897247314,3.8959085941314697,0.28144511580467224,-0.0029842585790902376,0.45436859130859375,0.8564584255218506
64,37104,37102,0.0011061695404350758,0.006436746567487717,0.9575107097625732,-4.478958606719971,-1.9676218032836914,-2.6471974849700928,1.731001853942871,3.8907129764556885,0.28113022446632385,0.09903358668088913,0.8509321808815002,0.83775794506073
65,37114,37112,0.0003440729633439332,-0.021863820031285286,0.9745162129402161,-10.215675354003906,-0.07605073601007462,-2.314443826675415,1.7312408685684204,3.8954732418060303,0.28185364603996277,0.11839297413825989,0.3341781795024872,0.8129892945289612
66,37124,37122,-0.007227042689919472,-0.09200666844844818,0.9651386141777039,-14.141379356384277,1.8578218221664429,-2.8076839447021484,1.7297230958938599,3.893742084503174,0.282103955745697,0.19181853532791138,0.3593169152736664,0.7930979132652283
67,37134,37132,0.019713273271918297,-0.036010149866342545,0.9732045531272888,-14.750147819519043,2.3567819595336914,-3.1235523223876953,1.7299134731292725,3.8950750827789307,0.28229114413261414,0.21862873435020447,0.1677933633327484,0.7668907046318054
68,37144,37142,0.0011610111687332392,-0.04070272296667099,0.9840435981750488,-12.323209762573242,2.9691081047058105,-2.9897332191467285,1.7328157424926758,3.891615629196167,0.2803230583667755,0.00815992895513773,0.35602855682373047,0.7252693772315979
69,37154,37152,-0.018464449793100357,-0.028284428641200066,0.964137852191925,-9.736001968383789,3.190941095352173,-2.4765892028808594,1.733138918876648,3.890651226043701,0.2803249657154083,-0.06308333575725555,0.24797306954860687,0.6953935027122498
70,37164,37162,0.038837730884552,-0.013216296210885048,0.9862040281295776,-8.229494094848633,1.3340758085250854,-2.2736124992370605,1.733745813369751,3.8911514282226562,0.2803390920162201,-0.09603186696767807,0.1094498336315155,0.6702194809913635
71,37174,37172,-0.025183821097016335,-0.0014669516822323203,1.033103585243225,-7.704098701477051,0.011347964406013489,-2.192887544631958,1.7327297925949097,3.890659809112549,0.2826603055000305,0.043615106493234634,0.06807120889425278,0.6528387069702148
72,37184,37182,0.006527423392981291,-0.018458431586623192,1.0597598552703857,-6.828042984008789,-1.9395811557769775,-1.8193527460098267,1.7313873767852783,3.890806198120117,0.282803475856781,0.20893177390098572,-0.04291011765599251,0.6363615393638611
73,37194,37192,-0.012001060880720615,-0.08637262135744095,1.0681194067001343,-6.586883544921875,-0.14082054793834686,-1.356693148612976,1.7312910556793213,3.890113353729248,0.28297558426856995,0.25212907791137695,-0.05858521908521652,0.622998833656311
74,37204,37202,-0.017920134589076042,-0.06779547780752182,1.0676456689834595,-8.114906311035156,12.035566329956055,-1.2141436338424683,1.7305554151535034,3.889763593673706,0.28389424085617065,0.21185891330242157,-0.15342597663402557,0.6088696122169495
75,37214,37212,0.01591266319155693,0.0538451187312603,0.9737793803215027,-8.78857135772705,21.425460815429688,-1.0976976156234741,1.7319287061691284,3.8886868953704834,0.28430047631263733,-0.0710921660065651,-0.20343835651874542,0.5965643525123596
76,37224,37222,-0.007245659828186035,0.11569717526435852,0.9978079199790955,-10.528763771057129,27.968782424926758,-1.0814241170883179,1.7336055040359497,3.8890316486358643,0.284715861082077,-0.49780625104904175,-0.4202401638031006,0.5819180011749268
77,37234,37232,0.019238537177443504,-0.0019301335560157895,0.9999075531959534,-9.483832359313965,26.232614517211914,-1.0272997617721558,1.7314817905426025,3.887598752975464,0.28523239493370056,-0.5806540250778198,-0.41923683881759644,0.5661969184875488
78,37244,37242,-0.0020138565450906754,-0.2063952535390854,1.0728942155838013,-6.907684803009033,22.969867706298828,-0.7085373401641846,1.7321770191192627,3.886082887649536,0.2876339256763458,-0.9413948059082031,-0.4786425530910492,0.5633364915847778
79,37254,37252,-0.022601185366511345,-0.21664981544017792,1.077673077583313,-5.049037456512451,16.89714813232422,-0.7918013334274292,1.729129433631897,3.885841131210327,0.28840118646621704,-0.9311579465866089,-0.5680383443832397,0.5389275550842285
80,37264,37262,-0.027106832712888718,-0.023742901161313057,1.059545874595642,-2.826899290084839,11.214731216430664,-0.8010277152061462,1.7299877405166626,3.8860814571380615,0.28901809453964233,-1.2020814418792725,-0.69573974609375,0.5317999720573425
81,37274,37272,0.01882314495742321,0.012606320902705193,0.998336672782898,-0.16760872304439545,6.00612211227417,-0.644719660282135,1.731128454208374,3.8857805728912354,0.2868175506591797,-1.3618570566177368,-0.7721467614173889,0.523202121257782
82,37284,37282,0.036214329302310944,-0.09897641092538834,0.9877277612686157,1.1747058629989624,2.477893114089966,-0.2430032342672348,1.7301442623138428,3.88554310798645,0.28747183084487915,-1.3005905151367188,-0.6560792922973633,0.5209967494010925
83,37294,37292,0.07076866924762726,-0.004564086440950632,1.0083487033843994,1.7851625680923462,-1.295331358909607,0.6163912415504456,1.7313220500946045,3.885385274887085,0.2880203425884247,-1.3222339153289795,-0.6786707043647766,0.519578754901886
84,37304,37302,0.07501495629549026,-0.0484837144613266,1.0039863586425781,0.9161244034767151,-1.3188858032226562,0.2378205955028534,1.7308648824691772,3.8841094970703125,0.289551705121994,-1.320075273513794,-0.6238598227500916,0.5311053991317749
85,37314,37312,0.038866981863975525,-0.01629001460969448,0.9888455271720886,-0.9494693875312805,0.7005302309989929,0.2626957297325134,1.7303019762039185,3.8848328590393066,0.29020124673843384,-1.3081799745559692,-0.6645120978355408,0.5266398787498474
86,37324,37322,-0.023616161197423935,-0.005943287163972855,1.0127029418945312,-3.5086371898651123,3.1286568641662598,0.33016714453697205,1.7295846939086914,3.883185863494873,0.29078295826911926,-1.3269215822219849,-0.7279134392738342,0.5209031105041504
87,37334,37332,-0.010506154969334602,0.01361559797078371,1.0081517696380615,-4.697390556335449,5.918814659118652,0.049114130437374115,1.7302354574203491,3.882303476333618,0.29137539863586426,-1.3891679048538208,-0.751743733882904,0.5270704030990601
88,37344,37342,0.040651582181453705,-0.09888143837451935,0.9863955974578857,-4.620932579040527,7.046819686889648,-0.3528733551502228,1.7296874523162842,3.8812856674194336,0.2903102934360504,-1.4075061082839966,-0.7952407598495483,0.522739052772522
89,37354,37352,-0.023429779335856438,0.032847657799720764,1.003597617149353,-3.2712740898132324,6.779103755950928,-1.1560897827148438,1.7289330959320068,3.879265069961548,0.2908061444759369,-1.4579923152923584,-0.7495432496070862,0.5262529850006104
90,37364,37362,-0.024509917944669724,0.118733711540699,0.9809357523918152,-0.9590811133384705,5.7793121337890625,-1.3831762075424194,1.7280291318893433,3.8792901039123535,0.29140719771385193,-1.419647455215454,-0.8356162309646606,0.484062135219574
91,37374,37372,-0.008649284951388836,-0.01753605529665947,0.9876506924629211,2.01184344291687,5.086966514587402,-1.6048320531845093,1.7279026508331299,3.8780837059020996,0.29027462005615234,-1.5195108652114868,-0.8755270838737488,0.46727216243743896
92,37384,37382,0.011230366304516792,-0.05465392395853996,0.9872970581054688,3.7735633850097656,6.063328266143799,-1.3407953977584839,1.7288562059402466,3.878208875656128,0.2906198501586914,-1.6209121942520142,-0.8693550825119019,0.4564763605594635
93,37394,37392,-0.010286308825016022,0.06344693899154663,0.9867974519729614,4.525714874267578,5.004389762878418,-1.7398560047149658,1.7288011312484741,3.8771510124206543,0.2909644842147827,-1.7099233865737915,-0.8166447281837463,0.44399723410606384
94,37404,37402,-0.025482013821601868,-0.06222396343946457,1.0106866359710693,4.236478805541992,4.775915145874023,-1.1157453060150146,1.7275935411453247,3.87697696685791,0.29164108633995056,-1.7093526124954224,-0.762250542640686,0.42087456583976746
95,37414,37412,-0.03423662856221199,-0.07651925832033157,1.0474332571029663,4.17711877822876,3.0534653663635254,-1.0874650478363037,1.7275514602661133,3.8763461112976074,0.29203683137893677,-1.7534654140472412,-0.7043994069099426,0.4140061140060425
96,37424,37422,-0.10849794000387192,0.05314655974507332,1.0456342697143555,3.1752583980560303,-1.1474838256835938,-1.2178775072097778,1.7275959253311157,3.875936269760132,0.29243066906929016,-1.7295957803726196,-0.6538057327270508,0.40182361006736755
97,37434,37432,-0.005627398379147053,-0.039565153419971466,1.0076178312301636,2.4707069396972656,0.9209171533584595,-1.3098872900009155,1.7270433902740479,3.875216007232666,0.2932203710079193,-1.7266377210617065,-0.6341485977172852,0.3846604526042938
98,37444,37442,0.04263724386692047,0.06454431265592575,0.9802950024604797,0.787894070148468,-0.24698488414287567,-1.2962658405303955,1.727213978767395,3.8750154972076416,0.29374632239341736,-1.6693427562713623,-0.6222994327545166,0.36678260564804077
99,37454,37452,-0.043561287224292755,-0.006050161551684141,0.9955134987831116,2.1175084114074707,0.03872360661625862,-1.256826639175415,1.727320671081543,3.8755030632019043,0.294279009103775,-1.6528098583221436,-0.6212437152862549,0.3445420265197754
100,37464,37462,0.04995010420680046,-0.0036481500137597322,0.9966937899589539,2.0470693111419678,1.1942332983016968,-0.6827836036682129,1.726973533630371,3.8758773803710938,0.2948245108127594,-1.6435691118240356,-0.6916402578353882,0.3142539858818054
101,37474,37472,-0.012663543224334717,-0.014661469496786594,0.9988576769828796,3.225170373916626,1.7481355667114258,-0.8695999383926392,1.7262933254241943,3.8758232593536377,0.29661691188812256,-1.5743789672851562,-0.6512671709060669,0.2957143187522888
102,37484,37482,-0.0015487539349123836,0.008377700112760067,0.9873653054237366,4.724917888641357,2.103128671646118,-0.8265535831451416,1.7290161848068237,3.8765289783477783,0.29713377356529236,-1.8241430521011353,-0.670330286026001,0.30588892102241516
103,37494,37492,0.0005843766266480088,-0.009260326623916626,0.9715474843978882,5.930049896240234,1.1189812421798706,-1.4246364831924438,1.7293920516967773,3.8765337467193604,0.2977229058742523,-1.8280199766159058,-0.5756314992904663,0.2984803318977356
104,37504,37502,-0.014161660335958004,0.005376776214689016,1.0036718845367432,6.7979865074157715,-1.8101508617401123,-1.9418865442276,1.7293680906295776,3.8768486976623535,0.29609230160713196,-1.779700756072998,-0.5404298901557922,0.2663915753364563
105,37514,37512,0.001458606799133122,0.0018540744204074144,0.9808907508850098,6.051644325256348,-3.182807207107544,-1.9614710807800293,1.7307575941085815,3.8773033618927,0.2964293360710144,-1.841809868812561,-0.5039097666740417,0.2523575723171234
106,37524,37522,0.01269435603171587,-0.038094501942396164,0.944107174873352,5.672393321990967,-8.934090614318848,-2.74455189704895,1.7302699089050293,3.8767993450164795,0.29684901237487793,-1.7626456022262573,-0.39862293004989624,0.239354208111763
107,37534,37532,-0.0019778585992753506,0.010783648118376732,0.9933853149414062,3.4312868118286133,-12.745670318603516,-2.7893643379211426,1.7315865755081177,3.876600980758667,0.29872727394104004,-1.6802279949188232,-0.3137202560901642,0.22623908519744873
108,37544,37542,-0.03475680574774742,-0.14640147984027863,0.9951184391975403,2.2795746326446533,-14.881573677062988,-2.671130895614624,1.731216311454773,3.8754348754882812,0.29919230937957764,-1.459669828414917,-0.26596686244010925,0.1939036101102829
109,37554,37552,0.0071451663970947266,-0.21894872188568115,0.9810197949409485,1.7228411436080933,-14.44218635559082,-2.611041784286499,1.7314475774765015,3.876030206680298,0.2996498942375183,-1.250036597251892,-0.24022676050662994,0.16212041676044464
110,37564,37562,-0.03806823864579201,-0.23907004296779633,0.9938189387321472,1.7755557298660278,-9.177043914794922,-2.7769176959991455,1.7305439710617065,3.875403881072998,0.3001110255718231,-1.008038878440857,-0.2111523300409317,0.12264600396156311
111,37574,37572,-0.022638393566012383,-0.23320621252059937,1.025210976600647,2.739042043685913,-1.03205144405365,-2.485860824584961,1.7361818552017212,3.875699043273926,0.2999546527862549,-1.4141123294830322,-0.1711149364709854,0.145460307598114
112,37584,37582,-0.034717779606580734,-0.17606684565544128,0.973567545413971,4.411154747009277,6.371172904968262,-1.8445141315460205,1.7362595796585083,3.8755431175231934,0.30040645599365234,-1.3634508848190308,-0.11526492983102798,0.1208326667547226
113,37594,37592,-0.07024755328893661,-0.2324630171060562,1.0291367769241333,3.128480911254883,5.800093650817871,-2.0121066570281982,1.735972285270691,3.874225616455078,0.3008110225200653,-1.3482860326766968,-0.049286190420389175,0.09948820620775223
114,37604,37602,-0.10234612226486206,-0.2740633189678192,1.0113664865493774,0.6268751621246338,1.4749350547790527,-2.1703555583953857,1.7359209060668945,3.8737170696258545,0.30352169275283813,-1.2980537414550781,-0.012243119068443775,0.07795477658510208
115,37614,37612,-0.04694212228059769,-0.038475651293992996,0.97332364320755,-3.0517776012420654,-5.290430068969727,-2.810023069381714,1.7354847192764282,3.8732874393463135,0.3041316866874695,-1.1728845834732056,-0.040475405752658844,0.04568248987197876
116,37624,37622,0.009323104284703732,0.012120378203690052,0.9746865034103394,-6.198707580566406,-10.904046058654785,-3.5238900184631348,1.7360203266143799,3.8739640712738037,0.3047475218772888,-1.0568830966949463,-0.1281454712152481,0.004457238130271435
117,37634,37632,-0.0026955977082252502,-0.03155692666769028,0.9744691252708435,-6.558487892150879,-14.669421195983887,-4.560258865356445,1.73538339138031,3.8759756088256836,0.3051609396934509,-0.9260066747665405,-0.24425390362739563,-0.04602751508355141
118,37644,37642,0.021733682602643967,-0.060318056493997574,0.998656690120697,-3.2280356884002686,-14.90585708618164,-5.491959095001221,1.7341128587722778,3.8755857944488525,0.3057205080986023,-0.604798436164856,-0.33169180154800415,-0.113641157746315
119,37654,37652,-0.05482925474643707,0.04947851598262787,1.0082682371139526,1.68399178981781,-12.245097160339355,-6.315700054168701,1.7346822023391724,3.8756604194641113,0.30621337890625,-0.4542858302593231,-0.3450205326080322,-0.1767633557319641
120,37664,37662,-0.06861311197280884,0.0510779470205307,1.0128893852233887,7.208991527557373,-4.165388584136963,-5.731056213378906,1.7360680103302002,3.874554395675659,0.30675050616264343,-0.40793803334236145,-0.25679314136505127,-0.2286299467086792
121,37674,37672,-0.013418956659734249,-0.01249709166586399,0.9962887167930603,12.593226432800293,2.301328182220459,-5.764989852905273,1.738705039024353,3.874016046524048,0.30784693360328674,-0.6315547823905945,-0.09771283715963364,-0.2664922773838043
122,37684,37682,-0.009682338684797287,-0.006357272621244192,1.0041087865829468,15.990687370300293,7.651354789733887,-5.976235866546631,1.7398830652236938,3.8741679191589355,0.3083901107311249,-0.7039422988891602,-0.017100775614380836,-0.3330129384994507
123,37694,37692,-0.02505754865705967,-0.0006209299899637699,0.9879359006881714,17.840959548950195,9.656575202941895,-5.215057849884033,1.740769624710083,3.8729121685028076,0.30897608399391174,-0.7672234773635864,0.27129602432250977,-0.3775979280471802
124,37704,37702,-0.02840014360845089,0.010459255427122116,0.9659395813941956,17.949068069458008,7.964262962341309,-3.409985065460205,1.7419487237930298,3.8721296787261963,0.3065870404243469,-0.9237502813339233,0.4880015552043915,-0.41346704959869385
125,37714,37712,0.006126778200268745,0.009517966769635677,0.9727547764778137,14.921216011047363,4.266984462738037,-1.8905390501022339,1.742844820022583,3.872101068496704,0.30695030093193054,-0.9594496488571167,0.6891697645187378,-0.43885087966918945
126,37724,37722,-0.0460808239877224,0.002392626367509365,0.9676675796508789,7.579446792602539,-1.024943232536316,-0.6192771196365356,1.7425202131271362,3.871096134185791,0.3072870373725891,-0.9260363578796387,0.8768584728240967,-0.4450584053993225
127,37734,37732,0.048446882516145706,0.10087282955646515,0.9382703900337219,-3.549610137939453,-3.7295899391174316,0.5038996934890747,1.7431317567825317,3.8723671436309814,0.3064502477645874,-0.87978595495224,0.8132481575012207,-0.45094460248947144
128,37744,37742,0.0425911545753479,0.041623592376708984,0.929106593132019,-11.761719703674316,-10.528531074523926,1.338099718093872,1.7440851926803589,3.8731510639190674,0.3066573143005371,-0.8275125622749329,0.600419819355011,-0.45510903000831604
129,37754,37752,-0.0005051713087595999,-0.0629330575466156,0.9416679739952087,-17.032581329345703,-15.424508094787598,1.4325337409973145,1.7439470291137695,3.8732049465179443,0.30682867765426636,-0.593690812587738,0.42553022503852844,-0.44030267000198364
130,37764,37762,0.039974845945835114,-0.03459222987294197,0.9277371168136597,-15.329911231994629,-17.292177200317383,1.1434663534164429,1.7435559034347534,3.873044490814209,0.3068602681159973,-0.39413365721702576,0.13180238008499146,-0.4384330213069916
131,37774,37772,0.0018947459757328033,0.019136760383844376,1.0057625770568848,-7.487669944763184,-18.745254516601562,1.4619379043579102,1.7458540201187134,3.8724513053894043,0.3071487843990326,-0.37740758061408997,0.08518286049365997,-0.4274429678916931
132,37784,37782,-0.06338267773389816,-0.013322444632649422,1.0752441883087158,2.1566479206085205,-11.582110404968262,1.4322748184204102,1.7466622591018677,3.872534990310669,0.3071281909942627,-0.21573767066001892,0.038688141852617264,-0.4128051996231079
133,37794,37792,0.008333198726177216,-0.005466578993946314,0.9885902404785156,9.707566261291504,-5.935949325561523,1.7865030765533447,1.748763084411621,3.872126817703247,0.3069939911365509,-0.29281526803970337,0.1309797614812851,-0.4028501510620117
134,37804,37802,0.022298192605376244,-0.02190941944718361,0.998305082321167,14.915653228759766,-4.614348411560059,1.6365141868591309,1.7491405010223389,3.87191104888916,0.308442085981369,-0.14233247935771942,0.3375644385814667,-0.38129693269729614
135,37814,37812,0.026737546548247337,0.01683296263217926,1.0012898445129395,16.705984115600586,-4.3298420906066895,2.7982656955718994,1.7490715980529785,3.8713321685791016,0.3086163401603699,0.0324135422706604,0.5971457958221436,-0.3561150133609772
136,37824,37822,0.07141567021608353,-0.022946815937757492,0.9446830749511719,14.731167793273926,-4.0346808433532715,4.263883113861084,1.7490206956863403,3.870427131652832,0.3086995780467987,0.10922525823116302,0.775120735168457,-0.3208322823047638
137,37834,37832,0.11651167273521423,0.020568517968058586,0.9453440308570862,6.450917720794678,-0.733551561832428,6.227838039398193,1.7485538721084595,3.870095729827881,0.31018444895744324,0.2012031078338623,0.9392730593681335,-0.26257961988449097
138,37844,37842,-0.007813533768057823,-0.019732996821403503,0.9964728951454163,-3.2778117656707764,1.4560555219650269,7.332590103149414,1.7502386569976807,3.8709938526153564,0.3104538321495056,0.11648043990135193,0.7966189384460449,-0.19511942565441132
139,37854,37852,0.07973474264144897,-0.08806301653385162,0.9753159880638123,-9.809459686279297,2.5337271690368652,8.337818145751953,1.750396728515625,3.870929718017578,0.31056398153305054,0.05420102924108505,0.7404733300209045,-0.11952552944421768
140,37864,37862,0.05906088277697563,-0.040670763701200485,0.9711660146713257,-12.24059009552002,2.8437235355377197,9.712517738342285,1.7514042854309082,3.871614694595337,0.31045618653297424,-0.0010293732630088925,0.5327565670013428,-0.028086969628930092
141,37874,37872,0.017173800617456436,0.008989996276795864,0.9412969946861267,-11.220056533813477,2.8369085788726807,10.211982727050781,1.75251305103302,3.870495080947876,0.3104954659938812,-0.059582050889730453,0.5501154065132141,0.0635121613740921
142,37884,37882,0.018158279359340668,0.015457087196409702,0.9511387348175049,-10.835826873779297,3.5899741649627686,10.41322135925293,1.755764365196228,3.8702328205108643,0.31033992767333984,-0.3630063533782959,0.39461198449134827,0.1569727212190628
143,37894,37892,0.03396167978644371,0.0013628529850393534,0.9536186456680298,-8.25519847869873,1.6493113040924072,10.246248245239258,1.7545636892318726,3.868792772293091,0.31043893098831177,-0.2647346556186676,0.3731878697872162,0.15981057286262512
144,37904,37902,0.059890568256378174,-0.016014432534575462,0.9537524580955505,-4.3368916511535645,-2.0464956760406494,10.03325366973877,1.7546133995056152,3.8690359592437744,0.3106471300125122,-0.17222124338150024,0.2844870984554291,0.27201974391937256
145,37914,37912,-0.027433255687355995,-0.03145979717373848,1.0178873538970947,-1.1722923517227173,-8.265254974365234,9.280770301818848,1.7566827535629272,3.867833137512207,0.31033754348754883,-0.34424111247062683,0.25207769870758057,0.36798545718193054
146,37924,37922,-0.036659445613622665,-0.05615875497460365,1.0174674987792969,-0.9231864213943481,-8.214982032775879,8.906943321228027,1.7554233074188232,3.867168426513672,0.310512512922287,-0.014473461546003819,0.2776881456375122,0.47665560245513916
147,37934,37932,0.020786425098776817,-0.029434092342853546,1.0228314399719238,-4.148279666900635,-5.663054943084717,7.1808977127075195,1.7560217380523682,3.8666083812713623,0.30781427025794983,0.05976535752415657,0.220057412981987,0.5685359239578247
148,37944,37942,0.00985272228717804,0.05823969095945358,1.0274807214736938,-5.424887180328369,-0.4526626467704773,5.503647804260254,1.7576240301132202,3.865732431411743,0.30755943059921265,0.09468965232372284,0.20262202620506287,0.6440927982330322
149,37954,37952,-0.0333443284034729,0.07108435034751892,1.0452592372894287,-5.228873252868652,4.820522785186768,4.8514485359191895,1.758055329322815,3.8655221462249756,0.30738744139671326,0.19396206736564636,0.15349556505680084,0.7081034779548645
150,37964,37962,-0.0890108272433281,0.09345914423465729,1.018436074256897,-2.3336989879608154,8.593611717224121,5.053501129150391,1.759885311126709,3.865753650665283,0.305757611989975,0.053170595318078995,0.0371074415743351,0.7580440044403076
151,37974,37972,0.008699246682226658,-0.026028761640191078,0.9775498509407043,-1.8835222721099854,9.774845123291016,4.874726295471191,1.7614785432815552,3.8653576374053955,0.3055359125137329,0.016821788623929024,0.12116484344005585,0.7966407537460327
152,37984,37982,-0.05266273021697998,0.026907604187726974,1.0223033428192139,0.8219352960586548,5.244472026824951,5.3111371994018555,1.76319420337677,3.864748477935791,0.3052436411380768,-0.1333892047405243,0.1290135234594345,0.8432834148406982
153,37994,37992,-0.08347772061824799,-0.01498084980994463,1.1038678884506226,3.4164042472839355,-4.655999660491943,6.294358253479004,1.762481451034546,3.8624892234802246,0.3051374852657318,-0.06032753735780716,0.24733388423919678,0.8926945328712463
154,38004,38002,0.019114665687084198,-0.02885301224887371,1.0301841497421265,4.782971382141113,-11.456812858581543,7.643612384796143,1.7629079818725586,3.862229347229004,0.3049626052379608,0.01794665865600109,0.24547378718852997,0.9581626653671265
155,38014,38012,-0.045855894684791565,0.0884598046541214,1.0258212089538574,2.3582749366760254,-13.826274871826172,8.630186080932617,1.761986494064331,3.862285852432251,0.3049667179584503,0.2851819097995758,0.276217520236969,1.0389633178710938
156,38024,38022,-0.04277787357568741,0.08904232829809189,1.060450553894043,-3.22944974899292,-9.603096961975098,9.025914192199707,1.7647651433944702,3.8615050315856934,0.3048793077468872,0.21136142313480377,0.35329049825668335,1.1030086278915405
157,38034,38032,0.0020468083675950766,0.03940441459417343,1.041160225868225,-7.550883769989014,-3.2769505977630615,9.058364868164062,1.7640799283981323,3.8609306812286377,0.3042452931404114,0.39461860060691833,0.25689035654067993,1.2041047811508179
158,38044,38042,0.008650160394608974,-0.05061940848827362,0.9921251535415649,-10.544556617736816,0.06668893247842789,9.144508361816406,1.7657225131988525,3.8603971004486084,0.30422326922416687,0.4724753201007843,0.23897866904735565,1.307924747467041
159,38054,38052,-0.06666328012943268,0.020227035507559776,0.9743119478225708,-13.692458152770996,3.6915571689605713,9.29928970336914,1.7681529521942139,3.8597726821899414,0.3041521906852722,0.32837364077568054,0.16040615737438202,1.390095591545105
160,38064,38062,-0.13445040583610535,0.10983358323574066,1.073717713356018,-15.533937454223633,4.221275806427002,10.379842758178711,1.7676900625228882,3.860504388809204,0.30455660820007324,0.4018268883228302,-0.11550145596265793,1.4992319345474243
161,38074,38072,-0.09472747892141342,0.07086237519979477,1.121187448501587,-17.480649948120117,6.437066555023193,10.989779472351074,1.7691246271133423,3.8612565994262695,0.30459585785865784,0.3007931709289551,-0.2924179434776306,1.6211800575256348
162,38084,38082,-0.02195608615875244,0.003028574399650097,1.0504547357559204,-17.653207778930664,5.544799327850342,11.098748207092285,1.770690679550171,3.859553575515747,0.3047715127468109,0.2701490521430969,-0.40683314204216003,1.7134120464324951
163,38094,38092,-0.0031799424905329943,0.0894821435213089,0.9724431037902832,-14.23733139038086,5.393336772918701,10.453743934631348,1.7712147235870361,3.858532190322876,0.3043239712715149,0.22147148847579956,-0.5259089469909668,1.8135367631912231
164,38104,38102,-0.062483545392751694,0.08553162217140198,1.0864262580871582,-10.561761856079102,1.2004446983337402,9.907492637634277,1.7714624404907227,3.8590714931488037,0.30453819036483765,0.1858617067337036,-0.6660962104797363,1.922550916671753
165,38114,38112,-0.024788856506347656,0.026668572798371315,1.0568867921829224,-6.421509742736816,2.4793646335601807,8.9371337890625,1.7725062370300293,3.857297897338867,0.304738849401474,0.1351514756679535,-0.66676265001297,2.0067861080169678
166,38124,38122,-0.00301744625903666,0.0347730927169323,1.0468941926956177,-2.901796340942383,3.6367721557617188,9.593502044677734,1.7727272510528564,3.857607364654541,0.30513250827789307,0.15889103710651398,-0.8349407911300659,2.108120918273926
167,38134,38132,-0.03707277029752731,0.03522956743836403,1.0454922914505005,0.21318726241588593,9.544809341430664,9.351502418518066,1.7742968797683716,3.856178045272827,0.30887430906295776,0.07438501715660095,-0.7801840305328369,2.1918814182281494
168,38144,38142,0.029286272823810577,0.03478749468922615,0.9066487550735474,4.926607608795166,11.884283065795898,10.148911476135254,1.7751597166061401,3.8560304641723633,0.30941352248191833,-0.060415226966142654,-0.8347445726394653,2.2903921604156494
169,38154,38152,0.0653550922870636,-0.02953583002090454,1.0083189010620117,5.450530529022217,12.726510047912598,10.377012252807617,1.776639461517334,3.856167793273926,0.3099469244480133,-0.2144574224948883,-0.8131315112113953,2.39371657371521
170,38164,38162,0.08672710508108139,-0.11509859561920166,1.0425742864608765,5.448321342468262,13.47797679901123,9.916635513305664,1.7781864404678345,3.855801820755005,0.31099531054496765,-0.3563603162765503,-0.7763041257858276,2.5001494884490967
171,38174,38172,0.0419343002140522,0.0329759456217289,0.9757993817329407,4.007286548614502,13.041396141052246,8.885618209838867,1.7786381244659424,3.8559441566467285,0.3115927278995514,-0.4427296221256256,-0.7401467561721802,2.6025145053863525
172,38184,38182,0.0199609212577343,-0.0035226524341851473,0.9455475211143494,3.0555546283721924,8.764501571655273,7.901503086090088,1.7791378498077393,3.855964422225952,0.3121415078639984,-0.5850130319595337,-0.7123700380325317,2.690445899963379
173,38194,38192,0.06309600174427032,-0.12701156735420227,0.9706537127494812,-1.6160085201263428,3.3280458450317383,6.457204341888428,1.7800240516662598,3.8561134338378906,0.31482747197151184,-0.66538405418396,-0.7160056233406067,2.7686877250671387
174,38204,38202,-0.02396101877093315,-0.07988486438989639,1.0071806907653809,-5.0991387367248535,-1.2198688983917236,4.844304084777832,1.7784254550933838,3.856588363647461,0.31562817096710205,-0.5032709836959839,-0.7707332372665405,2.8205206394195557
175,38214,38212,0.06430021673440933,-0.09079678356647491,0.9720061421394348,-8.047386169433594,-1.5207843780517578,3.5580475330352783,1.7790908813476562,3.8563485145568848,0.31627240777015686,-0.5036826729774475,-0.8099848031997681,2.869802713394165
176,38224,38222,-0.046537887305021286,0.04846518114209175,1.0215649604797363,-8.628108024597168,-1.733755111694336,2.1834611892700195,1.7787809371948242,3.857715606689453,0.3169700801372528,-0.44376733899116516,-0.9004738330841064,2.907799482345581
177,38234,38232,-0.05037739500403404,0.020557735115289688,0.9982584714889526,-6.056859493255615,2.585585117340088,1.288972020149231,1.7793536186218262,3.858733892440796,0.31691113114356995,-0.3966168165206909,-1.072524070739746,2.937011480331421
178,38244,38242,-0.01152446772903204,-0.06250082701444626,0.9780906438827515,-3.4500606060028076,6.957719326019287,0.3553250730037689,1.779637336730957,3.8578319549560547,0.31754258275032043,-0.42136967182159424,-1.0480191707611084,2.947998046875
179,38254,38252,0.08241024613380432,-0.11615828424692154,0.9709910154342651,0.6000102162361145,10.439313888549805,0.04065128043293953,1.7825210094451904,3.856471538543701,0.3180994391441345,-0.6556369066238403,-0.9746696352958679,2.9685747623443604
180,38264,38262,-0.0026512478943914175,-0.019084172323346138,1.012903094291687,4.123333930969238,12.603227615356445,-0.15639856457710266,1.7831913232803345,3.8563084602355957,0.3173217475414276,-0.7790945768356323,-0.9893580675125122,2.971357583999634
181,38274,38272,0.07507437467575073,-0.10293872654438019,0.9711561799049377,5.9098005294799805,11.03438949584961,0.844757616519928,1.7846226692199707,3.85595703125,0.3176712095737457,-0.998659074306488,-0.8713526725769043,2.9790866374969482
182,38284,38282,0.09474995732307434,-0.19408617913722992,1.0034587383270264,8.693339347839355,0.005285539198666811,0.7592905759811401,1.7858225107192993,3.8554019927978516,0.3181270956993103,-1.0793452262878418,-0.7931942939758301,2.979903221130371
183,38294,38292,0.03904351219534874,-0.18793968856334686,1.0152837038040161,6.6797380447387695,-4.238158226013184,-0.00545156467705965,1.7864702939987183,3.85629940032959,0.3197871148586273,-1.0040560960769653,-0.7630274295806885,2.9807283878326416
184,38304,38302,-0.16135001182556152,-0.03252123296260834,1.0094680786132812,6.645782947540283,-12.135315895080566,0.1142544224858284,1.7862955331802368,3.8559067249298096,0.32037004828453064,-0.8549760580062866,-0.6797173619270325,2.9689855575561523
185,38314,38312,-0.19075939059257507,0.149607315659523,1.0182290077209473,3.184918165206909,-6.077150821685791,0.6613393425941467,1.7873281240463257,3.8570456504821777,0.3209133446216583,-0.7719839811325073,-0.6905978918075562,2.972501754760742
186,38324,38322,-0.061504658311605453,0.08582448959350586,0.9416672587394714,-1.1302413940429688,-1.0255812406539917,0.6636034250259399,1.7858576774597168,3.856722354888916,0.321580708026886,-0.6097133755683899,-0.5904107689857483,2.9782791137695312
187,38334,38332,0.14230971038341522,0.04620906338095665,0.89927077293396,-5.548178672790527,5.908370018005371,0.4192662239074707,1.7867943048477173,3.857346296310425,0.32261061668395996,-0.6262669563293457,-0.6404644250869751,2.9940919876098633
188,38344,38342,0.10754437744617462,-0.056364499032497406,0.9251936078071594,-7.705214023590088,12.024201393127441,0.4087776839733124,1.7872610092163086,3.8575403690338135,0.32309338450431824,-0.6800886392593384,-0.7563340067863464,2.992204427719116
189,38354,38352,0.10076340287923813,-0.08824699372053146,0.9573916792869568,-9.038289070129395,11.487970352172852,1.0067460536956787,1.788964033126831,3.856396198272705,0.3234967589378357,-0.7969228029251099,-0.7393715381622314,3.002154588699341
190,38364,38362,-0.07452573627233505,-0.059120167046785355,1.020142674446106,-8.783160209655762,10.375730514526367,0.4462476074695587,1.7898266315460205,3.85719633102417,0.32296085357666016,-0.9127916693687439,-0.9033810496330261,3.00614857673645
191,38374,38372,-0.16621898114681244,0.02083067037165165,0.9774979948997498,-10.038630485534668,8.959956169128418,-0.47862574458122253,1.7924631834030151,3.856854200363159,0.32311075925827026,-1.1694438457489014,-0.9045397043228149,3.0389909744262695
192,38384,38382,-0.09006740897893906,0.07919955998659134,0.9026747941970825,-5.359555721282959,6.618875503540039,-1.5570484399795532,1.79338538646698,3.8578267097473145,0.32339903712272644,-1.2344238758087158,-1.0813196897506714,3.023225784301758
193,38394,38392,-0.10004063695669174,0.12622855603694916,0.9413853287696838,1.807908058166504,-1.4961971044540405,-1.2352701425552368,1.794479489326477,3.85701584815979,0.32117852568626404,-1.4220792055130005,-1.0259912014007568,3.028707504272461
194,38404,38402,-0.0019383748294785619,-0.025447526946663857,0.915456235408783,7.318117141723633,-6.489131450653076,-1.675816297531128,1.7943789958953857,3.856473684310913,0.3213057518005371,-1.2973604202270508,-0.9290672540664673,3.0103960037231445
195,38414,38412,-0.04287669435143471,0.017991267144680023,0.9979646801948547,8.134424209594727,-10.459753036499023,-1.8919309377670288,1.7942779064178467,3.8561439514160156,0.3214130997657776,-1.0961782932281494,-0.8320050239562988,2.9849324226379395
196,38424,38422,-0.0261845663189888,0.0007972159655764699,0.959845781326294,5.879440784454346,-12.59713363647461,-1.8440431356430054,1.7952446937561035,3.855583429336548,0.3212604522705078,-1.068402647972107,-0.7218108177185059,2.9806017875671387
197,38434,38432,-0.006000294350087643,0.11930645257234573,0.9006306529045105,2.4099888801574707,-13.660911560058594,-1.6315455436706543,1.7948716878890991,3.856856107711792,0.31966057419776917,-0.8544920086860657,-0.8096293807029724,2.9366989135742188
198,38444,38442,0.018972700461745262,0.15504540503025055,0.9205189347267151,-1.2308231592178345,-11.557117462158203,-1.780484914779663,1.7958002090454102,3.8565897941589355,0.3194245398044586,-0.7346616983413696,-0.7845218181610107,2.920409679412842
199,38454,38452,0.06992458552122116,-0.03615991398692131,0.919774055480957,-3.977437973022461,-7.582602500915527,-1.423447608947754,1.79777991771698,3.8568201065063477,0.31900858879089355,-0.7387910485267639,-0.8271883130073547,2.907836675643921
200,38464,38462,-0.04953469708561897,0.07979655265808105,0.9738155603408813,-6.358636379241943,-3.4236488342285156,-1.953203797340393,1.7988930940628052,3.8578896522521973,0.3181789517402649,-0.6971181035041809,-0.9111475348472595,2.9001803398132324
201,38474,38472,-0.010797063820064068,-0.0792313888669014,1.0236680507659912,-7.718475341796875,2.815178632736206,-2.560175657272339,1.800460934638977,3.857625961303711,0.3176445960998535,-0.6914323568344116,-0.9415990710258484,2.8899407386779785
202,38484,38482,-0.019365010783076286,0.025146402418613434,1.022003412246704,-4.836836338043213,6.412824630737305,-3.4602909088134766,1.8006240129470825,3.857452154159546,0.317195862531662,-0.6392627954483032,-0.9893940687179565,2.859668016433716
203,38494,38492,0.06767837703227997,0.0005194172263145447,0.9498052000999451,-0.25369635224342346,7.899202346801758,-3.5948872566223145,1.8009588718414307,3.8572607040405273,0.31895560026168823,-0.6584296226501465,-0.9887833595275879,2.8255884647369385
204,38504,38502,0.07114993780851364,-0.08618395775556564,0.9747774600982666,3.744795560836792,7.15112829208374,-4.032539367675781,1.8027855157852173,3.8577117919921875,0.31853991746902466,-0.8114920854568481,-1.0816113948822021,2.781414270401001
205,38514,38512,0.0165606290102005,-0.15484146773815155,1.0089417695999146,7.677445888519287,4.772817134857178,-3.4212982654571533,1.803562879562378,3.8575456142425537,0.31816592812538147,-0.863487958908081,-1.0197502374649048,2.73887038230896
206,38524,38522,-0.02122829481959343,-0.012041020207107067,1.0632649660110474,10.124835968017578,0.28039348125457764,-3.3863329887390137,1.804570198059082,3.856945037841797,0.31609857082366943,-0.9249494075775146,-0.8875342607498169,2.707225799560547
207,38534,38532,0.009365903213620186,0.09318742901086807,0.9727088212966919,13.1444091796875,-5.0409770011901855,-3.2701737880706787,1.8050684928894043,3.8568944931030273,0.3157075345516205,-0.8228383660316467,-0.710371196269989,2.680414915084839
208,38544,38542,-0.0290217287838459,-0.015416678972542286,1.023047924041748,13.479146003723145,-9.57903003692627,-2.765964984893799,1.8068941831588745,3.857882022857666,0.31521838903427124,-0.8134908676147461,-0.6549389958381653,2.646620035171509
209,38554,38552,-0.056636907160282135,0.002120811026543379,1.0447673797607422,12.956022262573242,-12.126708030700684,-2.1028835773468018,1.8079607486724854,3.858139753341675,0.3147484362125397,-0.7231500148773193,-0.5085282325744629,2.626096725463867
210,38564,38562,-0.04178847000002861,0.07672523707151413,0.9865317940711975,8.888477325439453,-12.416349411010742,-2.457437038421631,1.8077064752578735,3.8588781356811523,0.31341254711151123,-0.5007719397544861,-0.4483516216278076,2.5864315032958984
211,38574,38572,-0.10040602833032608,0.08665905147790909,1.0425337553024292,3.6637959480285645,-8.667475700378418,-2.793200731277466,1.8090628385543823,3.8602652549743652,0.31289833784103394,-0.45030298829078674,-0.37255972623825073,2.587724208831787
212,38584,38582,-0.06521391123533249,0.03298112377524376,1.0879051685333252,-0.05222291126847267,-3.435824394226074,-3.8350582122802734,1.810141682624817,3.8603451251983643,0.31228265166282654,-0.5309861302375793,-0.302909791469574,2.5797603130340576
213,38594,38592,-0.043384850025177,0.07458245009183884,1.060815691947937,-3.317410945892334,1.0063817501068115,-4.825512886047363,1.8113114833831787,3.860379457473755,0.3087134063243866,-0.501682460308075,-0.2941097617149353,2.5460879802703857
214,38604,38602,-0.05707474797964096,0.11371076852083206,0.9876845479011536,-4.943405628204346,0.6959949731826782,-5.220311164855957,1.8112761974334717,3.861241340637207,0.3082776367664337,-0.3879040777683258,-0.416904091835022,2.4840400218963623
215,38614,38612,-0.0024962369352579117,0.013191998936235905,0.9998095631599426,-4.289412021636963,-0.28818279504776,-5.961687088012695,1.811784029006958,3.8616559505462646,0.3077944815158844,-0.37502336502075195,-0.4842870533466339,2.4411776065826416
216,38624,38622,-0.022907370701432228,-0.02142389677464962,1.0738714933395386,-1.9833906888961792,-1.580845594406128,-5.58679723739624,1.8138309717178345,3.86184024810791,0.30717960000038147,-0.4167802929878235,-0.4656117260456085,2.3908958435058594
217,38634,38632,-0.020009273663163185,-0.054220378398895264,1.0664703845977783,2.065465211868286,-3.5039076805114746,-6.070584297180176,1.8136353492736816,3.86185884475708,0.3068043887615204,-0.26239559054374695,-0.48034918308258057,2.3304550647735596
218,38644,38642,0.05071714520454407,-0.017841869965195656,0.9755907654762268,5.361055850982666,-3.7644340991973877,-5.062105655670166,1.815828561782837,3.8630871772766113,0.30633118748664856,-0.3505633473396301,-0.5830748677253723,2.267326831817627
219,38654,38652,-0.0034943423233926296,-0.022955305874347687,1.0283429622650146,10.45349407196045,-3.854980945587158,-4.495093822479248,1.8164291381835938,3.8625307083129883,0.30600497126579285,-0.25626903772354126,-0.4544992744922638,2.215270757675171
220,38664,38662,-0.0033917666878551245,-0.012996709905564785,1.053652286529541,14.607044219970703,-3.517592430114746,-4.263854503631592,1.817549228668213,3.8630788326263428,0.30633220076560974,-0.17249910533428192,-0.32908904552459717,2.190927267074585
221,38674,38672,-0.021141795441508293,-0.07809974253177643,1.0845303535461426,15.427597999572754,-2.645279884338379,-4.339181900024414,1.8187540769577026,3.8625316619873047,0.30607375502586365,-0.09235931187868118,-0.058310795575380325,2.148458957672119
222,38684,38682,0.04127422720193863,-0.07199928164482117,1.0218241214752197,12.893723487854004,-0.29870134592056274,-4.214219570159912,1.8217132091522217,3.864032745361328,0.30562925338745117,-0.35589584708213806,-0.027324367314577103,2.114125967025757
223,38694,38692,-0.01950005255639553,-0.01963282749056816,1.06935453414917,8.043079376220703,0.5992016792297363,-4.824958801269531,1.8217586278915405,3.8641841411590576,0.3046334981918335,-0.2258227914571762,0.12466328591108322,2.0688822269439697
224,38704,38702,-0.026488671079277992,-0.03896079212427139,1.049444317817688,2.0262386798858643,1.399936318397522,-5.004517555236816,1.8225488662719727,3.8643131256103516,0.30445268750190735,-0.20518027245998383,0.19274337589740753,2.0213382244110107
225,38714,38712,0.02562558464705944,-0.09030977636575699,1.0303881168365479,-2.213555335998535,2.506671190261841,-5.150280952453613,1.825196385383606,3.865063190460205,0.3041839003562927,-0.356360524892807,0.16634824872016907,1.9723942279815674
226,38724,38722,-0.01024285051971674,-0.056331150233745575,1.090323805809021,-5.145744323730469,1.3494259119033813,-5.281205654144287,1.826309084892273,3.86563777923584,0.30268895626068115,-0.3507159352302551,0.07056571543216705,1.914969563484192
227,38734,38732,0.010241389274597168,-0.08279960602521896,1.063113808631897,-4.289763450622559,4.848116874694824,-5.755016803741455,1.8269187211990356,3.8657705783843994,0.3026152551174164,-0.34560516476631165,0.01841786317527294,1.8561089038848877
228,38744,38742,0.008193421177566051,-0.11009103059768677,1.0695210695266724,-1.2519497871398926,4.016653060913086,-5.927297592163086,1.8283225297927856,3.8659839630126953,0.3025861382484436,-0.35458117723464966,-0.017754442989826202,1.799261450767517
229,38754,38752,0.02440485917031765,-0.0525779128074646,1.00055730342865,4.043946266174316,1.1064459085464478,-6.282891750335693,1.8296715021133423,3.8653321266174316,0.3026353120803833,-0.36513617634773254,0.08039942383766174,1.739479660987854
230,38764,38762,0.04272526502609253,0.026608962565660477,0.9959099292755127,8.038410186767578,0.20242029428482056,-5.8562164306640625,1.830926537513733,3.865281105041504,0.3028063476085663,-0.3568534851074219,0.17269153892993927,1.6831872463226318
231,38774,38772,0.05825261399149895,0.0002848058647941798,1.0174082517623901,9.547440528869629,-2.9393627643585205,-5.811956882476807,1.8324846029281616,3.8667538166046143,0.302681565284729,-0.5148292779922485,0.16060127317905426,1.6319841146469116
232,38784,38782,-0.027500668540596962,0.02857423946261406,1.0375206470489502,8.866249084472656,-5.872824192047119,-5.637552738189697,1.8330674171447754,3.8661115169525146,0.3028302490711212,-0.43636220693588257,0.3441756069660187,1.567334532737732
233,38794,38792,0.005735405720770359,-0.0838259905576706,1.066847324371338,6.008092880249023,-7.730073928833008,-5.383020877838135,1.834663987159729,3.8686940670013428,0.30531394481658936,-0.4513130486011505,0.2740263342857361,1.5367509126663208
234,38804,38802,-0.01645183563232422,-0.10547978430986404,1.0519077777862549,2.754446029663086,-8.520885467529297,-6.425548553466797,1.8367036581039429,3.869715929031372,0.30542534589767456,-0.49779388308525085,0.32299289107322693,1.49103844165802
235,38814,38812,-0.028396161273121834,-0.009794100187718868,1.0343586206436157,2.4929540157318115,-8.241559982299805,-6.952078819274902,1.8360953330993652,3.8696818351745605,0.30607637763023376,-0.20386046171188354,0.4025595486164093,1.4420599937438965
236,38824,38822,0.01567787304520607,-0.08647728711366653,1.0342457294464111,2.2006611824035645,-6.87855339050293,-7.161689758300781,1.8389151096343994,3.8695642948150635,0.3040659427642822,-0.3032449185848236,0.47154802083969116,1.3603569269180298
237,38834,38832,0.04058554396033287,0.0059714908711612225,0.9798025488853455,0.9045470952987671,-5.625855445861816,-6.932371139526367,1.8391354084014893,3.8694400787353516,0.30445364117622375,-0.08774452656507492,0.52928626537323,1.2912997007369995
238,38844,38842,0.08531327545642853,0.017181789502501488,0.9630115628242493,-0.9365751147270203,-4.448076248168945,-6.838738441467285,1.8413381576538086,3.869255542755127,0.3046589195728302,-0.0794144719839096,0.5588902235031128,1.208928108215332
239,38854,38852,0.00624605268239975,0.013391917571425438,1.013684868812561,-2.4122815132141113,-5.378901481628418,-6.584106922149658,1.8431627750396729,3.869953155517578,0.30487680435180664,-0.10905903577804565,0.4724692404270172,1.1260019540786743
