,timestamp_start,timestamp_end,acc.x,acc.y,acc.z,gyro.x,gyro.y,gyro.z,stateEstimate.x,stateEstimate.y,stateEstimate.z,stabilizer.pitch,stabilizer.roll,stabilizer.yaw
0,31221,31218,0.004850552882999182,-0.014959891326725483,1.0083873271942139,1.485691785812378,2.6791529655456543,4.567272186279297,1.9680390357971191,3.9724228382110596,0.1688714623451233,0.517952024936676,-0.36800092458724976,2.7690036296844482
1,31231,31228,0.006365503184497356,-0.005282302387058735,1.0044437646865845,5.07668924331665,-3.965148448944092,4.449955463409424,1.9672245979309082,3.972332239151001,0.17190910875797272,0.6321308016777039,-0.2532472610473633,2.818966865539551
2,31241,31238,-0.009102270007133484,-0.023779334500432014,0.9962192177772522,8.144145011901855,-13.0839204788208,3.884608507156372,1.9648206233978271,3.9717066287994385,0.17477819323539734,0.8362036943435669,-0.16597265005111694,2.8665785789489746
3,31251,31248,0.02788371592760086,-0.06758881360292435,1.0011934041976929,6.329726696014404,-14.151530265808105,3.441230058670044,1.9654425382614136,3.9727373123168945,0.17756029963493347,0.9780497550964355,-0.056047722697257996,2.9055678844451904
4,31261,31258,0.02787110209465027,-0.010829448699951172,0.9588416814804077,4.150480270385742,-11.859134674072266,3.0467963218688965,1.9662195444107056,3.973789691925049,0.17868468165397644,1.3122782707214355,0.03414817899465561,2.942776918411255
5,31271,31268,0.038554660975933075,0.06029439717531204,0.9694924354553223,-1.6916849613189697,-4.448866844177246,2.7817957401275635,1.9631270170211792,3.974249839782715,0.18076738715171814,1.9152547121047974,0.05877197906374931,2.9881246089935303
6,31281,31278,0.010051539167761803,-0.039054274559020996,0.9913117289543152,-5.4156694412231445,2.2922141551971436,1.873176097869873,1.9736766815185547,3.982914924621582,0.1909959614276886,0.2663349509239197,-1.0252548456192017,3.053769111633301
7,31291,31288,-0.009170029312372208,-0.10272056609392166,0.9850035905838013,-4.9131245613098145,7.003962516784668,2.3333284854888916,1.9748575687408447,3.9829492568969727,0.19389581680297852,0.4299476444721222,-0.9105696082115173,3.0630269050598145
8,31301,31298,0.00012525713827926666,-0.010588284581899643,0.9894432425498962,0.6969981789588928,6.21862268447876,2.578073024749756,1.9757966995239258,3.9835078716278076,0.1979382038116455,0.4987662732601166,-0.793303906917572,3.0753355026245117
9,31311,31308,0.018958285450935364,-0.005987283308058977,0.9822109341621399,9.384284973144531,-0.46026256680488586,2.1943092346191406,1.9771312475204468,3.9838478565216064,0.20146508514881134,0.5056489109992981,-0.669823408126831,3.092358350753784
10,31321,31318,0.009852775372564793,0.0008080111001618207,0.9703989624977112,16.641849517822266,-9.35948371887207,1.6207363605499268,1.9771331548690796,3.9849977493286133,0.2025587409734726,0.6833895444869995,-0.4240163564682007,3.10345458984375
11,31331,31328,0.016046913340687752,-0.03027426451444626,0.9520937204360962,19.86798095703125,-17.291418075561523,1.0011719465255737,1.9781830310821533,3.984292984008789,0.20557698607444763,0.7686352133750916,-0.08359874784946442,3.108017683029175
12,31341,31338,0.017554419115185738,-0.039358872920274734,0.940895140171051,19.203657150268555,-22.26004409790039,1.0111333131790161,1.9776265621185303,3.9850549697875977,0.2088085114955902,1.1968729496002197,0.06610401719808578,3.116792678833008
13,31351,31348,-0.006587072275578976,0.0008936069207265973,0.9548082947731018,14.308950424194336,-22.515478134155273,0.44981953501701355,1.9770644903182983,3.9849469661712646,0.20700599253177643,1.580385684967041,0.4134896993637085,3.1106278896331787
14,31361,31358,0.019954876974225044,-0.05341564118862152,0.9186387658119202,5.0336833000183105,-12.386940002441406,0.03644009307026863,1.9761992692947388,3.9836037158966064,0.20920537412166595,1.9969487190246582,0.7949100732803345,3.0885086059570312
15,31371,31368,0.0179220549762249,0.023196132853627205,0.9164221286773682,-3.7092158794403076,-6.868900299072266,-0.2759910821914673,1.9802700281143188,3.9868927001953125,0.21354734897613525,1.4943020343780518,0.39015477895736694,3.1301040649414062
16,31381,31378,0.027814406901597977,-0.0007700752466917038,0.9253130555152893,-12.562755584716797,4.610740661621094,-0.6966930031776428,1.9796887636184692,3.9877963066101074,0.2161843627691269,1.6825509071350098,0.3441247045993805,3.1302003860473633
17,31391,31388,0.05346790701150894,-0.08159343153238297,0.9737703204154968,-13.945054054260254,6.579740524291992,-0.43147119879722595,1.9797770977020264,3.9883339405059814,0.2150474190711975,1.6945279836654663,0.17220614850521088,3.131207227706909
18,31401,31398,0.0024610846303403378,-0.09806935489177704,1.0134457349777222,-12.803266525268555,7.040025234222412,-0.473802387714386,1.9788557291030884,3.986485004425049,0.2173551470041275,1.6519062519073486,0.2060169130563736,3.0991508960723877
19,31411,31408,0.014859297312796116,-0.15375106036663055,0.9598641395568848,-6.574049472808838,6.3862690925598145,-0.5614628195762634,1.9761484861373901,3.9867608547210693,0.21953493356704712,1.8775163888931274,0.04286152124404907,3.119127035140991
20,31421,31418,0.016363462433218956,-0.12492231279611588,0.9347370862960815,0.7697770595550537,4.727854251861572,-0.9384016394615173,1.9763933420181274,3.9861743450164795,0.21781298518180847,1.7812238931655884,0.06857070326805115,3.094886302947998
21,31431,31428,0.017623689025640488,-0.025012364611029625,0.9385157823562622,5.036496162414551,5.868343353271484,-1.2605266571044922,1.9745783805847168,3.9847655296325684,0.21968433260917664,1.7744500637054443,0.11599909514188766,3.081285238265991
22,31441,31438,-0.0034550500568002462,-0.02694803662598133,0.9400047659873962,7.066153526306152,5.136035442352295,-1.046278476715088,1.9730256795883179,3.984274387359619,0.2213737964630127,1.8304654359817505,0.22033248841762543,3.0671167373657227
23,31451,31448,0.009230243042111397,-0.029095666483044624,0.9534884691238403,6.368574142456055,6.798417568206787,-0.626350462436676,1.9672037363052368,3.9843621253967285,0.22319522500038147,2.3132684230804443,0.12472333014011383,3.1265249252319336
24,31461,31458,0.04739076644182205,-0.08031927794218063,0.9635236263275146,3.827488660812378,10.077559471130371,-1.2836024761199951,1.9659754037857056,3.9828104972839355,0.22516070306301117,2.18289852142334,0.250760942697525,3.099022626876831
25,31471,31468,0.019835766404867172,-0.10311989486217499,0.9460652470588684,0.9518836736679077,16.13970947265625,-1.3244293928146362,1.964206337928772,3.982560873031616,0.22651609778404236,2.2010715007781982,0.3182932734489441,3.0864439010620117
26,31481,31478,-0.004152670502662659,-0.10542945563793182,0.9507079124450684,-3.5808658599853516,24.84499168395996,-1.1879783868789673,1.96379816532135,3.98238468170166,0.22862200438976288,1.8750100135803223,0.33402135968208313,3.0620241165161133
27,31491,31488,0.010310813784599304,-0.024059204384684563,0.9608191847801208,-5.377744674682617,27.205001831054688,-0.3823122978210449,1.9633660316467285,3.982518434524536,0.22657470405101776,1.5837955474853516,0.2795332968235016,3.054713249206543
28,31501,31498,-0.02823691815137863,-0.014708749949932098,0.9960433840751648,-7.712480068206787,28.320629119873047,-0.22793136537075043,1.9612996578216553,3.981452465057373,0.22772033512592316,1.462446689605713,0.3379017114639282,3.0341405868530273
29,31511,31508,0.014648005366325378,-0.08949113637208939,0.9861588478088379,-7.143292427062988,25.190799713134766,0.01185604464262724,1.9598180055618286,3.9810855388641357,0.22904817759990692,1.171125054359436,0.28424325585365295,3.0264711380004883
30,31521,31518,0.009450526908040047,-0.09661546349525452,1.0263570547103882,-6.436710834503174,21.394447326660156,-0.6351773142814636,1.958255648612976,3.978987693786621,0.23235249519348145,0.9250390529632568,0.29935622215270996,3.005244255065918
31,31531,31528,0.028063500300049782,-0.11917217820882797,0.9866772890090942,-5.436115264892578,20.9303035736084,-0.8586975932121277,1.9552332162857056,3.977970600128174,0.23366829752922058,0.7962064743041992,0.24778254330158234,3.004528045654297
32,31541,31538,-0.004461382050067186,0.003606894053518772,0.9758296012878418,-4.562041759490967,17.500045776367188,-1.1959189176559448,1.9521852731704712,3.9779489040374756,0.23516231775283813,0.537591814994812,0.21069960296154022,2.9894907474517822
33,31551,31548,-0.00250178761780262,0.010427335277199745,1.0360854864120483,-5.0987162590026855,15.04625415802002,-0.7298294901847839,1.9501839876174927,3.9757933616638184,0.23754443228244781,0.3193056881427765,0.23849116265773773,2.962242603302002
34,31561,31558,0.017691221088171005,-0.027043575420975685,0.9872938990592957,-5.792238235473633,13.750137329101562,-0.33896952867507935,1.950261116027832,3.9754927158355713,0.239124596118927,0.093583844602108,0.190372496843338,2.949753522872925
35,31571,31568,-0.025639617815613747,-0.024093475192785263,0.9986801743507385,-6.492171287536621,12.157036781311035,0.0077515896409749985,1.9491175413131714,3.975534200668335,0.24079160392284393,-0.1673589050769806,0.12390649318695068,2.940232038497925
36,31581,31578,-0.0047502280212938786,-0.08806106448173523,0.9963669180870056,-8.155723571777344,10.19144344329834,-0.1943494826555252,1.9478554725646973,3.9752979278564453,0.24234607815742493,-0.17006482183933258,0.04695446416735649,2.9498305320739746
37,31591,31588,-0.0012417375110089779,0.0756467878818512,1.0076427459716797,-8.159278869628906,9.118703842163086,-0.714555561542511,1.9486042261123657,3.977292776107788,0.24351152777671814,-0.3757840394973755,-0.12393096089363098,2.9427366256713867
38,31601,31598,0.0338653102517128,0.11118796467781067,1.0025299787521362,-6.540493965148926,6.804225444793701,-1.0098384618759155,1.9457064867019653,3.975313186645508,0.2450333535671234,-0.4023086130619049,-0.20473818480968475,2.93904185295105
39,31611,31608,0.03872140124440193,-0.0334361232817173,0.9771724939346313,-4.486748695373535,5.723500728607178,-0.8324186205863953,1.9462412595748901,3.9742612838745117,0.24659942090511322,-0.5306571125984192,-0.11245473474264145,2.9276950359344482
40,31621,31618,0.0174611434340477,-0.0533466637134552,0.9710462689399719,-2.9447808265686035,5.634913444519043,-1.4851287603378296,1.9445974826812744,3.973445177078247,0.2489650994539261,-0.5743897557258606,-0.22229956090450287,2.917534112930298
41,31631,31628,-0.06167926639318466,0.07206922024488449,0.9786691069602966,-3.6375770568847656,6.270255088806152,-1.367417573928833,1.9442979097366333,3.973391056060791,0.2505359351634979,-0.7552669048309326,-0.31049230694770813,2.8954763412475586
42,31641,31638,-0.050887610763311386,0.05658690258860588,0.9556174278259277,-3.459796667098999,5.801915168762207,-0.6376445889472961,1.943772315979004,3.9725911617279053,0.25207388401031494,-0.7858276963233948,-0.24529993534088135,2.893292188644409
43,31651,31648,-0.08438695222139359,0.08095867186784744,1.0223206281661987,-3.8045549392700195,3.76371431350708,-1.1720389127731323,1.9418565034866333,3.9735333919525146,0.253864049911499,-0.6684994101524353,-0.3458543121814728,2.884512186050415
44,31661,31658,0.011186102405190468,-0.10581652075052261,0.9611656665802002,-3.825517177581787,5.868164539337158,-1.0096330642700195,1.9422951936721802,3.9741833209991455,0.2554066479206085,-0.7612610459327698,-0.4396699368953705,2.863105535507202
45,31671,31668,0.0059069376438856125,-0.02874259650707245,0.992849588394165,-1.107475757598877,2.1900203227996826,-1.026829481124878,1.9421385526657104,3.975642442703247,0.2569279670715332,-0.8735261559486389,-0.5131029486656189,2.8466012477874756
46,31681,31678,-0.027353469282388687,0.05748317018151283,0.9817159175872803,-1.5392811298370361,3.6584842205047607,-1.5867863893508911,1.941357970237732,3.9757730960845947,0.25838392972946167,-0.8749455809593201,-0.5579937100410461,2.8305444717407227
47,31691,31688,-0.013387669809162617,0.11378399282693863,0.9247202277183533,-1.3316361904144287,7.366769790649414,-0.9828317165374756,1.942146897315979,3.9759252071380615,0.2585934102535248,-1.0395357608795166,-0.5913868546485901,2.8134925365448
48,31701,31698,0.02931853011250496,0.051950059831142426,0.8854411840438843,-0.6682084798812866,7.098598003387451,-0.742757260799408,1.9415029287338257,3.9738540649414062,0.25994178652763367,-1.0855915546417236,-0.40747570991516113,2.8400051593780518
49,31711,31708,0.010706806555390358,-0.0396563857793808,0.9017826318740845,0.44846007227897644,3.8900318145751953,-0.6653041243553162,1.9425055980682373,3.9739317893981934,0.2611648440361023,-1.2539381980895996,-0.43997707962989807,2.8283004760742188
50,31721,31718,0.00743270805105567,-0.2864050567150116,0.9501509070396423,0.26936453580856323,-0.026444725692272186,-1.2236803770065308,1.941116452217102,3.9737939834594727,0.26328244805336,-1.2084057331085205,-0.38644665479660034,2.8279294967651367
51,31731,31728,-0.027371885254979134,-0.0112141203135252,1.0159066915512085,0.8141494989395142,-7.045297622680664,-1.957079291343689,1.9413269758224487,3.973111152648926,0.26439857482910156,-1.2538684606552124,-0.3403545022010803,2.825838327407837
52,31741,31738,-0.01744324155151844,-0.101658895611763,0.9688718318939209,-2.7505452632904053,-4.143833160400391,-2.0055384635925293,1.9414799213409424,3.9726810455322266,0.26551395654678345,-1.274472951889038,-0.38610225915908813,2.797811508178711
53,31751,31748,-0.06491586565971375,-0.007781653199344873,0.995350182056427,-5.091370105743408,-8.612929344177246,-1.2964757680892944,1.9409196376800537,3.972996234893799,0.2667892575263977,-1.1862075328826904,-0.4793801009654999,2.761512517929077
54,31761,31758,-0.0033756233751773834,-0.03682055324316025,0.9823467135429382,-6.163942337036133,-6.9525017738342285,-1.4265426397323608,1.9414098262786865,3.973416328430176,0.26790088415145874,-1.177420735359192,-0.5883330702781677,2.7344777584075928
55,31771,31768,0.05169288069009781,-0.12665417790412903,0.9864621758460999,-4.998973846435547,-5.475888252258301,-1.370667576789856,1.9404754638671875,3.9741721153259277,0.2689935564994812,-1.0408070087432861,-0.7075163722038269,2.702523708343506
56,31781,31778,0.026970000937581062,-0.12569555640220642,1.0053497552871704,-3.4343883991241455,-3.353999376296997,-1.895540475845337,1.9402493238449097,3.973705291748047,0.2689782381057739,-1.0028172731399536,-0.7199452519416809,2.6970901489257812
57,31791,31788,0.035437922924757004,-0.04313510283827782,0.9610252976417542,1.9766839742660522,-2.8112900257110596,-1.527679681777954,1.940940260887146,3.9742326736450195,0.2700100243091583,-1.0564863681793213,-0.691580057144165,2.695611000061035
58,31801,31798,-0.003216722048819065,0.025769727304577827,1.0164982080459595,5.627869129180908,-2.474881887435913,-1.7220425605773926,1.9405306577682495,3.9741013050079346,0.2709912359714508,-1.0409235954284668,-0.6707268953323364,2.6805248260498047
59,31811,31808,0.008186650462448597,0.002654555719345808,0.9774490594863892,5.78800630569458,-1.644747257232666,-1.573379397392273,1.940388560295105,3.9738380908966064,0.2719855308532715,-1.020503044128418,-0.5923615097999573,2.6707983016967773
60,31821,31818,0.03888232260942459,-0.06528308242559433,0.9662007093429565,6.267514705657959,-4.701661109924316,-1.693514347076416,1.9399510622024536,3.9757182598114014,0.27655553817749023,-0.9947370886802673,-0.5747745037078857,2.6452507972717285
61,31831,31828,-0.016646241769194603,0.04320073127746582,0.9921784400939941,3.9369561672210693,-5.542537689208984,-2.1342713832855225,1.939613699913025,3.9753506183624268,0.27770620584487915,-0.9199665784835815,-0.48833176493644714,2.6326658725738525
62,31841,31838,-0.02663821168243885,0.029695170000195503,1.0002483129501343,2.5330657958984375,-7.869723796844482,-2.0347752571105957,1.9382864236831665,3.9752326011657715,0.2788751423358917,-0.8432031273841858,-0.4431428015232086,2.6128482818603516
63,31851,31848,0.026516273617744446,-0.005289840046316385,0.988662838935852,0.23397523164749146,-7.574624061584473,-2.146979331970215,1.9370371103286743,3.9750633239746094,0.2786175608634949,-0.6637228727340698,-0.42152202129364014,2.5860636234283447
64,31861,31858,-0.012570580467581749,0.018811188638210297,0.9917716383934021,-1.1406443119049072,-2.283766984939575,-2.7057342529296875,1.9370968341827393,3.975013017654419,0.2796553671360016,-0.5773138999938965,-0.4361775815486908,2.559607744216919
65,31871,31868,0.04678856581449509,0.03860699012875557,0.9169339537620544,-1.1554814577102661,-2.789093494415283,-2.309812068939209,1.9369730949401855,3.9750921726226807,0.28066927194595337,-0.558826208114624,-0.4596509039402008,2.531921863555908
66,31881,31878,-0.015076846815645695,0.010570737533271313,0.9914113283157349,-1.950135588645935,3.8759992122650146,-2.437568187713623,1.9366686344146729,3.975174903869629,0.2832290828227997,-0.5455331802368164,-0.48576948046684265,2.5036420822143555
67,31891,31888,0.011911329813301563,-0.009150939993560314,0.9904792904853821,-0.36310410499572754,4.069911479949951,-2.2254018783569336,1.9389318227767944,3.9756760597229004,0.2833157777786255,-0.8326493501663208,-0.5832828879356384,2.4719159603118896
68,31901,31898,-0.013702360913157463,-0.026177262887358665,1.0194188356399536,2.7866909503936768,0.02509814128279686,-2.2331466674804688,1.9384280443191528,3.975456714630127,0.28448790311813354,-0.7781428694725037,-0.5618628859519958,2.4490439891815186
69,31911,31908,-0.03249082341790199,-0.020257575437426567,1.01251220703125,3.732085704803467,-4.429424285888672,-2.31022310256958,1.9382041692733765,3.9748897552490234,0.28552892804145813,-0.7488766312599182,-0.5040967464447021,2.432111978530884
70,31921,31918,-0.05629761517047882,0.03841566666960716,1.0100423097610474,5.611072540283203,-7.590392112731934,-2.089202404022217,1.9368388652801514,3.975168228149414,0.28639811277389526,-0.5835601687431335,-0.42757514119148254,2.411062240600586
71,31931,31928,-0.07000074535608292,0.09713180363178253,0.9934185743331909,6.960211753845215,-8.383094787597656,-1.4567407369613647,1.9356098175048828,3.9740653038024902,0.28743845224380493,-0.3899191915988922,-0.24559684097766876,2.409684658050537
72,31941,31938,-0.03722243383526802,0.12776926159858704,0.9881194829940796,4.9156694412231445,-5.92807149887085,-1.245495080947876,1.9352684020996094,3.9734134674072266,0.2884846329689026,-0.28376150131225586,-0.1530388593673706,2.400646686553955
73,31951,31948,-0.012486306019127369,0.160670205950737,0.9964886903762817,1.58535897731781,-2.224236488342285,-2.251343250274658,1.938714623451233,3.9731359481811523,0.2905368506908417,-0.5973170399665833,-0.09940812736749649,2.4016273021698
74,31961,31958,0.012332701124250889,0.11565901339054108,0.9901636838912964,-1.2738131284713745,-2.0168662071228027,-2.9417877197265625,1.9358985424041748,3.972923994064331,0.2917381823062897,-0.32135009765625,-0.10194412618875504,2.365499973297119
75,31971,31968,-0.011370792984962463,0.07017697393894196,0.9892886877059937,-3.2545759677886963,-2.697179079055786,-3.033053159713745,1.936716914176941,3.9741716384887695,0.2928948998451233,-0.36303359270095825,-0.15231552720069885,2.3346166610717773
76,31981,31978,-0.01541221048682928,0.06715875118970871,0.9487504959106445,-5.108591079711914,-1.4053432941436768,-3.4704277515411377,1.9407093524932861,3.9749815464019775,0.2953621745109558,-0.762447714805603,-0.2978837192058563,2.3003735542297363
77,31991,31988,-0.04492524266242981,0.18203260004520416,0.9410752654075623,-5.208843231201172,-1.716518521308899,-2.7468936443328857,1.9354205131530762,3.9761412143707275,0.2971091866493225,-0.17427194118499756,-0.38148170709609985,2.2513840198516846
78,32001,31998,-0.05278204008936882,0.12339576333761215,0.9309736490249634,-3.318864107131958,-2.8807485103607178,-2.6397767066955566,1.93516206741333,3.9765465259552,0.29826706647872925,-0.11695317924022675,-0.447662353515625,2.223395347595215
79,32011,32008,-0.0007442631758749485,0.09648561477661133,0.9233173727989197,0.45087364315986633,-1.730745792388916,-2.472212314605713,1.9374208450317383,3.9744973182678223,0.2995924949645996,-0.36002281308174133,-0.24401172995567322,2.232351064682007
80,32021,32018,0.01467858161777258,0.08881858736276627,0.9364585280418396,3.7751710414886475,0.14525724947452545,-2.135603666305542,1.9375431537628174,3.988135576248169,0.29749736189842224,-0.37173300981521606,-1.5693883895874023,2.055806875228882
81,32031,32028,-0.006158884149044752,0.0876070037484169,0.9628779292106628,7.398155689239502,-0.35289299488067627,-1.1236335039138794,1.9407293796539307,3.9852771759033203,0.2993766963481903,-0.6262238025665283,-1.1214009523391724,2.091304063796997
82,32041,32038,-0.06393013894557953,0.0492204912006855,1.0105210542678833,13.740671157836914,-5.609345436096191,-1.3770676851272583,1.9381003379821777,3.98420786857605,0.3007833659648895,-0.2954083979129791,-0.8671643733978271,2.0835771560668945
83,32051,32048,-0.05044284835457802,-0.025941280648112297,0.9954046010971069,20.124462127685547,-7.6638102531433105,-1.4779951572418213,1.940043330192566,3.9820144176483154,0.29849520325660706,-0.3803974688053131,-0.5024754405021667,2.0999207496643066
84,32061,32058,-0.08200173079967499,-0.04162251949310303,1.0145875215530396,21.656373977661133,-9.195418357849121,-1.647434115409851,1.936075210571289,3.9798412322998047,0.2994893789291382,0.17924314737319946,-0.012400560081005096,2.083807945251465
85,32071,32068,-0.005246256943792105,-0.011929242871701717,0.9611287117004395,19.097034454345703,-9.649005889892578,-2.169991970062256,1.9386078119277954,3.9616787433624268,0.29989945888519287,0.02755690924823284,2.017646551132202,2.229025363922119
86,32081,32078,-0.06269069761037827,0.06569322943687439,0.9863699674606323,6.03032112121582,-4.416531085968018,-2.630157470703125,1.9381792545318604,3.961210012435913,0.29943835735321045,0.17252375185489655,2.0354084968566895,2.191281318664551
87,32091,32088,-0.072933629155159,0.08318337053060532,0.9543434381484985,-18.32113265991211,0.8648778200149536,-2.761467456817627,1.9368889331817627,3.9609248638153076,0.3005397319793701,0.22702434659004211,1.8565998077392578,2.154279947280884
88,32101,32098,-0.06522241234779358,0.08457788079977036,0.9685320854187012,-42.821632385253906,5.788975238800049,-2.9487252235412598,1.9378784894943237,3.96174693107605,0.3019260764122009,0.11644894629716873,1.3314341306686401,2.107598066329956
89,32111,32108,0.002558915177360177,-0.08650343120098114,0.9821083545684814,-55.82342529296875,4.796980381011963,-3.2399826049804688,1.9382816553115845,3.9661779403686523,0.30276626348495483,0.03544280305504799,0.40799447894096375,2.0553321838378906
90,32121,32118,0.02714207023382187,-0.09925462305545807,0.9870077967643738,-58.44120407104492,4.944369792938232,-3.1862640380859375,1.9382766485214233,3.963273525238037,0.3032331168651581,-0.03013097494840622,-0.022702107205986977,2.024681806564331
91,32131,32128,0.025920817628502846,-0.1352887600660324,0.9837487936019897,-49.94379425048828,0.9024999141693115,-2.619717836380005,1.9387742280960083,3.9649555683135986,0.30391737818717957,-0.08468574285507202,-0.8298578262329102,1.985234260559082
92,32141,32138,0.013334243558347225,-0.11415672302246094,1.0253517627716064,-27.771678924560547,1.2838497161865234,-2.4467902183532715,1.9383409023284912,3.9649500846862793,0.30440789461135864,-0.08570200204849243,-1.3598142862319946,1.9574341773986816
93,32151,32148,-0.007763761095702648,0.11184805631637573,0.9782689213752747,-10.068514823913574,1.916182518005371,-2.3634321689605713,1.9384297132492065,3.9649274349212646,0.305740088224411,-0.08611597120761871,-1.4568846225738525,1.9367495775222778
94,32161,32158,-0.024223988875746727,0.1391497105360031,0.9741250276565552,12.848234176635742,-2.9687905311584473,-1.4706968069076538,1.9383273124694824,3.9640705585479736,0.3063547611236572,-0.04452507942914963,-1.4191972017288208,1.9232676029205322
95,32171,32168,0.00692528672516346,0.09784090518951416,0.9575409293174744,25.82611846923828,-6.251590728759766,-0.9882001876831055,1.9381107091903687,3.9624664783477783,0.30697184801101685,0.026844602078199387,-1.1594300270080566,1.9136408567428589
96,32181,32178,-0.0059958272613584995,-0.001577097224071622,0.9739630818367004,25.212312698364258,-5.306339263916016,-0.8035994172096252,1.9376986026763916,3.9650962352752686,0.30424967408180237,0.13740196824073792,-1.2418715953826904,1.9002816677093506
97,32191,32188,-0.0037294956855475903,-0.05414042994379997,0.9449834823608398,17.707569122314453,-5.495907306671143,-1.3377876281738281,1.9384795427322388,3.963247537612915,0.30466485023498535,0.07967892289161682,-0.882183849811554,1.8957935571670532
98,32201,32198,0.01451181061565876,-0.05592506378889084,0.9633103013038635,9.956303596496582,-3.0094919204711914,-1.6544220447540283,1.938798427581787,3.9632763862609863,0.3049314320087433,0.08390185981988907,-0.8326990604400635,1.8832552433013916
99,32211,32208,-0.08795849978923798,-0.08485542237758636,1.0146361589431763,-1.1364960670471191,-0.742017924785614,-2.15374755859375,1.9381293058395386,3.9643969535827637,0.3028101921081543,0.07124950736761093,-0.9244003295898438,1.8662974834442139
100,32221,32218,-0.012620260007679462,-0.02568097412586212,0.973101794719696,-6.882832050323486,-5.442310333251953,-2.2399959564208984,1.9387500286102295,3.965587854385376,0.30290868878364563,0.10304201394319534,-1.0046133995056152,1.8415570259094238
101,32231,32228,-0.06633304059505463,0.026051294058561325,0.9698660373687744,-12.166119575500488,-0.3368619978427887,-2.661811590194702,1.9385974407196045,3.9661827087402344,0.30296745896339417,0.17898216843605042,-1.1794326305389404,1.81511652469635
102,32241,32238,-0.04220590367913246,0.010013904422521591,1.004031777381897,-9.875483512878418,0.14122796058654785,-2.748622179031372,1.9387058019638062,3.966797351837158,0.3029954135417938,0.2013862580060959,-1.3736225366592407,1.7901759147644043
103,32251,32248,0.05321015045046806,-0.14584101736545563,0.9733911156654358,-1.0347195863723755,-1.076050043106079,-2.1953608989715576,1.9388089179992676,3.967062473297119,0.3015522062778473,0.2162167727947235,-1.464148998260498,1.7617666721343994
104,32261,32258,0.0038716155104339123,-0.0194889847189188,1.0394091606140137,9.28305435180664,1.4876551628112793,-1.1343246698379517,1.939550518989563,3.967191696166992,0.30149778723716736,0.16793791949748993,-1.4039857387542725,1.749469518661499
105,32271,32268,-0.022218888625502586,0.034174803644418716,1.0413689613342285,17.1995849609375,10.534943580627441,-1.0739924907684326,1.9398506879806519,3.9672346115112305,0.3013889491558075,0.09856138378381729,-1.322142243385315,1.7393115758895874
106,32281,32278,0.012966075912117958,-0.031779512763023376,1.0021487474441528,20.170909881591797,16.794843673706055,-1.1418246030807495,1.94086492061615,3.9676365852355957,0.3008508086204529,-0.10237127542495728,-1.1366181373596191,1.7327828407287598
107,32291,32288,-0.0006156560266390443,0.09731359034776688,1.0424484014511108,20.324443817138672,20.1899356842041,-1.1786587238311768,1.9418160915374756,3.9667563438415527,0.30079612135887146,-0.3910307288169861,-0.8362816572189331,1.729469895362854
108,32301,32298,0.006991134025156498,-0.02399277314543724,0.9858237504959106,17.360410690307617,20.088193893432617,-1.3328516483306885,1.9413425922393799,3.969066858291626,0.3007574677467346,-0.5454879999160767,-0.8749901056289673,1.7103116512298584
109,32311,32308,-0.033253032714128494,0.03919506072998047,1.0472502708435059,12.908355712890625,15.016092300415039,-1.4770187139511108,1.9401921033859253,3.9698734283447266,0.3018229007720947,-0.64830482006073,-0.7966529726982117,1.6863303184509277
110,32321,32318,0.006349312607198954,0.004318971186876297,1.0223302841186523,10.178357124328613,9.135893821716309,-1.5650160312652588,1.9396034479141235,3.971233367919922,0.3018873631954193,-0.6869406700134277,-0.7793519496917725,1.6582732200622559
111,32331,32328,0.01776846870779991,0.01567785255610943,0.9745263457298279,8.463516235351562,3.987849712371826,-1.7391492128372192,1.9388118982315063,3.970517158508301,0.3020128905773163,-0.7905424237251282,-0.5491189956665039,1.6466439962387085
112,32341,32338,0.009458435699343681,-0.019673191010951996,1.0078846216201782,9.493900299072266,0.5959170460700989,-1.4847891330718994,1.9390636682510376,3.971992254257202,0.30211499333381653,-0.8075711131095886,-0.5017808079719543,1.6272696256637573
113,32351,32348,0.02074730023741722,-0.14555728435516357,1.0430312156677246,10.975642204284668,-0.9096047282218933,-1.2674167156219482,1.9380013942718506,3.9724440574645996,0.3007347583770752,-0.8054627776145935,-0.43607500195503235,1.6105552911758423
114,32361,32358,0.020548982545733452,-0.12692219018936157,0.9833526611328125,12.4221830368042,-0.2072249799966812,-1.0298579931259155,1.9379332065582275,3.9736483097076416,0.3006688058376312,-0.8425707817077637,-0.48620009422302246,1.5954116582870483
115,32371,32368,-0.006216668523848057,0.018305577337741852,1.0434534549713135,14.634384155273438,1.439511775970459,-1.1179015636444092,1.9370585680007935,3.973841428756714,0.3008052706718445,-0.7371633052825928,-0.3336524963378906,1.576905369758606
116,32381,32378,0.022626439109444618,0.025145018473267555,0.9994749426841736,15.77672290802002,3.126613140106201,-0.8408273458480835,1.937355637550354,3.9748897552490234,0.3001852333545685,-0.8358316421508789,-0.2303124964237213,1.5690343379974365
117,32391,32388,-0.012208166532218456,-0.0627819299697876,1.0253697633743286,17.064346313476562,5.750523567199707,-0.8370664715766907,1.9371130466461182,3.973857879638672,0.30035004019737244,-0.8720764517784119,0.14116312563419342,1.5743781328201294
118,32401,32398,0.028844201937317848,0.004529298283159733,1.0039799213409424,15.022964477539062,8.74683666229248,-0.9190412759780884,1.9365813732147217,3.974897861480713,0.30035048723220825,-0.9638935327529907,0.2558573782444,1.562944769859314
119,32411,32408,0.03535741940140724,0.05998587608337402,1.0413435697555542,11.268508911132812,8.917550086975098,-1.0995696783065796,1.9361952543258667,3.9759268760681152,0.3015749752521515,-1.0137757062911987,0.3164979815483093,1.5460710525512695
120,32421,32418,0.019721144810318947,0.018438708037137985,1.0371949672698975,7.930542469024658,6.670772552490234,-1.984621286392212,1.9367934465408325,3.9759254455566406,0.30172449350357056,-1.1240265369415283,0.3968299925327301,1.531911015510559
121,32431,32428,-0.04073986038565636,0.08270703256130219,1.0386661291122437,5.293335914611816,3.3583266735076904,-1.619998812675476,1.9366674423217773,3.9763784408569336,0.30187833309173584,-1.1858185529708862,0.4408343434333801,1.509188175201416
122,32441,32438,0.024443289265036583,-0.03377139940857887,0.9849598407745361,4.36398983001709,1.9244720935821533,-1.9159297943115234,1.9359261989593506,3.9767355918884277,0.2995045781135559,-1.1889828443527222,0.4496460556983948,1.486565113067627
123,32451,32448,-0.025105157867074013,-0.007954861037433147,1.0321213006973267,6.434060096740723,-0.7528025507926941,-1.8283419609069824,1.93694007396698,3.9766955375671387,0.29958581924438477,-1.243118405342102,0.5370487570762634,1.4726334810256958
124,32461,32458,0.010044451802968979,-0.005160127300769091,1.028772234916687,8.214109420776367,-2.8278403282165527,-1.3315666913986206,1.9368491172790527,3.9769484996795654,0.29974180459976196,-1.1765936613082886,0.6610944271087646,1.463761568069458
125,32471,32468,-0.003191896015778184,-0.0961582139134407,1.022933840751648,10.209854125976562,-0.8489610552787781,-1.3094154596328735,1.937090277671814,3.9779937267303467,0.29980945587158203,-1.1412231922149658,0.7487683892250061,1.4478331804275513
126,32481,32478,-0.014242478646337986,-0.007392202503979206,1.0631333589553833,10.57975959777832,-1.0275555849075317,-1.3202221393585205,1.936943769454956,3.9783358573913574,0.3006543517112732,-1.085073709487915,0.8546090722084045,1.4351263046264648
127,32491,32488,0.047794364392757416,-0.004229556769132614,0.9566730260848999,8.40715217590332,1.6386802196502686,-1.112733244895935,1.9391937255859375,3.9792652130126953,0.30080997943878174,-1.292260766029358,0.9347010850906372,1.405997395515442
128,32501,32498,-0.01750986836850643,-0.011036034673452377,1.0264678001403809,6.735173225402832,2.169806718826294,-1.1498055458068848,1.939013957977295,3.979552984237671,0.3011036515235901,-1.2642799615859985,0.9821697473526001,1.394575595855713
129,32511,32508,0.08501840382814407,-0.014439924620091915,0.9652926325798035,3.3139054775238037,6.031409740447998,-1.408819556236267,1.9386601448059082,3.97835636138916,0.3015997111797333,-1.2212045192718506,1.1575536727905273,1.4089535474777222
130,32521,32518,0.04437651485204697,-0.03281588852405548,1.013014554977417,2.2790679931640625,-0.05725724995136261,-1.437853455543518,1.938767910003662,3.9811079502105713,0.30188316106796265,-1.2095528841018677,0.9554484486579895,1.3626728057861328
131,32531,32528,-0.07929704338312149,0.006276069674640894,1.0334608554840088,2.002955913543701,-3.1498677730560303,-0.9954385757446289,1.9378468990325928,3.980590343475342,0.3022677004337311,-1.111188530921936,1.07472562789917,1.373238444328308
132,32541,32538,0.005288234446197748,-0.06263488531112671,1.0017645359039307,2.7352211475372314,-3.710836887359619,-0.9530881643295288,1.9391491413116455,3.9802699089050293,0.30232521891593933,-1.1909292936325073,1.1812466382980347,1.3599512577056885
133,32551,32548,-0.005811660084873438,-0.023240290582180023,0.9995905756950378,1.9710794687271118,-5.4263224601745605,-0.424108624458313,1.9399482011795044,3.9795095920562744,0.30263039469718933,-1.1338422298431396,1.2828145027160645,1.3658758401870728
134,32561,32558,0.0229337140917778,-0.056809473782777786,1.0294146537780762,0.31276556849479675,-4.84989595413208,-0.747535228729248,1.9403208494186401,3.979830265045166,0.3029051125049591,-1.1404637098312378,1.272470474243164,1.3472509384155273
135,32571,32568,0.007613123394548893,-0.0743904635310173,1.018384337425232,-0.783623218536377,-2.997551441192627,-0.8480170369148254,1.9414538145065308,3.9806151390075684,0.30325573682785034,-1.077480435371399,1.240761160850525,1.33705472946167
136,32581,32578,0.02074679546058178,-0.04832218959927559,1.0028836727142334,-1.7491697072982788,-1.8737256526947021,-1.0842229127883911,1.9416334629058838,3.982076406478882,0.3031882643699646,-0.9674034118652344,1.2638124227523804,1.3500131368637085
137,32591,32588,-0.014096361584961414,0.02169777639210224,1.0279306173324585,-2.449312925338745,0.02848178707063198,-1.601956844329834,1.943326711654663,3.982004165649414,0.30339688062667847,-1.1134618520736694,1.125474452972412,1.2876861095428467
138,32601,32598,0.023098520934581757,-0.04620989039540291,0.9607945084571838,-2.825458288192749,-0.3000606298446655,-1.1068662405014038,1.9442365169525146,3.982262134552002,0.3038405776023865,-1.0469589233398438,1.1277520656585693,1.2929009199142456
139,32611,32608,0.012786532752215862,-0.0033797796349972486,1.0234553813934326,-0.6271744966506958,-2.3585917949676514,-0.9177858233451843,1.9460339546203613,3.9838056564331055,0.3064475655555725,-1.18308687210083,1.1418325901031494,1.2663897275924683
140,32621,32618,-0.009188110008835793,0.01578565314412117,1.0540658235549927,1.3308683633804321,-4.675043106079102,-0.8682388663291931,1.9465131759643555,3.9837965965270996,0.30695322155952454,-1.0997233390808105,1.1933668851852417,1.2724099159240723
141,32631,32628,-0.008305848576128483,-0.03162600100040436,0.9998666048049927,2.37367844581604,-8.07939624786377,-0.7371320128440857,1.9461714029312134,3.9841384887695312,0.30758512020111084,-0.9171783328056335,1.2546802759170532,1.296101689338684
142,32641,32638,-0.04247032850980759,0.10966943204402924,1.0003056526184082,0.23395095765590668,-7.6190009117126465,-0.7607095837593079,1.947798490524292,3.982710123062134,0.3082796633243561,-0.985589325428009,1.3143279552459717,1.259318470954895
143,32651,32648,0.007152209058403969,-0.011627908796072006,0.99281245470047,-1.9884077310562134,-7.683184623718262,-0.36638572812080383,1.947537899017334,3.9826760292053223,0.30897757411003113,-0.7627944946289062,1.3254371881484985,1.2850699424743652
144,32661,32658,0.004516027867794037,0.06406833231449127,0.9939208626747131,-4.99116325378418,-6.981614112854004,-0.6804333329200745,1.9475146532058716,3.9825079441070557,0.30955272912979126,-0.7216073870658875,1.2802733182907104,1.2711901664733887
145,32671,32668,0.012520821765065193,-0.03562426194548607,0.9389731287956238,-7.551485061645508,-4.771481037139893,-0.7751727104187012,1.9507521390914917,3.9827165603637695,0.3096379041671753,-0.8305953145027161,1.193403720855713,1.2227706909179688
146,32681,32678,0.0005088287289254367,-0.15995678305625916,0.9751491546630859,-8.281876564025879,-5.036218643188477,-0.3061535954475403,1.9506685733795166,3.9849984645843506,0.31028082966804504,-0.6471432447433472,1.0693211555480957,1.2432994842529297
147,32691,32688,-0.019986631348729134,0.014690125361084938,1.017161250114441,-7.147965431213379,-5.215685844421387,-0.5879713296890259,1.951254963874817,3.984555959701538,0.31075718998908997,-0.6288163065910339,1.0251346826553345,1.2353737354278564
148,32701,32698,0.0060988678596913815,-0.1392248570919037,0.9807194471359253,-5.906657695770264,-2.9764513969421387,-0.39639002084732056,1.9509649276733398,3.9848358631134033,0.31136035919189453,-0.4429492652416229,0.9354705810546875,1.2574660778045654
149,32711,32708,-0.02037048526108265,-0.041048094630241394,1.0067620277404785,-4.298718452453613,-3.5712578296661377,-0.43735671043395996,1.953688383102417,3.9858238697052,0.31142905354499817,-0.6101593375205994,0.8612035512924194,1.2073585987091064
150,32721,32718,0.052479300647974014,0.021476246416568756,0.9649612903594971,-3.654670000076294,-0.3680708408355713,-0.2630844712257385,1.955804705619812,3.984626293182373,0.31189513206481934,-0.6136997938156128,0.9634568095207214,1.2065969705581665
151,32731,32728,0.15801262855529785,0.09874227643013,0.9335798621177673,-2.903719663619995,-2.727524995803833,-0.7928444147109985,1.9565927982330322,3.9847166538238525,0.31230178475379944,-0.6339498162269592,0.9116503596305847,1.192133903503418
152,32741,32738,0.013847531750798225,0.01060535479336977,0.9801995754241943,-3.5837490558624268,-5.780897617340088,-1.4128587245941162,1.9567807912826538,3.9841861724853516,0.3088054955005646,-0.5268898606300354,0.8576282262802124,1.1805235147476196
153,32751,32748,-0.06233906373381615,-0.022620072588324547,0.9851019978523254,-5.3548903465271,-6.954169273376465,-1.106345295906067,1.958036184310913,3.9820973873138428,0.30891573429107666,-0.4027470052242279,0.852952778339386,1.1819431781768799
154,32761,32758,0.011343821883201599,-0.03485890477895737,0.963337242603302,-6.717585563659668,-9.257810592651367,-1.4458472728729248,1.959277629852295,3.981921672821045,0.30893248319625854,-0.40127256512641907,0.821851372718811,1.1543010473251343
155,32771,32768,-0.016467563807964325,0.024778639897704124,0.9837945103645325,-8.30636215209961,-8.81480598449707,-0.781619668006897,1.960204005241394,3.9824345111846924,0.3096578121185303,-0.2889005243778229,0.6836129426956177,1.1402575969696045
156,32781,32778,-0.050490569323301315,0.06829246878623962,0.9785963296890259,-9.121262550354004,-8.508094787597656,-0.31862324476242065,1.9609686136245728,3.980466842651367,0.3096820116043091,-0.2671957314014435,0.6767987012863159,1.1286287307739258
157,32791,32788,0.009982534684240818,-0.004238207824528217,0.9816399812698364,-7.905574798583984,-8.310159683227539,0.3249315321445465,1.959810733795166,3.980590343475342,0.3097659945487976,-0.09661020338535309,0.5155466794967651,1.1485791206359863
158,32801,32798,0.004763191100209951,-0.05607664957642555,1.0274288654327393,-6.6475510597229,-3.817707061767578,-0.12709514796733856,1.959791660308838,3.9825124740600586,0.3099517524242401,0.11680101603269577,0.37972816824913025,1.1715368032455444
159,32811,32808,0.01561986654996872,-0.07188394665718079,0.9732286930084229,-5.454493522644043,0.18913699686527252,-0.42237788438796997,1.9623010158538818,3.982358932495117,0.3110376298427582,-0.06227697432041168,0.4205811321735382,1.14764404296875
160,32821,32818,-0.002694103866815567,0.002818671055138111,1.019885778427124,-3.7214136123657227,2.8921890258789062,-0.2766515016555786,1.9623172283172607,3.9822709560394287,0.31120458245277405,0.014402591623365879,0.33049795031547546,1.1579654216766357
161,32831,32828,0.014866788871586323,0.022719789296388626,1.017269253730774,-2.6942005157470703,3.581261396408081,-0.3921884298324585,1.961621642112732,3.98129940032959,0.31142234802246094,0.04173336550593376,0.3351069688796997,1.1642541885375977
162,32841,32838,0.0011263943742960691,-0.02827296406030655,0.9914931058883667,-3.092489719390869,2.7333970069885254,-0.41910627484321594,1.9634138345718384,3.980825424194336,0.3092826008796692,-0.06831035017967224,0.347982794046402,1.1507384777069092
163,32851,32848,-0.005921055097132921,-0.04858127608895302,0.9697027802467346,-3.341780662536621,1.6008654832839966,0.14598312973976135,1.9641860723495483,3.9812803268432617,0.30935153365135193,-0.01677980273962021,0.2695640027523041,1.1590362787246704
164,32861,32858,0.0013349168002605438,0.006215672940015793,1.0044078826904297,-4.86313009262085,0.9646141529083252,0.23916107416152954,1.9639675617218018,3.9800994396209717,0.3093641698360443,-0.018404722213745117,0.18955084681510925,1.1566709280014038
165,32871,32868,0.03399338200688362,-0.12384453415870667,1.0146023035049438,-4.264745712280273,-0.5773295164108276,0.43048349022865295,1.965449333190918,3.9788646697998047,0.31018540263175964,-0.0815160796046257,0.2461061328649521,1.1531345844268799
166,32881,32878,-0.012370959855616093,-0.00878120493143797,1.033410906791687,-4.622259140014648,-1.188815951347351,0.048619918525218964,1.9664500951766968,3.978644609451294,0.3101787269115448,-0.11712553352117538,0.14925649762153625,1.1540930271148682
167,32891,32888,0.016946416348218918,-0.03130101040005684,1.019432544708252,-3.9740443229675293,-1.9882330894470215,-0.3091096580028534,1.9664535522460938,3.976468801498413,0.3102835714817047,-0.05144042894244194,0.20711854100227356,1.1523200273513794
168,32901,32898,-0.009862949140369892,0.09889402240514755,0.9829638004302979,-4.91274881362915,-1.6485551595687866,0.1338663548231125,1.9681774377822876,3.976746082305908,0.31035521626472473,-0.08186931908130646,0.10328318923711777,1.14821195602417
169,32911,32908,-0.006433757022023201,0.03637674078345299,1.0292335748672485,-4.448263645172119,-2.2158448696136475,-0.04755835607647896,1.9682544469833374,3.9772379398345947,0.3100164532661438,-0.015321717597544193,0.0023646072950214148,1.1540037393569946
170,32921,32918,0.006648826412856579,-0.04079535976052284,0.9813923239707947,-5.422450542449951,-3.8610622882843018,0.15735869109630585,1.9703876972198486,3.977492570877075,0.30999627709388733,-0.09714698791503906,-0.09284685552120209,1.150129795074463
171,32931,32928,-0.09449680894613266,-0.14056655764579773,1.1061041355133057,-3.245182752609253,-7.0188822746276855,-0.2687939405441284,1.9702918529510498,3.976433038711548,0.31021058559417725,0.01133321039378643,-0.03800059109926224,1.1471210718154907
172,32941,32938,-0.06819961965084076,-0.19077743589878082,1.0611529350280762,-1.8122508525848389,-1.3925124406814575,-0.19396597146987915,1.9701370000839233,3.9765822887420654,0.3106858432292938,0.2009613960981369,-0.10588416457176208,1.1508710384368896
173,32951,32948,-0.029917752370238304,-0.03735581040382385,1.0416017770767212,-0.5005727410316467,-0.5147020816802979,-0.4466457962989807,1.9714066982269287,3.9767067432403564,0.31088170409202576,0.06298655271530151,-0.14191393554210663,1.1471959352493286
174,32961,32958,0.06692813336849213,0.0026206523180007935,0.9570935368537903,-0.7050737738609314,2.360565662384033,-0.15481051802635193,1.9720364809036255,3.9763176441192627,0.3112764060497284,0.15360860526561737,-0.09069912135601044,1.1422098875045776
175,32971,32968,0.005383986048400402,-0.011951306834816933,0.9970346689224243,-1.47588312625885,3.060218095779419,0.15202872455120087,1.972986102104187,3.976473569869995,0.31207481026649475,0.12759065628051758,-0.1311797946691513,1.1431559324264526
176,32981,32978,-0.0542905293405056,-0.031800128519535065,1.0257110595703125,-3.329282522201538,4.4792633056640625,0.043571799993515015,1.9732240438461304,3.9761931896209717,0.3123844563961029,0.08589918911457062,-0.18431980907917023,1.1465569734573364
177,32991,32988,-0.034165434539318085,-0.07465428858995438,1.0277681350708008,-3.599238157272339,3.006474018096924,0.03174494579434395,1.9743915796279907,3.975698471069336,0.3126809895038605,0.029133306816220284,-0.18478640913963318,1.1455434560775757
178,33001,32998,-0.03748033940792084,-0.04369260370731354,1.0141637325286865,-3.5078728199005127,0.38489118218421936,-0.025697538629174232,1.9743119478225708,3.973639726638794,0.31471967697143555,0.09998244047164917,-0.10744483768939972,1.1327375173568726
179,33011,33008,-0.016411175951361656,-0.04514181986451149,0.9930429458618164,-2.705315113067627,-1.1112619638442993,-0.07658181339502335,1.9752627611160278,3.9738497734069824,0.3152020573616028,0.10441336035728455,-0.1912347376346588,1.1368895769119263
180,33021,33018,-0.03742489218711853,0.09652749449014664,1.006287693977356,-4.319309711456299,-0.6943897604942322,-0.11205711215734482,1.9764877557754517,3.9741811752319336,0.3156597316265106,0.061299704015254974,-0.27871859073638916,1.1429345607757568
181,33031,33028,-0.014909063465893269,0.16933058202266693,1.01078200340271,-3.8538732528686523,-0.2865981459617615,0.12296020239591599,1.976067304611206,3.974370241165161,0.3162284791469574,0.15789076685905457,-0.3679523169994354,1.1444857120513916
182,33041,33038,-0.005301691126078367,0.12013810127973557,1.0204881429672241,-1.6598881483078003,0.5365580320358276,-0.3351764380931854,1.9788298606872559,3.974322557449341,0.3152792155742645,-0.07043879479169846,-0.4277787208557129,1.155059814453125
183,33051,33048,0.00013272823707666248,0.02495693974196911,0.9920887351036072,0.6901777386665344,0.012196294963359833,-0.3979048430919647,1.978692889213562,3.9739222526550293,0.31579601764678955,0.02183077484369278,-0.4444791376590729,1.1482731103897095
184,33061,33058,-0.01525198295712471,-0.08135011047124863,0.9570935368537903,2.5410077571868896,-0.36174771189689636,-0.554072916507721,1.9787747859954834,3.973433017730713,0.316321462392807,0.12813825905323029,-0.42402517795562744,1.1431788206100464
185,33071,33068,-0.05564376711845398,-0.04617948457598686,0.9685238599777222,3.5337095260620117,-0.558941125869751,-0.5548723936080933,1.9803838729858398,3.973701238632202,0.31818506121635437,0.06854532659053802,-0.37502098083496094,1.138859510421753
186,33081,33078,-0.04867690056562424,0.012992511503398418,0.9556687474250793,3.8946688175201416,-0.6178993582725525,-0.605681836605072,1.9810574054718018,3.9735071659088135,0.3186642825603485,0.08537308126688004,-0.3240707218647003,1.130821704864502
187,33091,33088,-0.029305415228009224,0.023017985746264458,0.9556151032447815,2.352202892303467,1.0947529077529907,-0.37031152844429016,1.9814355373382568,3.972111225128174,0.3191806972026825,0.16057762503623962,-0.2075411081314087,1.1144332885742188
188,33101,33098,0.02061764895915985,-0.049142416566610336,0.9488755464553833,0.19451846182346344,0.883798360824585,-0.38053059577941895,1.9824254512786865,3.972522735595703,0.32206210494041443,0.13967576622962952,-0.2007211446762085,1.1133463382720947
189,33111,33108,0.040640443563461304,-0.13929247856140137,0.9900168180465698,-1.8166017532348633,3.0174877643585205,-1.239644169807434,1.984118103981018,3.973259449005127,0.3225930333137512,0.06120414659380913,-0.29099372029304504,1.1258528232574463
190,33121,33118,0.00431687431409955,-0.02970755472779274,0.976017415523529,-3.708005905151367,3.0460689067840576,-1.1987816095352173,1.9845902919769287,3.9730679988861084,0.3231159448623657,-0.010060031898319721,-0.35393089056015015,1.1070382595062256
191,33131,33128,0.03320672735571861,-0.061360299587249756,0.9625577330589294,-1.9451369047164917,3.148668050765991,-1.9008605480194092,1.985015630722046,3.9723072052001953,0.32359614968299866,-0.05618251860141754,-0.32914838194847107,1.0878499746322632
192,33141,33138,0.051178157329559326,-0.035834334790706635,0.9541202187538147,-0.7958502173423767,3.126147508621216,-1.949623942375183,1.9863091707229614,3.9725849628448486,0.32486435770988464,-0.10668998956680298,-0.36294251680374146,1.0677549839019775
193,33151,33148,0.05213388055562973,0.012445527128875256,0.9300118088722229,0.6525071263313293,1.54179847240448,-1.7175238132476807,1.9870249032974243,3.972493886947632,0.32529494166374207,-0.1272115856409073,-0.37280964851379395,1.0700352191925049
194,33161,33158,0.08192828297615051,-0.007840941660106182,0.8870866894721985,1.2713496685028076,0.8558970093727112,-1.4765418767929077,1.9880191087722778,3.9712390899658203,0.32568591833114624,-0.17426550388336182,-0.29776865243911743,1.046566367149353
195,33171,33168,0.01014478038996458,-0.005083328112959862,0.9432259798049927,1.4380755424499512,0.218950554728508,-1.8248133659362793,1.9898704290390015,3.9708917140960693,0.32489538192749023,-0.2533930540084839,-0.2887217402458191,1.0340576171875
196,33181,33178,0.029744770377874374,-0.012331227771937847,0.9230204224586487,1.7733359336853027,-3.190110683441162,-1.571750283241272,1.989931344985962,3.9705238342285156,0.32520461082458496,-0.1279616504907608,-0.26747187972068787,1.014422059059143
197,33191,33188,-0.0017668271902948618,-0.03525328263640404,0.9490758180618286,2.229053497314453,-4.662846565246582,-1.3974056243896484,1.9911689758300781,3.97082257270813,0.32528841495513916,-0.1319471150636673,-0.24433207511901855,0.9988399744033813
198,33201,33198,-0.08020053803920746,0.020129909738898277,1.0118929147720337,1.0017988681793213,-6.05795431137085,-1.417563796043396,1.9922494888305664,3.9720311164855957,0.3221725523471832,-0.11455801874399185,-0.2984778881072998,0.9973187446594238
199,33211,33208,-0.051047518849372864,0.030019916594028473,1.0000163316726685,-0.3717004656791687,-3.434412956237793,-1.5168213844299316,1.9927136898040771,3.9719908237457275,0.32201969623565674,0.005377282854169607,-0.27860069274902344,0.9775837659835815
200,33221,33218,0.029176155105233192,0.006373205222189426,0.9604072570800781,-0.5965698957443237,-1.157705307006836,-1.1937450170516968,1.9931159019470215,3.97171688079834,0.3218413293361664,0.07941944897174835,-0.2841458022594452,0.9613710641860962
201,33231,33228,-0.02354341745376587,0.05128219723701477,0.9972377419471741,-1.0669745206832886,1.3004175424575806,-1.4692432880401611,1.994221568107605,3.9709956645965576,0.321608304977417,0.04756862297654152,-0.215018630027771,0.9545270800590515
202,33241,33238,-0.0636080726981163,0.13251380622386932,1.0062257051467896,-0.5963554978370667,3.0893568992614746,-1.1905784606933594,1.9944052696228027,3.970808267593384,0.3205236792564392,0.14378505945205688,-0.23434865474700928,0.9339722990989685
203,33251,33248,-0.018506677821278572,0.17880107462406158,0.9842827320098877,-0.36799103021621704,5.190266132354736,-1.0011887550354004,1.9966989755630493,3.971062421798706,0.3201616704463959,-0.09742465615272522,-0.2575780153274536,0.932766854763031
204,33261,33258,0.0043554832227528095,0.05305544659495354,0.9914072155952454,0.437522292137146,5.130616188049316,-1.2989563941955566,1.9970810413360596,3.971043348312378,0.3199319839477539,-0.03175091743469238,-0.26174262166023254,0.9282258749008179
205,33271,33268,0.03074236959218979,0.05666082352399826,0.9842674732208252,1.0484589338302612,3.732607364654541,-1.6115883588790894,1.9984967708587646,3.970259428024292,0.3225487172603607,-0.10629615187644958,-0.2608852982521057,0.9135494828224182
206,33281,33278,0.006751383654773235,-0.0012206962564960122,0.991917610168457,1.6672502756118774,0.07920210808515549,-1.4794974327087402,1.9987252950668335,3.969425916671753,0.3224831223487854,-0.07243579626083374,-0.17129063606262207,0.8965028524398804
207,33291,33288,0.007966323755681515,-0.08890048414468765,0.9545029401779175,1.7673625946044922,-3.143930673599243,-1.6067249774932861,2.0008699893951416,3.9698994159698486,0.32224753499031067,-0.22583486139774323,-0.15737533569335938,0.8912103176116943
208,33301,33298,-0.02703045681118965,-0.13025562465190887,0.9558773636817932,1.0859568119049072,-4.420340061187744,-1.387049674987793,2.0009055137634277,3.9693169593811035,0.32110050320625305,-0.14389877021312714,-0.13748446106910706,0.867876410484314
209,33311,33308,0.00819625798612833,-0.018346846103668213,0.9921420812606812,-0.8587771654129028,-4.904183864593506,-0.9078468680381775,2.0010507106781006,3.9692347049713135,0.3209546208381653,0.03288194537162781,-0.1286083608865738,0.8441619873046875
210,33321,33318,0.0020992399659007788,-0.020083650946617126,0.9986448287963867,-2.1266696453094482,-4.352671146392822,-1.3340781927108765,2.003812789916992,3.9695045948028564,0.3205671012401581,-0.11066346615552902,-0.1477356106042862,0.849172055721283
211,33331,33328,0.0018824905855581164,-0.031018700450658798,0.9986024498939514,-2.938218593597412,-2.0781519412994385,-1.659266710281372,2.003952741622925,3.969644784927368,0.3204229474067688,0.06914554536342621,-0.19129621982574463,0.8297612071037292
212,33341,33338,0.01723436266183853,-0.06687279790639877,1.0414425134658813,-2.914905548095703,-1.097244143486023,-2.1385459899902344,2.005319595336914,3.9690732955932617,0.3168908953666687,0.048742279410362244,-0.16762442886829376,0.8087649345397949
213,33351,33348,0.03526385873556137,-0.08936077356338501,0.9933280944824219,-1.1692287921905518,1.7211660146713257,-1.8436812162399292,2.0052685737609863,3.9690985679626465,0.3165188431739807,0.16658397018909454,-0.2268771529197693,0.7855901122093201
214,33361,33358,-0.022626738995313644,0.10223481059074402,1.015061855316162,-0.8779517412185669,3.630445718765259,-1.5665409564971924,2.006770610809326,3.969162702560425,0.31609514355659485,0.13742680847644806,-0.25828564167022705,0.7779169082641602
215,33371,33368,0.017241759225726128,-0.01083369366824627,0.9777763485908508,-0.2165364772081375,4.390578269958496,-1.9629535675048828,2.0077202320098877,3.9701898097991943,0.31295135617256165,0.08323731273412704,-0.2776665985584259,0.7675930261611938
216,33381,33378,-0.020896799862384796,-0.0038370059337466955,1.0427383184432983,0.9243683815002441,4.478240966796875,-2.5619006156921387,2.0091025829315186,3.969794988632202,0.3123825788497925,0.028605980798602104,-0.2809690833091736,0.7485361695289612
217,33391,33388,0.0036712726578116417,-0.059827204793691635,1.0389907360076904,2.095353603363037,4.25293493270874,-2.266129493713379,2.009641170501709,3.969280481338501,0.3119007647037506,0.05877102538943291,-0.26927149295806885,0.7144760489463806
218,33401,33398,-0.02174961380660534,-0.11073070764541626,1.0603041648864746,2.785205602645874,3.4109606742858887,-2.391118049621582,2.0109972953796387,3.968925714492798,0.31017616391181946,-0.05029181018471718,-0.2377239465713501,0.6908302307128906
219,33411,33408,0.009313791058957577,-0.03542513772845268,1.0437262058258057,2.7033560276031494,3.796632766723633,-2.5928287506103516,2.012415647506714,3.9680089950561523,0.30963391065597534,-0.07882507890462875,-0.11761414259672165,0.6615852117538452
220,33421,33418,0.006517880596220493,-0.018138715997338295,1.0040178298950195,1.5924562215805054,3.304704427719116,-1.980241060256958,2.0127506256103516,3.9691805839538574,0.3092276155948639,-0.04763595759868622,-0.08800573647022247,0.6546476483345032
221,33431,33428,-0.05749461427330971,-0.001924920710735023,1.1106430292129517,-0.12358956784009933,1.7706576585769653,-1.922232985496521,2.0135414600372314,3.969115734100342,0.31053224205970764,-0.014133388176560402,-0.07554303854703903,0.6411550045013428
222,33441,33438,-0.005680403206497431,-0.014789982698857784,1.0507831573486328,-1.3401023149490356,0.5766752362251282,-1.9696837663650513,2.0164153575897217,3.971726655960083,0.3101789355278015,-0.2277580052614212,-0.24932710826396942,0.6377208828926086
223,33451,33448,-0.02382563054561615,0.037359438836574554,1.0857630968093872,-2.038539171218872,-0.827275812625885,-1.9538196325302124,2.015897750854492,3.97082781791687,0.3100565969944,-0.14942607283592224,-0.26848503947257996,0.6053852438926697
224,33461,33458,0.06135845184326172,-0.00357307237572968,0.9963366985321045,-0.40911027789115906,-1.7760673761367798,-1.5384385585784912,2.0171446800231934,3.970862865447998,0.30985167622566223,-0.2037791758775711,-0.29116153717041016,0.5860710740089417
225,33471,33468,0.07285497337579727,0.0537218414247036,1.0204278230667114,1.1997989416122437,-0.37977302074432373,-1.3325129747390747,2.0183629989624023,3.9706242084503174,0.31042909622192383,-0.2336120903491974,-0.2860099673271179,0.563528835773468
226,33481,33478,0.08704797178506851,0.03204801678657532,1.0193275213241577,4.023379325866699,-2.891005039215088,-0.822710394859314,2.0183866024017334,3.969719171524048,0.31045207381248474,-0.20171476900577545,-0.2574247419834137,0.5491874814033508
227,33491,33488,0.05121771991252899,0.04079681262373924,1.0397030115127563,4.629312992095947,-3.1719679832458496,-0.6504331827163696,2.0189688205718994,3.969480037689209,0.31053122878074646,-0.09747537225484848,-0.19477544724941254,0.5190927982330322
228,33501,33498,-0.008845041505992413,-0.021819882094860077,1.0400454998016357,4.247349262237549,-3.6958742141723633,-0.5201135873794556,2.020742654800415,3.969407320022583,0.310685932636261,-0.19728383421897888,-0.11938425898551941,0.5403734445571899
229,33511,33508,0.028336167335510254,-0.034495916217565536,1.0305155515670776,2.8974063396453857,-2.8247222900390625,-0.6125868558883667,2.020277738571167,3.9705779552459717,0.31086161732673645,-0.02280806191265583,-0.051970358937978745,0.5584428906440735
230,33521,33518,-0.003967234864830971,-0.037204544991254807,1.0358455181121826,1.0788600444793701,-0.556065559387207,-0.7613742351531982,2.0230555534362793,3.9705185890197754,0.3108069598674774,-0.18959149718284607,-0.006069589406251907,0.562519907951355
231,33531,33528,0.01803748868405819,-0.020606763660907745,1.011374592781067,-1.0688365697860718,0.7563737034797668,-0.9823717474937439,2.0226476192474365,3.971862316131592,0.3090418875217438,-0.07226196676492691,0.009204881265759468,0.5816198587417603
232,33541,33538,-0.05400073155760765,0.06720231473445892,1.0410836935043335,-2.1102051734924316,0.3539346158504486,-0.9692376255989075,2.0229647159576416,3.972430467605591,0.3091617822647095,0.013336320407688618,-0.0865742638707161,0.5990930795669556
233,33551,33548,-0.017513863742351532,0.07974227517843246,0.9681529998779297,-1.96135675907135,3.494966745376587,-1.81049382686615,2.0241410732269287,3.9760937690734863,0.30915528535842896,-0.15396429598331451,-0.19213896989822388,0.6168229579925537
234,33561,33558,-0.025611283257603645,0.06387785077095032,1.0064008235931396,-1.8975774049758911,-0.18183661997318268,-1.3802419900894165,2.0243213176727295,3.976228952407837,0.30930572748184204,-0.0888645201921463,-0.21381589770317078,0.5992590188980103
235,33571,33568,0.02312706969678402,0.021221786737442017,0.9654859900474548,1.6796793937683105,-2.62802791595459,-0.994247555732727,2.0252761840820312,3.9765331745147705,0.30750903487205505,-0.0961935967206955,-0.2238074392080307,0.5840126872062683
236,33581,33578,-0.006961183622479439,0.010437386110424995,1.00236976146698,5.369116306304932,-1.16549813747406,-0.6195406913757324,2.025879383087158,3.976041793823242,0.30744653940200806,-0.08080056309700012,-0.18287293612957,0.5723496079444885
237,33591,33588,0.013499089516699314,-0.08426248282194138,1.0226551294326782,6.136836528778076,-0.337235689163208,-0.6090542078018188,2.027613401412964,3.9757466316223145,0.30727964639663696,-0.17298926413059235,-0.08062413334846497,0.5951288938522339
238,33601,33598,0.01044908631592989,-0.03792497515678406,1.0210537910461426,6.536742210388184,0.7375569939613342,-0.5500345826148987,2.028332471847534,3.9771580696105957,0.3080788254737854,-0.20362530648708344,-0.1143132820725441,0.5849593281745911
