,timestamp_start,timestamp_end,acc.x,acc.y,acc.z,gyro.x,gyro.y,gyro.z,stateEstimate.x,stateEstimate.y,stateEstimate.z,stabilizer.pitch,stabilizer.roll,stabilizer.yaw
0,20306,20303,0.002420581877231598,-0.08279209583997726,1.1073403358459473,4.518030643463135,7.090813159942627,0.9222323894500732,1.995089054107666,4.147390842437744,0.1679023802280426,0.36543869972229004,0.6413689851760864,3.320775032043457
1,20316,20313,-0.012357897125184536,-0.07843704521656036,1.0748658180236816,0.48255959153175354,13.298667907714844,0.6740082502365112,1.9952903985977173,4.146219730377197,0.16984565556049347,0.15446297824382782,0.7207309007644653,3.3142426013946533
2,20326,20323,0.02227744087576866,-0.00970745924860239,0.9727303981781006,-6.433392524719238,14.715418815612793,0.35864028334617615,1.9921650886535645,4.146505832672119,0.17277640104293823,0.004727387335151434,0.7085677981376648,3.3208656311035156
3,20336,20333,0.047995325177907944,-0.0908961221575737,1.0214345455169678,-12.483201026916504,11.849329948425293,-0.6763427257537842,1.991307258605957,4.145421981811523,0.17454811930656433,-0.06913792341947556,0.7192484736442566,3.3278284072875977
4,20346,20343,-0.01649351231753826,-0.08149100840091705,1.0192339420318604,-15.633567810058594,9.450623512268066,-0.03857213631272316,1.9876015186309814,4.152923583984375,0.1765323132276535,-0.2433684915304184,0.5651755332946777,3.3196303844451904
5,20356,20353,0.01469817478209734,0.0061283656395971775,1.0082495212554932,-17.112199783325195,3.6719422340393066,1.3686882257461548,1.9883475303649902,4.154436111450195,0.18115851283073425,-0.42586851119995117,0.37554845213890076,3.3100059032440186
6,20366,20363,0.03269190713763237,0.017739329487085342,1.049589991569519,-13.4150390625,-3.7397496700286865,0.4879271388053894,1.9850093126296997,4.1505126953125,0.18305465579032898,-0.3099572956562042,0.6824623346328735,3.342114210128784
7,20376,20373,0.0058253463357687,0.05160015821456909,1.101199984550476,-10.950179100036621,-2.589841604232788,-0.31524819135665894,1.9869296550750732,4.150993824005127,0.18552061915397644,-0.2871810495853424,0.4698121249675751,3.343043088912964
8,20386,20383,-0.013567405752837658,0.022348348051309586,0.976142942905426,-12.990659713745117,0.9954087734222412,0.6481665372848511,1.9851338863372803,4.144619941711426,0.1882234513759613,-0.33782997727394104,0.2266450673341751,3.330179452896118
9,20396,20393,-0.014219524338841438,-0.06015168875455856,1.0166244506835938,-13.780686378479004,-0.1457005888223648,1.0363340377807617,1.9855250120162964,4.140527248382568,0.1928882747888565,-0.2756337821483612,0.12806598842144012,3.3425588607788086
10,20406,20403,0.020263826474547386,-0.14266842603683472,1.0869991779327393,-13.251904487609863,-0.41792574524879456,0.5980537533760071,1.9859017133712769,4.141866683959961,0.1954837441444397,-0.36585089564323425,-0.0655059963464737,3.340792179107666
11,20416,20413,0.03457943722605705,-0.09636809676885605,1.056610107421875,-12.08103084564209,4.205639362335205,-0.6038326025009155,1.9856873750686646,4.141458034515381,0.19804655015468597,-0.39190131425857544,-0.2270774245262146,3.3381447792053223
12,20426,20423,0.015545726753771305,-0.0489719957113266,1.002495288848877,-11.71609878540039,6.655763149261475,-0.3225265443325043,1.9866535663604736,4.141096115112305,0.1998753696680069,-0.5309277176856995,-0.2328982800245285,3.3357486724853516
13,20436,20433,-0.023512747138738632,0.0016664351569488645,1.0332181453704834,-9.495054244995117,8.013005256652832,-0.21286749839782715,1.9842267036437988,4.1383280754089355,0.2026110738515854,-0.6066817045211792,-0.5102633237838745,3.31709623336792
14,20446,20443,0.036671798676252365,-0.033756084740161896,1.0450091361999512,-7.248590469360352,-0.8176997303962708,-0.05731082335114479,1.982386827468872,4.137391090393066,0.2052617073059082,-0.5662229657173157,-0.5902411341667175,3.3165485858917236
15,20456,20453,0.003111810889095068,0.004611467942595482,1.0529744625091553,-2.9612040519714355,-5.829779148101807,0.4388013780117035,1.98197603225708,4.137210369110107,0.2074950486421585,-0.5849159955978394,-0.6166263222694397,3.321444272994995
16,20466,20463,-0.060642942786216736,0.08208950608968735,1.010456919670105,-1.4002549648284912,-4.133266925811768,0.10124439746141434,1.9805887937545776,4.137146472930908,0.21016399562358856,-0.4152912199497223,-0.6075049638748169,3.3273367881774902
17,20476,20473,-0.019861899316310883,0.11838797479867935,0.9190202951431274,-2.252261161804199,-3.2664783000946045,0.3619328737258911,1.9792547225952148,4.142245769500732,0.21292106807231903,-0.41642600297927856,-0.720556378364563,3.3188538551330566
18,20486,20483,-0.012378093786537647,-0.11154724657535553,0.9892609119415283,-2.8536243438720703,-3.415217161178589,0.3104269504547119,1.975755214691162,4.135317325592041,0.21561641991138458,-0.4192796051502228,-0.7609593868255615,3.322488307952881
19,20496,20493,-0.008872885257005692,-0.1987055093050003,0.9667912125587463,-3.3294262886047363,-1.104872226715088,-0.0852806568145752,1.9729558229446411,4.136343479156494,0.21765223145484924,-0.4340393543243408,-0.7304240465164185,3.3336105346679688
20,20506,20503,-0.06256840378046036,-0.08295297622680664,0.9693730473518372,-4.304435729980469,-1.0151087045669556,-0.8789252638816833,1.9717382192611694,4.135958671569824,0.2202378511428833,-0.3938647508621216,-0.8755801916122437,3.31864070892334
21,20516,20513,-0.11323633044958115,0.018053054809570312,0.9600538015365601,-4.762185573577881,0.7579894065856934,-0.8103199005126953,1.9684207439422607,4.141212463378906,0.2228008210659027,-0.36964210867881775,-1.0143954753875732,3.299863576889038
22,20526,20523,-0.08582130819559097,0.0675392597913742,0.9300223588943481,-5.192226409912109,1.0597662925720215,-0.5426898002624512,1.9674742221832275,4.141829967498779,0.22429907321929932,-0.43202877044677734,-1.076529622077942,3.297027587890625
23,20536,20533,-0.027277939021587372,0.06990589201450348,0.9489032030105591,-2.650139808654785,1.9422051906585693,0.0733700841665268,1.9639931917190552,4.146822929382324,0.2263898253440857,0.02168954722583294,-1.626947283744812,3.199946165084839
24,20546,20543,-0.005544788204133511,0.016227101907134056,0.9685098528862,1.3222390413284302,2.0713002681732178,0.06205880269408226,1.9720945358276367,4.15103816986084,0.23196765780448914,-1.4269399642944336,-1.6220061779022217,3.369101047515869
25,20556,20553,0.00927181076258421,-0.007495460100471973,0.9455223083496094,8.927001953125,3.0241293907165527,-0.09462784230709076,1.9617425203323364,4.149664402008057,0.23860706388950348,-0.29178428649902344,-1.5218764543533325,3.2185447216033936
26,20566,20563,-0.007698741275817156,0.05192995071411133,0.968475341796875,14.960282325744629,-0.039177484810352325,0.4008544981479645,1.9562594890594482,4.152543067932129,0.24093753099441528,0.08284153789281845,-1.382145643234253,3.165306806564331
27,20576,20573,-0.02408791519701481,0.05795366317033768,0.9781794548034668,18.461912155151367,1.2803977727890015,0.7738062739372253,1.955999493598938,4.152324676513672,0.2439214438199997,-0.024160873144865036,-1.1549173593521118,3.1954197883605957
28,20586,20583,-0.02496417611837387,0.06138304993510246,0.9444518089294434,18.101430892944336,10.099180221557617,0.28101497888565063,1.9537376165390015,4.146437168121338,0.242995485663414,-0.10709346830844879,-0.8243322372436523,3.223906993865967
29,20596,20593,-0.06311459839344025,0.07833554595708847,0.8982279896736145,15.286571502685547,12.465840339660645,0.047520045191049576,1.9491403102874756,4.144543647766113,0.24543733894824982,-0.27091243863105774,-0.7505611777305603,3.2301201820373535
30,20606,20603,-0.030084453523159027,0.03804730623960495,0.886933445930481,8.682615280151367,13.521020889282227,0.7078267931938171,1.9501811265945435,4.139549732208252,0.24781371653079987,-0.4935740828514099,-0.5323355793952942,3.254068613052368
31,20616,20613,-0.00987741444259882,0.007807050831615925,0.9366015195846558,4.265460968017578,15.321138381958008,0.12698806822299957,1.9482825994491577,4.1383185386657715,0.2500842809677124,-0.7163970470428467,-0.4134924113750458,3.274113893508911
32,20626,20623,0.04062532261013985,-0.027707332745194435,0.8956368565559387,0.49138060212135315,13.211309432983398,0.0002655594435054809,1.9489978551864624,4.138216495513916,0.24889978766441345,-0.9927263259887695,-0.3649623692035675,3.2934765815734863
33,20636,20633,0.047434207051992416,-0.08728895336389542,0.8774349093437195,-1.4651517868041992,7.816706657409668,-0.2376713752746582,1.9473564624786377,4.1364216804504395,0.2506822347640991,-1.0469416379928589,-0.3681114614009857,3.2836110591888428
34,20646,20643,0.03656478226184845,-0.155223548412323,0.8914960622787476,-1.4211517572402954,0.2806534171104431,-0.5004270672798157,1.9483692646026611,4.134496688842773,0.2523379325866699,-1.1555078029632568,-0.3943232595920563,3.2846381664276123
35,20656,20653,0.02405187115073204,-0.19806158542633057,0.8859886527061462,-0.46451306343078613,-5.6662726402282715,-1.05380380153656,1.951233983039856,4.131184101104736,0.25289154052734375,-1.1497998237609863,-0.3431853950023651,3.2847259044647217
36,20666,20663,-0.0031420185696333647,-0.18816928565502167,0.9317256212234497,1.9755436182022095,-9.965002059936523,-1.5573498010635376,1.9511233568191528,4.13113260269165,0.2528957724571228,-1.0620239973068237,-0.3322502374649048,3.270224094390869
37,20676,20673,-0.06978356838226318,-0.11858154088258743,1.0171658992767334,4.828375339508057,-11.79524040222168,-2.1732842922210693,1.9518117904663086,4.130229949951172,0.2544335722923279,-0.9435123801231384,-0.14665280282497406,3.2725772857666016
38,20686,20683,-0.1154218316078186,-0.06001356244087219,1.0095654726028442,3.921329975128174,-6.832661151885986,-2.3320937156677246,1.9509845972061157,4.130362510681152,0.2542565166950226,-0.8877947926521301,-0.16632235050201416,3.2451539039611816
39,20696,20693,0.08165697753429413,-0.10408040136098862,0.932166576385498,2.714541435241699,-7.000382423400879,-2.19773530960083,1.9500739574432373,4.127244472503662,0.25551050901412964,-0.8389980792999268,-0.05884809419512749,3.234151840209961
40,20706,20703,-0.02272609993815422,0.013558547012507915,0.9287431836128235,-0.1396891325712204,-5.759320259094238,-2.056309461593628,1.9494446516036987,4.128693580627441,0.2568328380584717,-0.7533449530601501,-0.13034015893936157,3.2002339363098145
41,20716,20713,-0.04444893077015877,0.10345897078514099,0.9439529180526733,-2.7795777320861816,-3.496541738510132,-2.3230843544006348,1.947616457939148,4.1266961097717285,0.25806301832199097,-0.6953424215316772,-0.025563694536685944,3.195383310317993
42,20726,20723,-0.0027187487576156855,0.01702338270843029,0.9577149152755737,-3.547333240509033,-2.2817952632904053,-2.638460874557495,1.948385238647461,4.127720355987549,0.25749990344047546,-0.6618385910987854,-0.2522468566894531,3.142277479171753
43,20736,20733,0.01605934277176857,0.06845307350158691,0.9981785416603088,-3.496955394744873,-1.9106391668319702,-3.3524208068847656,1.947016954421997,4.126030921936035,0.2585265338420868,-0.6401903629302979,-0.0948990136384964,3.1386070251464844
44,20746,20743,-0.01544752437621355,0.06013474985957146,1.0178580284118652,-2.209076404571533,-1.9997124671936035,-3.8471999168395996,1.9504013061523438,4.126392841339111,0.2595483958721161,-1.066221833229065,-0.16602592170238495,3.1094517707824707
45,20756,20753,-0.004299307707697153,0.029603617265820503,0.9848898649215698,-0.24459241330623627,-1.411148190498352,-4.785890102386475,1.9500758647918701,4.1279449462890625,0.25972893834114075,-0.994378387928009,-0.19964756071567535,3.0631377696990967
46,20766,20763,-0.07525352388620377,0.1226375550031662,0.9841457605361938,0.24259603023529053,-5.939407825469971,-3.5875463485717773,1.9496228694915771,4.124593734741211,0.2606281638145447,-0.9741764068603516,0.009267281740903854,3.051581859588623
47,20776,20773,0.007898695766925812,-0.05580119416117668,0.9939427971839905,-0.3505233824253082,-9.232586860656738,-4.859844207763672,1.9497778415679932,4.125372409820557,0.26168665289878845,-0.8024874329566956,-0.04495280236005783,3.003908634185791
48,20786,20783,-0.005843481980264187,-0.020480457693338394,0.9978700280189514,-3.587332010269165,-12.731281280517578,-4.956660747528076,1.9491010904312134,4.124236106872559,0.26307669281959534,-0.739945650100708,-0.19940714538097382,2.9362335205078125
49,20796,20793,-0.012126605026423931,-0.03357105702161789,1.0217188596725464,-3.9919726848602295,-13.211323738098145,-5.3908538818359375,1.9506051540374756,4.123678684234619,0.2640174925327301,-0.6234905123710632,-0.213539257645607,2.890183687210083
50,20806,20803,-0.006231281440705061,0.0033221207559108734,1.0053642988204956,-3.5762858390808105,-12.592475891113281,-5.2496657371521,1.9482078552246094,4.122631072998047,0.2651110589504242,-0.2894151210784912,-0.3716949224472046,2.821268081665039
51,20816,20813,0.019702734425663948,-0.015072467736899853,0.9937426447868347,-0.8890178203582764,-15.010820388793945,-4.924778938293457,1.9462484121322632,4.121489524841309,0.2660832405090332,0.08377190679311752,-0.3449270725250244,2.7754769325256348
52,20826,20823,-0.02944047749042511,0.05610905960202217,0.9966123700141907,0.1958342045545578,-8.22787857055664,-4.482922554016113,1.9463527202606201,4.121834754943848,0.26426029205322266,-0.18579383194446564,0.39348694682121277,2.8074851036071777
53,20836,20833,0.0057588317431509495,-0.029677696526050568,0.9740678668022156,0.20886777341365814,-2.453911304473877,-4.724090099334717,1.9496214389801025,4.116960048675537,0.26561668515205383,-0.20621825754642487,0.31321075558662415,2.7517480850219727
54,20846,20843,-0.013027478009462357,-0.00345471128821373,1.0072108507156372,-5.464186191558838,2.781944990158081,-4.709686279296875,1.949865698814392,4.11653470993042,0.2666642963886261,-0.1563255786895752,0.18275417387485504,2.694227457046509
55,20856,20853,0.05545877665281296,-0.1343948394060135,0.9672614932060242,-11.23608112335205,1.0193707942962646,-4.558279037475586,1.9508930444717407,4.114969730377197,0.2666318416595459,-0.21562600135803223,0.12515316903591156,2.6474316120147705
56,20866,20863,0.007799070328474045,-0.19008497893810272,1.034697413444519,-15.033856391906738,-2.3580689430236816,-5.1627326011657715,1.9518375396728516,4.115551471710205,0.2676217555999756,-0.1682761013507843,-0.18173393607139587,2.5891647338867188
57,20876,20873,-0.000996487564407289,-0.17845959961414337,1.0282257795333862,-15.709737777709961,-5.0245184898376465,-4.834229946136475,1.952510952949524,4.11574125289917,0.2684730887413025,-0.14420382678508759,-0.43006160855293274,2.5346603393554688
58,20886,20883,0.00044274042011238635,-0.0409962460398674,0.9915010333061218,-14.167389869689941,-7.500683307647705,-4.479150772094727,1.951511263847351,4.114398956298828,0.26625770330429077,-0.05902913957834244,-0.581779956817627,2.486481189727783
59,20896,20893,0.010448348708450794,-0.00457120593637228,0.9759165644645691,-10.66784954071045,-10.615379333496094,-4.390990257263184,1.9526445865631104,4.1151347160339355,0.266916960477829,0.06723866611719131,-0.7731305360794067,2.4415979385375977
60,20906,20903,0.017454959452152252,0.011412329040467739,1.0081086158752441,-4.275297164916992,-11.980748176574707,-4.415867805480957,1.9534387588500977,4.113866329193115,0.2675490975379944,0.07888547331094742,-0.7859449982643127,2.398994207382202
61,20916,20913,-0.0034160339273512363,-0.02980172075331211,1.0107213258743286,1.2560967206954956,-11.104111671447754,-3.8684113025665283,1.9534136056900024,4.113758087158203,0.2682364881038666,0.3310669958591461,-0.8578445911407471,2.35671329498291
62,20926,20923,0.0021117955911904573,-0.009320254437625408,1.0237361192703247,4.912851810455322,-10.245028495788574,-3.781097412109375,1.9537755250930786,4.115304470062256,0.27013710141181946,0.3907080292701721,-0.9150828719139099,2.3212714195251465
63,20936,20933,-0.04144308343529701,0.038281429558992386,1.0063990354537964,5.950282573699951,-5.182412624359131,-3.067203998565674,1.955345869064331,4.114448070526123,0.27090826630592346,0.4026293456554413,-0.8505058288574219,2.2879996299743652
64,20946,20943,-0.009417973458766937,-0.030313553288578987,0.9984909296035767,6.841402053833008,-1.8985997438430786,-3.250497579574585,1.9551610946655273,4.115467548370361,0.2716907560825348,0.5075359344482422,-0.764055073261261,2.253878593444824
65,20956,20953,0.005954284220933914,-0.047170210629701614,1.0221493244171143,5.710169792175293,-0.7595155239105225,-3.2230751514434814,1.9570138454437256,4.1143269538879395,0.271629273891449,0.3394574224948883,-0.6762977242469788,2.2267746925354004
66,20966,20963,0.04888428375124931,-0.14392900466918945,1.024969220161438,4.539233684539795,-0.21508269011974335,-4.193778991699219,1.9580190181732178,4.114641189575195,0.27232927083969116,0.32757702469825745,-0.6901381611824036,2.192699909210205
67,20976,20973,-0.007067130878567696,-0.024382853880524635,1.0243204832077026,0.2280876487493515,-2.190286636352539,-4.751557350158691,1.957938313484192,4.113615036010742,0.2730439007282257,0.33274218440055847,-0.6717504858970642,2.150057315826416
68,20986,20983,0.019871562719345093,-0.026630589738488197,1.0116318464279175,-0.04600770026445389,-4.787471294403076,-5.673213481903076,1.9580440521240234,4.113170146942139,0.27158114314079285,0.45236995816230774,-0.6912475824356079,2.097970724105835
69,20996,20993,-0.030845725908875465,0.08724652230739594,0.9974117875099182,-0.7273003458976746,-7.56063175201416,-5.411596775054932,1.9580518007278442,4.114665985107422,0.27219969034194946,0.4490436613559723,-0.7848201394081116,2.0505802631378174
70,21006,21003,0.03215884789824486,-0.04132051765918732,0.9750052094459534,1.728997826576233,-7.526098728179932,-5.62614631652832,1.9566354751586914,4.1150102615356445,0.27290940284729004,0.5619872808456421,-0.7847809195518494,1.994361162185669
71,21016,21013,-0.032656230032444,0.009332329034805298,1.0649824142456055,4.088183403015137,-1.225513219833374,-5.393404960632324,1.9563544988632202,4.113646030426025,0.27369987964630127,0.701171338558197,-0.7396400570869446,1.9336268901824951
72,21026,21023,0.02901357039809227,-0.04629525542259216,0.979844331741333,3.543208360671997,8.797629356384277,-5.64923095703125,1.9576765298843384,4.113556385040283,0.27435988187789917,0.6205222606658936,-0.6667090058326721,1.8807870149612427
73,21036,21033,-0.015206345357000828,-0.0021117613650858402,1.0500824451446533,4.812908172607422,12.23440170288086,-5.029608726501465,1.958520531654358,4.113015651702881,0.2750326991081238,0.47139573097229004,-0.6701894402503967,1.8317779302597046
74,21046,21043,-0.02630620449781418,-0.11428722739219666,1.0661532878875732,3.7130932807922363,19.049741744995117,-5.805160045623779,1.9592922925949097,4.113501071929932,0.2757187485694885,0.22687643766403198,-0.5920207500457764,1.7777785062789917
75,21056,21053,-0.012796541675925255,-0.14639821648597717,1.0279597043991089,5.259788990020752,23.498151779174805,-6.650793075561523,1.9566154479980469,4.114017963409424,0.27778372168540955,0.07936891913414001,-0.5835655331611633,1.713660717010498
76,21066,21063,0.029005017131567,0.06843282282352448,1.0274018049240112,6.238578796386719,18.89451789855957,-6.643335342407227,1.9577149152755737,4.1128926277160645,0.2786153554916382,-0.22839660942554474,-0.4800473749637604,1.6454131603240967
77,21076,21073,0.04976354539394379,0.08838199079036713,0.9745358228683472,6.397073745727539,11.79355525970459,-6.76644229888916,1.956823468208313,4.113865852355957,0.27966922521591187,-0.2602418065071106,-0.5259070992469788,1.577480673789978
78,21086,21083,0.05121448636054993,0.0724693089723587,1.018635869026184,6.775998592376709,1.6597861051559448,-6.543334007263184,1.9563727378845215,4.111774444580078,0.2784993648529053,-0.1739446520805359,-0.4035669267177582,1.4956140518188477
79,21096,21093,0.0032315433491021395,0.03445400297641754,1.0627150535583496,6.957508563995361,-3.247852325439453,-6.42849063873291,1.9567161798477173,4.111972332000732,0.2792814373970032,-0.22170127928256989,-0.2885296642780304,1.4301987886428833
80,21106,21103,-0.011363902129232883,0.03346310183405876,1.0354732275009155,6.098052501678467,-1.997565746307373,-6.350158214569092,1.955082654953003,4.111958026885986,0.2801966667175293,-0.15068407356739044,-0.179643914103508,1.3615427017211914
81,21116,21113,-0.009146961383521557,-0.0033004682045429945,0.9651955962181091,3.807088613510132,3.3969688415527344,-5.95071268081665,1.9568029642105103,4.113831996917725,0.28137484192848206,-0.35592761635780334,-0.39093488454818726,1.3206316232681274
82,21126,21123,0.006847689859569073,-0.017724715173244476,0.9450428485870361,2.586874485015869,8.405153274536133,-6.181219577789307,1.9583250284194946,4.110152244567871,0.2821483314037323,-0.4708767831325531,-0.45775967836380005,1.2667216062545776
83,21136,21133,0.05815861374139786,-0.034195125102996826,0.9496026039123535,5.7091803550720215,6.897180557250977,-6.473531246185303,1.9584815502166748,4.109054088592529,0.2830751836299896,-0.5463191866874695,-0.348583847284317,1.2006465196609497
84,21146,21143,0.004347056150436401,-0.028507070615887642,0.9947774410247803,8.6476469039917,8.38479232788086,-6.205191612243652,1.9590785503387451,4.110748767852783,0.28390422463417053,-0.6121390461921692,-0.3261241614818573,1.1308735609054565
85,21156,21153,0.012241690419614315,-0.018955644220113754,1.0062202215194702,11.484932899475098,7.061797142028809,-6.1684770584106445,1.9578279256820679,4.108353614807129,0.2845846116542816,-0.5916963219642639,-0.10989551991224289,1.0649018287658691
86,21166,21163,0.01763598993420601,-0.03847842290997505,1.0122554302215576,13.612950325012207,3.097046136856079,-5.764378070831299,1.9576382637023926,4.109673500061035,0.28526583313941956,-0.6953402757644653,-0.07533863931894302,0.9973646402359009
87,21176,21173,-0.03776560723781586,-0.06598324328660965,1.0483720302581787,12.774821281433105,2.513798475265503,-5.657970428466797,1.9577553272247314,4.109302520751953,0.28620243072509766,-0.6579496264457703,0.05759779363870621,0.998860239982605
88,21186,21183,-0.057450778782367706,-0.05309218540787697,1.0629700422286987,9.986424446105957,1.4149565696716309,-5.866672515869141,1.9569545984268188,4.109164237976074,0.286378413438797,-0.5597203373908997,0.14252705872058868,0.9396129846572876
89,21196,21193,-0.0019039581529796124,-0.04259015992283821,1.001402497291565,6.3074421882629395,0.8067547082901001,-5.676358699798584,1.9574124813079834,4.113167762756348,0.28718870878219604,-0.6198370456695557,0.26234009861946106,0.8816454410552979
90,21206,21203,0.0025448650121688843,-0.012799332849681377,0.9986063241958618,2.567203998565674,1.4944384098052979,-6.167762756347656,1.9572542905807495,4.1113715171813965,0.2880520522594452,-0.6171844601631165,0.35227903723716736,0.7647473216056824
91,21216,21213,0.012784880585968494,-0.036349404603242874,0.9665995836257935,0.7029391527175903,2.0600192546844482,-5.66168212890625,1.957734227180481,4.1091837882995605,0.2915641963481903,-0.735175609588623,0.39790886640548706,0.7647759914398193
92,21226,21223,0.005133266095072031,-0.04655759409070015,0.979897141456604,0.394086092710495,3.5423636436462402,-5.336644649505615,1.9566426277160645,4.105940818786621,0.2925703227519989,-0.7402660250663757,0.4518795311450958,0.6515702605247498
93,21236,21233,0.026484185829758644,-0.006195227149873972,1.0242842435836792,1.472084641456604,2.2309207916259766,-5.276845455169678,1.9565404653549194,4.10481595993042,0.29345834255218506,-0.8554280400276184,0.4078449606895447,0.6423675417900085
94,21246,21243,0.03192926570773125,-0.029835885390639305,0.9607965350151062,2.173133373260498,0.878832995891571,-4.982011318206787,1.957543134689331,4.10592794418335,0.29462531208992004,-0.8355243802070618,0.45893558859825134,0.5895726680755615
95,21256,21253,0.021100347861647606,-0.046995848417282104,0.9515974521636963,4.180050373077393,-0.43198245763778687,-4.630431175231934,1.957400918006897,4.105714321136475,0.2964561879634857,-0.7926849126815796,0.5244977474212646,0.5448954105377197
96,21266,21263,0.0013590840389952064,-0.014427869580686092,0.9912007451057434,5.5412445068359375,-2.1511757373809814,-4.077609062194824,1.9579317569732666,4.104460716247559,0.29751351475715637,-0.7203320264816284,0.53852778673172,0.5010713934898376
97,21276,21273,-0.004334776662290096,0.01574109122157097,1.0088083744049072,3.799729585647583,-0.4905868470668793,-3.5793845653533936,1.9577423334121704,4.105057716369629,0.29851922392845154,-0.6453306674957275,0.5610750317573547,0.4612067937850952
98,21286,21283,0.024739423766732216,-0.015481607988476753,0.9646086692810059,3.056370496749878,-1.3338351249694824,-3.8506853580474854,1.9581732749938965,4.103702545166016,0.29689425230026245,-0.5890865325927734,0.6418163180351257,0.43073275685310364
99,21296,21293,-0.013730266131460667,-0.089093416929245,0.9859684109687805,1.540273666381836,4.298640727996826,-3.490654468536377,1.9605931043624878,4.10175085067749,0.29771295189857483,-0.7039136290550232,0.7025364637374878,0.3833504319190979
100,21306,21303,0.01298412587493658,-0.05581524968147278,0.9567481875419617,-0.4820171892642975,6.757432460784912,-3.424839735031128,1.960296869277954,4.101707935333252,0.29857802391052246,-0.6320241093635559,0.7358540892601013,0.35926321148872375
101,21316,21313,0.018340744078159332,-0.023763488978147507,0.9658893346786499,-1.1422683000564575,6.432461261749268,-3.8343939781188965,1.9612711668014526,4.099796772003174,0.3009853959083557,-0.6862932443618774,0.8131805658340454,0.33282893896102905
102,21326,21323,0.00874573364853859,-0.008732795715332031,0.9747567176818848,-2.4841771125793457,6.548469543457031,-3.762589693069458,1.9620400667190552,4.098386764526367,0.3019050359725952,-0.7454535961151123,0.7849956154823303,0.2956141233444214
103,21336,21333,0.00631455983966589,-0.019704386591911316,0.9191679358482361,-3.5282773971557617,3.3760643005371094,-3.39762544631958,1.9621391296386719,4.094185829162598,0.3028523027896881,-0.7890390157699585,0.7381523251533508,0.25789281725883484
104,21346,21343,0.013111633248627186,-0.03557775542140007,0.948939323425293,-4.642901420593262,0.7891106605529785,-3.240654468536377,1.9622286558151245,4.094513893127441,0.3031275272369385,-0.7944529056549072,0.6739546656608582,0.2252625674009323
105,21356,21353,0.02352799102663994,-0.06363724172115326,0.9587582945823669,-4.22011661529541,-1.4247663021087646,-3.1584317684173584,1.96316397190094,4.094756603240967,0.3039287030696869,-0.7676565051078796,0.595895528793335,0.19538909196853638
106,21366,21363,0.05215202271938324,-0.04887716472148895,0.94287109375,-3.678929328918457,-1.5306062698364258,-2.6213529109954834,1.9641320705413818,4.094069004058838,0.3046480715274811,-0.7965044379234314,0.5930382013320923,0.16365517675876617
107,21376,21373,0.009248399175703526,-0.013501322828233242,0.9679197669029236,-1.17893385887146,-1.49545419216156,-2.367182731628418,1.968448281288147,4.094355583190918,0.30507320165634155,-1.189785361289978,0.5377852916717529,0.08134809881448746
108,21386,21383,-0.008991951122879982,-0.0223190076649189,0.9677508473396301,-0.33828192949295044,-0.9842830300331116,-1.9828826189041138,1.9640384912490845,4.09182596206665,0.30794379115104675,-0.6982245445251465,0.5156872272491455,0.11684310436248779
109,21396,21393,0.009050380438566208,-0.04142067953944206,0.9520251154899597,-1.20734703540802,-1.375083327293396,-2.1576032638549805,1.9697755575180054,4.091938018798828,0.3084656596183777,-1.2524551153182983,0.5006096959114075,0.0227664802223444
110,21406,21403,0.031326595693826675,0.01777648739516735,0.9493836164474487,-0.961058497428894,-0.0492272824048996,-2.102985143661499,1.9703797101974487,4.089108943939209,0.30921027064323425,-1.2189335823059082,0.40585857629776,-0.00481842877343297
111,21416,21413,0.03973817080259323,0.1288309544324875,0.957198441028595,-2.5121712684631348,-2.616396188735962,-1.8859199285507202,1.9709607362747192,4.089300632476807,0.31035491824150085,-1.1057261228561401,0.39329543709754944,-0.01387319527566433
112,21426,21423,0.02149372547864914,0.08192688971757889,0.9658297300338745,-1.1192525625228882,-6.645528316497803,-1.8963940143585205,1.970577597618103,4.088447093963623,0.311063289642334,-1.0383433103561401,0.3667356073856354,-0.02798657864332199
113,21436,21433,0.0028308213222771883,-0.0019266633316874504,0.9645054936408997,-1.1724390983581543,-9.803548812866211,-1.9033485651016235,1.971729040145874,4.087504863739014,0.31170016527175903,-0.9858580231666565,0.3425637185573578,-0.0473792627453804
114,21446,21443,0.021270480006933212,-0.11011983454227448,0.9661813378334045,-0.27172064781188965,-11.790939331054688,-1.5829211473464966,1.9729878902435303,4.085389614105225,0.31380224227905273,-1.023678183555603,0.3282633423805237,-0.08286408334970474
115,21456,21453,0.02122856304049492,-0.04056767001748085,0.9967040419578552,-0.5724239945411682,-11.1461763381958,-1.3824903964996338,1.9725757837295532,4.083859920501709,0.3146814703941345,-0.7189610600471497,0.3252885341644287,-0.07745648920536041
116,21466,21463,0.03926844522356987,-0.05601983889937401,0.9446733593940735,-0.21670687198638916,-8.608527183532715,-1.308125376701355,1.9739727973937988,4.0825629234313965,0.3153662085533142,-0.6037203073501587,0.3207055628299713,-0.09022951126098633
117,21476,21473,0.046711865812540054,-0.062047477811574936,0.9099435806274414,-0.44100338220596313,-7.265213966369629,-1.1414660215377808,1.9750511646270752,4.08139705657959,0.31597551703453064,-0.6045236587524414,0.39361587166786194,-0.104690782725811
118,21486,21483,-0.0023880552034825087,-0.03831060603260994,0.9655675888061523,-1.4003843069076538,-4.30792760848999,-1.085750937461853,1.9761910438537598,4.081417083740234,0.31723660230636597,-0.5490801334381104,0.374848335981369,-0.12140439450740814
119,21496,21493,-0.027524253353476524,0.021904539316892624,0.9627906680107117,-2.4272027015686035,-2.5792741775512695,-0.9207139611244202,1.9756476879119873,4.079257011413574,0.3178561329841614,-0.44604262709617615,0.34840160608291626,-0.12794673442840576
120,21506,21503,-0.01755451411008835,0.0032548140734434128,0.9827935099601746,-2.3632652759552,-0.30187660455703735,-1.2721798419952393,1.9760111570358276,4.077531337738037,0.318371444940567,-0.4608350694179535,0.3140183091163635,-0.14288689196109772
121,21516,21513,-0.0033642067573964596,0.10237909108400345,0.9411201477050781,-2.6770825386047363,-0.5507129430770874,-1.2678637504577637,1.977686882019043,4.0757293701171875,0.32205748558044434,-0.5000192523002625,0.4227882921695709,-0.14860373735427856
122,21526,21523,-0.023183057084679604,1.0302722330379765e-05,0.9572973251342773,-2.712419033050537,-1.5474797487258911,-1.6883456707000732,1.977994680404663,4.077110290527344,0.322776734828949,-0.37901780009269714,0.3620239794254303,-0.15370799601078033
123,21536,21533,0.00994058232754469,0.11828653514385223,0.919110894203186,-3.1675240993499756,-3.347069501876831,-1.354846715927124,1.978313684463501,4.076242923736572,0.3233920931816101,-0.3279446065425873,0.3048765957355499,-0.16832418739795685
124,21546,21543,0.01149694062769413,-0.010732464492321014,0.9346945285797119,-3.757826089859009,-4.294228553771973,-1.2562004327774048,1.977909803390503,4.076895236968994,0.32265228033065796,-0.18124301731586456,0.24610842764377594,-0.17598700523376465
125,21556,21553,0.011128573678433895,0.11870469897985458,0.9247914552688599,-3.3957948684692383,-3.9341859817504883,-1.0587518215179443,1.980077862739563,4.077175617218018,0.3230114281177521,-0.2655298113822937,0.1729460060596466,-0.20107515156269073
126,21566,21563,-0.054254818707704544,-0.07380525767803192,1.0070754289627075,-4.3203959465026855,-2.2168540954589844,-0.4735572934150696,1.9793137311935425,4.076779365539551,0.32346057891845703,-0.1915634572505951,0.1813366413116455,-0.20712217688560486
127,21576,21573,-0.0012770781759172678,-0.04200964421033859,0.9897520542144775,-2.228565216064453,-3.244316816329956,-0.24495893716812134,1.9797180891036987,4.076960563659668,0.3242030143737793,-0.13217021524906158,0.11520328372716904,-0.21199046075344086
128,21586,21583,0.03934462368488312,0.11141139268875122,0.9862064123153687,-0.31795039772987366,-0.5613903999328613,-0.5013497471809387,1.9795745611190796,4.076515197753906,0.32461315393447876,-0.008982151746749878,0.06803914904594421,-0.20988939702510834
129,21596,21593,0.0005489938776008785,0.008373933844268322,0.9776701927185059,-2.088510036468506,0.4117424786090851,-0.20215502381324768,1.9801909923553467,4.076165676116943,0.3249731957912445,0.0010066081304103136,0.11853618919849396,-0.21378855407238007
130,21606,21603,0.007372744847089052,0.02833414264023304,0.9907424449920654,0.4012613296508789,2.211437940597534,-0.8751339316368103,1.9809905290603638,4.075392246246338,0.32529017329216003,-0.013788075186312199,0.16285040974617004,-0.21591103076934814
131,21616,21613,0.0023065863642841578,-0.0021038856357336044,0.981309175491333,-0.997861921787262,3.6868300437927246,-0.6027281880378723,1.9824514389038086,4.074593544006348,0.327547550201416,-0.04717990756034851,0.14471207559108734,-0.22320899367332458
132,21626,21623,-0.0012252385495230556,0.0011140169808641076,0.9769735336303711,-1.6366066932678223,3.0286648273468018,-1.152329444885254,1.9828404188156128,4.073627471923828,0.3279867172241211,-0.028678646311163902,0.1096285805106163,-0.22607716917991638
133,21636,21633,-0.005530239548534155,-0.0489669032394886,0.9856654405593872,0.5936378240585327,1.9045006036758423,-0.6285661458969116,1.9850142002105713,4.072404861450195,0.32831913232803345,-0.15231256186962128,0.08452863991260529,-0.24010883271694183
134,21646,21643,-0.004429173655807972,-0.10579709708690643,0.9982126355171204,-1.6580827236175537,2.6100897789001465,-0.7572102546691895,1.9851778745651245,4.071695327758789,0.3264063000679016,-0.10926996171474457,0.14194178581237793,-0.24494951963424683
135,21656,21653,0.005120676942169666,-0.1489797979593277,1.005568027496338,-3.7954630851745605,2.5965654850006104,-1.8777387142181396,1.9862699508666992,4.071934700012207,0.3266068994998932,-0.15056292712688446,0.08487368375062943,-0.25146812200546265
136,21666,21663,0.01039289403706789,-0.1768113225698471,1.0149286985397339,-1.391311526298523,0.7026879787445068,-2.1239514350891113,1.9880040884017944,4.071703910827637,0.32675859332084656,-0.25215110182762146,0.021419933065772057,-0.27035751938819885
137,21676,21673,0.0007234218064695597,-0.24027657508850098,1.0134154558181763,-2.3303747177124023,-0.4297429323196411,-2.2269601821899414,1.9872137308120728,4.069266319274902,0.3267139196395874,-0.17473548650741577,0.04647095128893852,-0.2895762324333191
138,21686,21683,-0.01788194477558136,-0.004043768160045147,0.9982763528823853,-1.0691291093826294,-2.4499800205230713,-2.0373098850250244,1.9879533052444458,4.069953441619873,0.32695940136909485,-0.1451648473739624,-0.002298557898029685,-0.3101261854171753
139,21696,21693,-0.030739061534404755,0.06940322369337082,0.9915493726730347,-1.6043015718460083,-1.0583972930908203,-2.158155679702759,1.985537052154541,4.068416118621826,0.327290415763855,-0.010684321634471416,-0.039395179599523544,-0.3389289677143097
140,21706,21703,0.008026907220482826,-0.14418096840381622,0.9505195617675781,-0.9136301279067993,0.10919489711523056,-1.7429203987121582,1.9874072074890137,4.066296100616455,0.32751569151878357,-0.06286422163248062,-0.0663081705570221,-0.36101609468460083
141,21716,21713,-0.00847267173230648,-0.19954726099967957,0.9364416599273682,0.9643009901046753,1.0988149642944336,-2.0037200450897217,1.9896295070648193,4.066575527191162,0.32579419016838074,-0.13739697635173798,-0.08045371621847153,-0.38031986355781555
142,21726,21723,-0.01962233893573284,-0.16030029952526093,0.9478475451469421,1.277933955192566,0.9133893251419067,-1.5185478925704956,1.9897047281265259,4.066473007202148,0.32589513063430786,-0.07452282309532166,-0.07304465025663376,-0.40006953477859497
143,21736,21733,0.01327082235366106,-0.013894178904592991,0.9729737043380737,1.400645136833191,0.9979056119918823,-1.2091546058654785,1.9897702932357788,4.066874980926514,0.3259687125682831,-0.02144092135131359,-0.05106792226433754,-0.41459891200065613
144,21746,21743,-0.0007765206973999739,-0.008627364411950111,0.9782170057296753,1.4071073532104492,1.6354881525039673,-0.9753350019454956,1.9898988008499146,4.0666680335998535,0.3263019025325775,-0.12520234286785126,-0.028333403170108795,-0.42810800671577454
145,21756,21753,0.0055870357900857925,-0.029309185221791267,0.9815657734870911,-0.37849465012550354,4.098153114318848,-1.059425950050354,1.992876648902893,4.066422462463379,0.32609158754348755,-0.3833821713924408,-0.029131058603525162,-0.43896156549453735
146,21766,21763,0.0043327962048351765,0.030871234834194183,0.9693014621734619,-0.9657402038574219,2.838261127471924,-0.5041065216064453,1.9919323921203613,4.064736366271973,0.32619011402130127,-0.3432876169681549,0.09735774248838425,-0.45295265316963196
147,21776,21773,-0.009621207602322102,0.06544109433889389,0.9582786560058594,-1.8793596029281616,-0.11584321409463882,0.004093507304787636,1.9915574789047241,4.064767360687256,0.3271840512752533,-0.285473108291626,0.06135185807943344,-0.4585344195365906
148,21786,21783,-0.01571587473154068,0.11626540124416351,0.955588161945343,-3.511117935180664,-2.0294628143310547,0.13149955868721008,1.991698980331421,4.064962863922119,0.3271638751029968,-0.26870912313461304,0.004847127478569746,-0.45862966775894165
149,21796,21793,0.001314427936449647,0.15660610795021057,0.9625764489173889,-5.761745929718018,-2.8763811588287354,0.4808695316314697,1.9921165704727173,4.064558982849121,0.3270425498485565,-0.3762190043926239,-0.08226309716701508,-0.45621979236602783
150,21806,21803,0.01712101325392723,0.1468043178319931,0.9721146821975708,-4.645750045776367,-2.986398458480835,0.9687239527702332,1.9922807216644287,4.064907073974609,0.3269484341144562,-0.3132253587245941,-0.18278484046459198,-0.45107531547546387
151,21816,21813,0.044284190982580185,0.12264744937419891,0.9583289623260498,-2.898458480834961,-1.5805943012237549,1.4870684146881104,1.9921098947525024,4.064215183258057,0.3289823532104492,-0.2552885413169861,-0.18691034615039825,-0.4428746998310089
152,21826,21823,0.0185372456908226,-0.010574459098279476,0.9622669219970703,0.4394523799419403,-2.5391457080841064,2.2236618995666504,1.9934730529785156,4.063416957855225,0.32888251543045044,-0.27999424934387207,-0.15527014434337616,-0.4292227029800415
153,21836,21833,0.06873058527708054,-0.011588089168071747,0.9304758906364441,2.819197416305542,-1.7278393507003784,2.5403339862823486,1.9946775436401367,4.062702655792236,0.32875335216522217,-0.3061218857765198,-0.15515823662281036,-0.40747642517089844
154,21846,21843,0.13123328983783722,-0.005887684877961874,0.9260833859443665,4.186038970947266,-1.7533526420593262,2.1341891288757324,1.9938899278640747,4.0616631507873535,0.3243282437324524,-0.18569400906562805,-0.19016708433628082,-0.38341355323791504
155,21856,21853,0.03879041597247124,-0.009812094271183014,0.9776881337165833,2.1294937133789062,-2.0832772254943848,3.26739501953125,1.993713140487671,4.060118675231934,0.32396766543388367,-0.07069782167673111,-0.06843017786741257,-0.37160083651542664
156,21866,21863,-0.017137182876467705,-0.02217656932771206,1.0085567235946655,-0.15488828718662262,-2.053353786468506,3.59078049659729,1.9940844774246216,4.058772087097168,0.3234904706478119,-0.105413056910038,-0.06255550682544708,-0.3395709991455078
157,21876,21873,0.02632146328687668,-0.07134760171175003,1.0276488065719604,-2.5048248767852783,-0.5952450037002563,3.6209020614624023,1.9963955879211426,4.057714939117432,0.32016506791114807,-0.22022299468517303,-0.09129563719034195,-0.3078327775001526
158,21886,21883,0.027864381670951843,-0.0970255434513092,1.0058114528656006,-5.327451705932617,2.287222146987915,3.657644271850586,1.9976933002471924,4.057112216949463,0.31955021619796753,-0.20599985122680664,-0.1582578420639038,-0.2770715057849884
159,21896,21893,0.04428762570023537,-0.03864230215549469,0.9823035001754761,-5.02243185043335,1.4553407430648804,3.628105401992798,1.9977532625198364,4.056468963623047,0.3189602494239807,-0.21974517405033112,-0.2453625500202179,-0.24613481760025024
160,21906,21903,-0.01754959486424923,0.018625322729349136,1.0346958637237549,-3.1550493240356445,0.8746001124382019,2.865600109100342,1.9980052709579468,4.05665922164917,0.31846627593040466,-0.14413997530937195,-0.31587591767311096,-0.22026707231998444
161,21916,21913,0.015517935156822205,-0.12407779693603516,1.0605193376541138,0.04744761437177658,0.09041467308998108,2.7396152019500732,1.9983713626861572,4.056038856506348,0.32052966952323914,-0.19811375439167023,-0.35869675874710083,-0.18747322261333466
162,21926,21923,0.01959017850458622,0.03953886032104492,1.0075925588607788,1.7299374341964722,-0.933000385761261,3.3848533630371094,1.9992775917053223,4.054424285888672,0.3201806843280792,-0.16613835096359253,-0.28142687678337097,-0.16096171736717224
163,21936,21933,-0.005207072012126446,0.05873682349920273,1.019417405128479,2.9417803287506104,-1.2357349395751953,2.993790864944458,1.99993097782135,4.053659439086914,0.31984469294548035,-0.12918402254581451,-0.2599312663078308,-0.1292053759098053
164,21946,21943,0.016676820814609528,-0.08473261445760727,1.0567066669464111,3.8176872730255127,-1.8991947174072266,2.741873264312744,1.9996182918548584,4.053922176361084,0.3182351291179657,-0.01072409562766552,-0.21509592235088348,-0.10012262314558029
165,21956,21953,-0.030608948320150375,-0.15286171436309814,1.1246771812438965,4.701892375946045,-2.7364766597747803,3.209683418273926,2.0019071102142334,4.054079055786133,0.3177981674671173,-0.11521601676940918,-0.2328392118215561,-0.07251866906881332
166,21966,21963,-0.012226111255586147,-0.21851631999015808,1.066656470298767,2.3711371421813965,0.6996047496795654,2.984320640563965,2.001612424850464,4.052536487579346,0.3175394833087921,-0.0654858723282814,-0.17248424887657166,-0.04151612147688866
167,21976,21973,-0.022109799087047577,-0.06575185805559158,1.0775083303451538,-0.2728951573371887,2.687809467315674,2.9402406215667725,2.0033533573150635,4.051330089569092,0.3185889422893524,-0.14625513553619385,-0.152652308344841,-0.014913098886609077
168,21986,21983,-0.016745995730161667,0.0030658564064651728,1.0634887218475342,-2.9400596618652344,2.9871952533721924,2.8635876178741455,2.0036702156066895,4.052166938781738,0.3186233937740326,-0.09653045982122421,-0.17230162024497986,0.011727485805749893
169,21996,21993,0.011100604198873043,0.017012273892760277,1.042495608329773,-1.7200632095336914,0.03148472681641579,2.904015302658081,2.0035507678985596,4.050963401794434,0.31864815950393677,-0.12297516316175461,-0.217614084482193,0.035096656531095505
170,22006,22003,0.04703792929649353,0.05750330165028572,1.0451490879058838,-1.5349420309066772,-2.2190327644348145,2.6197803020477295,2.0052695274353027,4.050564289093018,0.31945908069610596,-0.17419107258319855,-0.24384814500808716,0.05918398126959801
171,22016,22013,0.03186428174376488,0.037724174559116364,1.054573655128479,-0.15446072816848755,-5.058709144592285,2.695875406265259,2.0057363510131836,4.050257682800293,0.31961554288864136,-0.17316998541355133,-0.3353114724159241,0.08812839537858963
172,22026,22023,-0.0017523829592391849,-0.012734313495457172,1.0173240900039673,1.8479896783828735,-5.804991245269775,2.5646936893463135,2.006816864013672,4.049519062042236,0.31982627511024475,-0.1361514776945114,-0.3198893964290619,0.11212313920259476
173,22036,22033,-0.005269576795399189,-0.007584588136523962,1.0216317176818848,4.353863716125488,-6.171583652496338,2.4920833110809326,2.0066909790039062,4.04987096786499,0.32015854120254517,-0.012569508515298367,-0.2655312418937683,0.13521334528923035
174,22046,22043,-0.040385834872722626,0.07454630732536316,0.9901583194732666,4.940609455108643,-4.348655700683594,2.549936056137085,2.006162166595459,4.04746675491333,0.31934502720832825,0.10042984783649445,-0.18264451622962952,0.14742670953273773
175,22056,22053,-0.02869783155620098,0.05851414427161217,0.950971245765686,5.5497283935546875,-2.718287229537964,2.213127613067627,2.007308006286621,4.0465264320373535,0.3194936513900757,0.11018898338079453,-0.09084212779998779,0.16764818131923676
176,22066,22063,-0.02236054837703705,0.012336707673966885,0.9654573798179626,2.5022380352020264,1.7831519842147827,1.9204310178756714,2.007270574569702,4.047574520111084,0.31969448924064636,0.14194169640541077,-0.09883551299571991,0.19120804965496063
177,22076,22073,-0.029831429943442345,-0.023373687639832497,0.9993537664413452,0.29925331473350525,3.956101894378662,1.4822887182235718,2.0074236392974854,4.044596195220947,0.31961727142333984,0.11527743190526962,-0.06350336968898773,0.20051871240139008
178,22086,22083,0.0012623185757547617,-0.041925109922885895,0.9866973161697388,-0.009458966553211212,4.5512895584106445,0.9194865226745605,2.0078041553497314,4.044652938842773,0.3197445273399353,0.13258983194828033,-0.06173180043697357,0.21239298582077026
179,22096,22093,0.014018122106790543,-0.03703410550951958,0.985348641872406,-2.992300510406494,5.910977363586426,0.5717946290969849,2.0082035064697266,4.043683052062988,0.3198147416114807,0.0505458302795887,-0.08501676470041275,0.21436363458633423
180,22106,22103,-0.017590902745723724,-0.11200312525033951,1.0494838953018188,-2.201908826828003,4.625401973724365,0.2172602415084839,2.00826358795166,4.043681621551514,0.31820589303970337,0.07175664603710175,-0.1235954686999321,0.22228312492370605
181,22116,22113,-0.010714457370340824,-0.040645141154527664,0.9951872229576111,1.7057830095291138,2.8840978145599365,0.07424987852573395,2.0094125270843506,4.042810916900635,0.31813424825668335,-0.07004480808973312,-0.12622004747390747,0.2251194715499878
182,22126,22123,0.020980698987841606,-0.04412296786904335,0.9472237229347229,2.83463191986084,1.2003741264343262,-0.10482938587665558,2.0097179412841797,4.04245662689209,0.3182119131088257,-0.037315733730793,-0.09378023445606232,0.21143050491809845
183,22136,22133,-0.007259600795805454,-0.09469560533761978,0.986278235912323,3.3224852085113525,1.8179551362991333,0.11545608192682266,2.01052188873291,4.040383338928223,0.3181416690349579,-0.12774010002613068,-0.03927786275744438,0.20452864468097687
184,22146,22143,-0.021095242351293564,-0.006865454372018576,1.0279273986816406,3.0558922290802,1.63070809841156,0.40447163581848145,2.0104434490203857,4.039480209350586,0.3185141384601593,-0.07015165686607361,-0.05601125583052635,0.2026422768831253
185,22156,22153,-0.0032825397793203592,0.012329589575529099,1.0185648202896118,1.8833340406417847,0.7216898798942566,0.5730904340744019,2.0107240676879883,4.039114475250244,0.31858959794044495,-0.014281944371759892,-0.01074750442057848,0.20324145257472992
186,22166,22163,0.0563647523522377,0.023358406499028206,0.9812785983085632,1.15276038646698,0.5386446118354797,0.6978780031204224,2.0110044479370117,4.0382490158081055,0.3185538053512573,-0.11658758670091629,0.01610206998884678,0.19923637807369232
187,22176,22173,0.08610635995864868,-0.002364806132391095,0.9785069823265076,-0.0907103568315506,0.7076184153556824,0.9428254961967468,2.013333797454834,4.038233280181885,0.3161165714263916,-0.2865859568119049,0.019560690969228745,0.2041546255350113
188,22186,22183,0.0389641635119915,-0.01467166654765606,0.994574785232544,-2.031895637512207,0.7586169838905334,1.425743818283081,2.0135762691497803,4.037209510803223,0.31595468521118164,-0.27648723125457764,0.00481543829664588,0.21518294513225555
189,22196,22193,0.044912975281476974,-0.018409108743071556,1.0232999324798584,-1.915390133857727,0.15974150598049164,1.396838665008545,2.013519525527954,4.0362229347229,0.31584271788597107,-0.19184863567352295,-0.02405448816716671,0.2249031960964203
190,22206,22203,0.031192515045404434,-0.0008225327474065125,1.0152368545532227,-1.4910842180252075,-1.5863277912139893,1.7452301979064941,2.013504981994629,4.037043571472168,0.3185962438583374,-0.09300514310598373,-0.0477132722735405,0.23712113499641418
191,22216,22213,0.015549431554973125,0.04402792826294899,0.9898828864097595,-0.7424365282058716,-0.8907477855682373,1.6843167543411255,2.0116209983825684,4.037450790405273,0.3188062310218811,0.007365066092461348,-0.05905449762940407,0.2507912814617157
192,22226,22223,-0.018825160339474678,0.026383625343441963,1.013765811920166,1.012148141860962,0.925072968006134,1.548189640045166,2.0106587409973145,4.037818431854248,0.318785160779953,-0.14236706495285034,-0.05898537114262581,0.2757267653942108
193,22236,22233,-0.015421310439705849,-0.0060351537540555,1.0118111371994019,0.9241514205932617,3.8306572437286377,0.9759210348129272,2.0130796432495117,4.037830352783203,0.3187544345855713,-0.24272674322128296,-0.03660855442285538,0.2912564277648926
194,22246,22243,-0.01747012883424759,0.10547333210706711,0.9654402136802673,1.8987997770309448,4.849789142608643,0.9652340412139893,2.01379132270813,4.035937786102295,0.3189029097557068,-0.2295394092798233,-0.01631729118525982,0.28917860984802246
195,22256,22253,-0.013855875469744205,0.02756541781127453,0.9919285178184509,1.2677112817764282,4.825649261474609,0.6936838030815125,2.0146148204803467,4.036423683166504,0.3189433515071869,-0.21668408811092377,0.013378002680838108,0.29792094230651855
196,22266,22263,0.0018562417244538665,-0.014842984266579151,0.9839641451835632,0.3828389346599579,3.7455990314483643,1.1490161418914795,2.013791799545288,4.036133766174316,0.31905022263526917,-0.280896931886673,0.020859895274043083,0.3075285255908966
197,22276,22273,0.026371533051133156,-0.11912744492292404,0.9744502902030945,-0.5422261357307434,1.5845621824264526,1.5935980081558228,2.0154123306274414,4.0354323387146,0.3201099634170532,-0.23990561068058014,0.02198539488017559,0.31482064723968506
198,22286,22283,-0.003408831311389804,-0.025386886671185493,1.013535737991333,-1.2280861139297485,-0.4348479211330414,1.5166774988174438,2.0148165225982666,4.0351080894470215,0.32029059529304504,-0.4066319167613983,0.005195609759539366,0.3305935561656952
199,22296,22293,-0.010402643121778965,-0.0068711163476109505,1.0023869276046753,-0.267443984746933,-2.253865957260132,1.8084818124771118,2.017045021057129,4.0352067947387695,0.320241779088974,-0.44539403915405273,-0.006383888423442841,0.3451390564441681
200,22306,22303,0.0022056964226067066,-0.021212151274085045,0.9894843697547913,-0.5170334577560425,-4.003098011016846,2.0201871395111084,2.017728328704834,4.0345258712768555,0.32296061515808105,-0.2968939244747162,-0.01221990492194891,0.36339518427848816
201,22316,22313,-0.02852802909910679,-0.0631766989827156,0.9769119620323181,-0.48057490587234497,-4.748309135437012,2.1519453525543213,2.0173091888427734,4.0359416007995605,0.3232914209365845,-0.2841489315032959,-0.013342334888875484,0.39152657985687256
202,22326,22323,0.0009082350879907608,-0.04054342955350876,0.9554063677787781,-0.48719772696495056,-5.195219993591309,2.4530978202819824,2.0169880390167236,4.0362396240234375,0.323350191116333,-0.2579074203968048,-0.018629109486937523,0.4109441041946411
203,22336,22333,0.026751631870865822,-0.03065955638885498,0.9456750154495239,-0.309485524892807,-4.388133525848389,2.3247036933898926,2.0166895389556885,4.035191535949707,0.32306134700775146,-0.08519817143678665,-0.023602405562996864,0.4356875717639923
204,22346,22343,-0.006131425034254789,-0.005796640645712614,0.9894522428512573,1.1883624792099,-3.981935739517212,2.556286096572876,2.017777681350708,4.03517484664917,0.32315412163734436,-0.08208359032869339,-0.012168779037892818,0.45872119069099426
205,22356,22353,-0.005503212101757526,-0.006888463627547026,0.989753782749176,0.040426868945360184,-1.3596187829971313,2.9212119579315186,2.0182855129241943,4.03460168838501,0.3232586085796356,-0.24899743497371674,0.003060396993532777,0.4841071367263794
206,22366,22363,0.007103697396814823,-0.03468306362628937,1.0223525762557983,-0.07967188209295273,0.7590665221214294,2.8502814769744873,2.0205016136169434,4.034192085266113,0.3233562111854553,-0.13267864286899567,0.006401778664439917,0.5155155062675476
207,22376,22373,-0.00215388392098248,0.012389713898301125,1.0126253366470337,-0.4302133619785309,0.9948219656944275,3.008803367614746,2.0210137367248535,4.034006595611572,0.3194364011287689,-0.13081231713294983,0.07219978421926498,0.5456845164299011
208,22386,22383,0.010014856234192848,0.003239822806790471,0.9780902862548828,-0.44364213943481445,1.265174150466919,2.2872724533081055,2.020831346511841,4.033056735992432,0.3193405270576477,-0.05078804865479469,-0.01728297397494316,0.5748116970062256
209,22396,22393,-0.01571834459900856,0.07862919569015503,0.99446702003479,-3.018831253051758,1.4421979188919067,2.5502543449401855,2.021923542022705,4.0330400466918945,0.3191637396812439,-0.13719655573368073,-0.12256263196468353,0.596208930015564
210,22406,22403,-0.039059970527887344,0.15857817232608795,0.9924059510231018,-1.6438394784927368,1.0841929912567139,2.5231897830963135,2.0238640308380127,4.034173488616943,0.320922315120697,-0.14321358501911163,-0.1548052877187729,0.6189928650856018
211,22416,22413,-0.018527068197727203,0.18246051669120789,0.9421029090881348,-0.015325273387134075,-0.025655647739768028,2.416504144668579,2.024864435195923,4.0333356857299805,0.3207947313785553,-0.2184068262577057,-0.1569540649652481,0.6335678100585938
212,22426,22423,0.018143119290471077,0.0032333882991224527,0.9608620405197144,0.7390616536140442,-0.5599954128265381,2.8368847370147705,2.025986671447754,4.033186912536621,0.32072243094444275,-0.1906694769859314,-0.14243510365486145,0.6717499494552612
213,22436,22433,0.01326826959848404,0.12179037183523178,0.9793624877929688,1.578489899635315,-1.6012382507324219,2.78229022026062,2.0269315242767334,4.034388065338135,0.32169994711875916,-0.16090337932109833,-0.11324722319841385,0.6991456151008606
214,22446,22443,0.006313582882285118,0.11387928575277328,0.978178858757019,2.451075792312622,-3.020446538925171,3.0983996391296387,2.0278992652893066,4.036156177520752,0.3216083347797394,-0.1096930131316185,-0.14630939066410065,0.7393681406974792
215,22456,22453,0.023843081668019295,-0.03186415135860443,0.9550238251686096,1.8318908214569092,-3.3802599906921387,2.5906078815460205,2.0284202098846436,4.035696983337402,0.32147693634033203,-0.10683703422546387,-0.08930286765098572,0.7777411937713623
216,22466,22463,-0.04693073034286499,-0.07986597716808319,1.0101433992385864,2.0106592178344727,-3.8828094005584717,2.9362213611602783,2.0299534797668457,4.0372796058654785,0.3212994933128357,-0.09433288872241974,-0.04123891517519951,0.8145826458930969
217,22476,22473,-0.017712170258164406,-0.030149778351187706,0.9992545247077942,0.6088796257972717,-2.615797758102417,2.8827662467956543,2.028970956802368,4.037500858306885,0.3188115358352661,-0.024268928915262222,-0.014296887442469597,0.8513663411140442
218,22486,22483,0.028094938024878502,-0.01544742751866579,0.9775136709213257,-1.3416625261306763,-0.14554014801979065,3.092491865158081,2.028865337371826,4.035165786743164,0.3184889256954193,0.013775412924587727,-0.0854571983218193,0.8532562255859375
219,22496,22493,0.011834874749183655,-0.019413314759731293,0.969209611415863,-2.865379571914673,-1.6684895753860474,3.215412139892578,2.0296127796173096,4.0366339683532715,0.3182161748409271,0.06477577984333038,-0.09753347188234329,0.8918771147727966
220,22506,22503,-0.00854247622191906,-0.002792282262817025,0.9999417662620544,-3.122870683670044,-0.938021183013916,3.2891955375671387,2.031412124633789,4.0367608070373535,0.3177267611026764,-0.05033734068274498,-0.13258400559425354,0.9251617789268494
221,22516,22513,0.04369581118226051,-0.09961387515068054,0.9940282106399536,-1.6074906587600708,1.555809497833252,2.470614194869995,2.0317201614379883,4.035895347595215,0.31740128993988037,-0.008008072152733803,-0.15869346261024475,0.9529162645339966
222,22526,22523,-0.014019034802913666,-0.005218735430389643,0.9978842735290527,-1.873745083808899,0.4481862783432007,3.3232204914093018,2.0321335792541504,4.036088943481445,0.31714561581611633,0.07353754341602325,-0.17695827782154083,0.9806950688362122
223,22536,22533,-0.0052781435661017895,0.01787094958126545,0.9944552183151245,1.7529717683792114,-0.8172551393508911,3.6013262271881104,2.033402919769287,4.036104202270508,0.3180549740791321,-0.057479627430438995,-0.17007961869239807,1.0158979892730713
224,22546,22543,0.024617565795779228,-0.03425254672765732,0.9785329103469849,1.9237149953842163,0.11961542814970016,3.5543315410614014,2.034050941467285,4.034872055053711,0.3178751468658447,0.048028528690338135,-0.13399748504161835,1.0434545278549194
225,22556,22553,-0.033044103533029556,0.005494076292961836,1.0232336521148682,3.2672412395477295,-1.3180617094039917,3.6031970977783203,2.035521984100342,4.036288261413574,0.31754666566848755,0.0034448520746082067,-0.1504710465669632,1.0816545486450195
226,22566,22563,0.02079721912741661,-0.006033891346305609,0.9427451491355896,2.4490442276000977,-0.8060123324394226,3.1756861209869385,2.036489963531494,4.03764009475708,0.3173108994960785,0.10877279937267303,-0.16463683545589447,1.1381596326828003
227,22576,22573,-0.011281896382570267,-0.026588259264826775,0.994079053401947,3.654423713684082,-1.6625640392303467,2.7162110805511475,2.036447048187256,4.038144588470459,0.316970556974411,0.07046283036470413,-0.09327223896980286,1.1594372987747192
228,22586,22583,0.009006105363368988,0.006210888735949993,1.0169591903686523,3.3793678283691406,-1.3496583700180054,2.7821896076202393,2.0372283458709717,4.037197589874268,0.31661099195480347,0.042368415743112564,-0.019644275307655334,1.1815005540847778
229,22596,22593,-0.026920819655060768,-0.011398300528526306,0.9973839521408081,1.2957048416137695,0.2718498706817627,2.828007221221924,2.0391619205474854,4.036908149719238,0.31626102328300476,0.1498754769563675,-0.04064319282770157,1.205163598060608
230,22606,22603,0.00575040141120553,-0.04127328842878342,0.9287013411521912,-0.07378260791301727,0.6053765416145325,2.9161739349365234,2.038792371749878,4.0365729331970215,0.31554868817329407,0.071359783411026,-0.01624721847474575,1.2259403467178345
231,22616,22613,-0.0037269974127411842,0.0005225432105362415,1.0080124139785767,-1.3668506145477295,-0.572648823261261,2.891991376876831,2.0403225421905518,4.0359392166137695,0.31512579321861267,0.01614091731607914,-0.012245936319231987,1.2488754987716675
232,22626,22623,0.022235089913010597,-0.04429827630519867,0.9779515266418457,-1.7776763439178467,0.1736922413110733,2.6968414783477783,2.041900634765625,4.038339138031006,0.31465694308280945,0.04362305998802185,-0.029979946091771126,1.301807165145874
233,22636,22633,-0.00964664388448,-0.026742087677121162,1.036117672920227,0.3785260319709778,-0.42591577768325806,2.5410637855529785,2.0416414737701416,4.038213729858398,0.31233614683151245,0.0687924176454544,-0.10402031242847443,1.3281294107437134
234,22646,22643,0.034007370471954346,-0.06630576401948929,0.9779298305511475,1.073745846748352,-0.5545455813407898,2.406214475631714,2.042769432067871,4.038466453552246,0.311843603849411,-0.05908802151679993,-0.07083525508642197,1.3529388904571533
235,22656,22653,-0.038177404552698135,0.017156526446342468,1.0553122758865356,1.500347375869751,-1.3694905042648315,1.9847089052200317,2.045011281967163,4.038757801055908,0.3112275004386902,-0.017606640234589577,-0.034112267196178436,1.3620645999908447
236,22666,22663,0.04555323347449303,-0.09963618963956833,0.9759424328804016,3.290586471557617,-1.8554604053497314,1.8700212240219116,2.045955181121826,4.03667688369751,0.3112279772758484,0.10973154008388519,0.02174643613398075,1.363577127456665
237,22676,22673,-0.026759549975395203,-0.010483382269740105,1.044331669807434,3.1771116256713867,-1.902509093284607,2.051211357116699,2.046225070953369,4.036641597747803,0.31091633439064026,0.08733883500099182,0.08675084263086319,1.3818681240081787
238,22686,22683,0.014232795685529709,-0.04444713890552521,0.9860655069351196,2.3800532817840576,-1.903625249862671,2.349363327026367,2.0469727516174316,4.036322116851807,0.31050002574920654,0.22446897625923157,0.14427927136421204,1.4029896259307861
