,timestamp_start,timestamp_end,acc.x,acc.y,acc.z,gyro.x,gyro.y,gyro.z,stateEstimate.x,stateEstimate.y,stateEstimate.z,stabilizer.pitch,stabilizer.roll,stabilizer.yaw
0,33988,33986,-0.005036520771682262,0.0108489403501153,0.9971852898597717,-26.920005798339844,-28.329498291015625,1.7044975757598877,0.5426342487335205,0.49776989221572876,0.17657487094402313,1.0484436750411987,-0.6716141700744629,1.6709296703338623
1,33998,33996,0.021115629002451897,0.016301654279232025,0.9977944493293762,-31.22092056274414,-24.26894760131836,0.8341286778450012,0.5429575443267822,0.495632529258728,0.17602424323558807,1.3297709226608276,-0.6724236011505127,1.6672412157058716
2,34008,34006,0.00062606914434582,0.009090617299079895,0.9983562231063843,-29.663095474243164,-14.273727416992188,0.26084181666374207,0.5435392260551453,0.4955681264400482,0.17830955982208252,1.4968974590301514,-1.113542914390564,1.6901494264602661
3,34018,34016,0.024746371433138847,-0.00956881046295166,0.9597427845001221,-22.69657325744629,-2.546267032623291,0.09025412797927856,0.5432355999946594,0.49570462107658386,0.18037904798984528,1.7107696533203125,-1.5330660343170166,1.703723669052124
4,34028,34026,0.009587876498699188,0.08663104474544525,1.0235975980758667,-13.416691780090332,7.4445881843566895,-0.2525855004787445,0.54343181848526,0.49558916687965393,0.18028569221496582,1.6980741024017334,-1.7924689054489136,1.7093554735183716
5,34038,34036,0.018040671944618225,0.016050025820732117,0.9836593866348267,-0.16356949508190155,11.877408027648926,-1.2005659341812134,0.5433914065361023,0.4948526620864868,0.1822529137134552,1.6463384628295898,-1.826069951057434,1.6891324520111084
6,34048,34046,0.04010063037276268,0.07048381865024567,0.9927069544792175,13.396963119506836,11.956317901611328,-2.1223037242889404,0.5438412427902222,0.49498841166496277,0.18419502675533295,1.4675095081329346,-1.8670060634613037,1.692745566368103
7,34058,34056,0.001432201825082302,0.06551133841276169,1.0656557083129883,22.180400848388672,9.583237648010254,-4.594170093536377,0.5437437891960144,0.49509966373443604,0.18602164089679718,1.3967171907424927,-1.760663390159607,1.662482738494873
8,34068,34066,0.01710887998342514,-0.03426400572061539,0.9402341842651367,25.292213439941406,7.828925609588623,-5.943945407867432,0.5421812534332275,0.4940156042575836,0.18650944530963898,1.5826103687286377,-1.3962796926498413,1.5374404191970825
9,34078,34076,0.0008786732796579599,0.04691050946712494,1.028605341911316,25.091537475585938,9.319684028625488,-6.870779514312744,0.5420548319816589,0.4939330220222473,0.1884002834558487,1.4914963245391846,-1.1786850690841675,1.4789226055145264
10,34088,34086,-0.009388218633830547,-0.014675972983241081,0.9805058240890503,22.369426727294922,13.289080619812012,-6.666290760040283,0.5424919724464417,0.4959883689880371,0.19041681289672852,1.269187331199646,-1.2944681644439697,1.4927860498428345
11,34098,34096,0.01979781873524189,0.09777169674634933,1.0352007150650024,17.913326263427734,16.345964431762695,-6.331882476806641,0.5436787605285645,0.4957279562950134,0.19169405102729797,0.9189331531524658,-1.0268322229385376,1.4565377235412598
12,34108,34106,0.011077213101089,0.09291700273752213,1.0369361639022827,12.967670440673828,14.713626861572266,-5.934501647949219,0.5433651208877563,0.49561628699302673,0.19357173144817352,0.8093994855880737,-0.8514826893806458,1.3771790266036987
13,34118,34116,-0.01578575000166893,-0.0008469272870570421,1.0044479370117188,9.397346496582031,8.63252067565918,-4.505326747894287,0.5439791679382324,0.49107348918914795,0.19575631618499756,0.6055397987365723,-0.0489250048995018,1.2379008531570435
14,34128,34126,0.009998430497944355,-0.004445152822881937,0.9891801476478577,5.233436107635498,0.2658750116825104,-2.6550474166870117,0.5437465906143188,0.5001482963562012,0.200417622923851,0.5383181571960449,-1.4051107168197632,1.3871779441833496
15,34138,34136,0.019099736586213112,0.006678715813905001,0.99625164270401,-0.7584435939788818,-7.543690204620361,-2.4812114238739014,0.5434264540672302,0.5006320476531982,0.2026527374982834,0.6224321126937866,-1.3422569036483765,1.351181983947754
16,34148,34146,-0.036377210170030594,-0.017797401174902916,1.0173945426940918,-3.8600525856018066,-12.033923149108887,-2.2988650798797607,0.5428488254547119,0.5007947087287903,0.20500706136226654,0.8045526146888733,-1.2900359630584717,1.3082395792007446
17,34158,34156,0.013145802542567253,0.002369532361626625,0.9993000030517578,-0.26627111434936523,-12.83803653717041,-2.131457805633545,0.5421950221061707,0.5008501410484314,0.2073349803686142,1.0123264789581299,-1.229981780052185,1.2665884494781494
18,34168,34166,0.02364889346063137,0.019139759242534637,0.9925386905670166,7.174576759338379,-10.817435264587402,-1.6002731323242188,0.5411412715911865,0.50159752368927,0.20709797739982605,1.2620595693588257,-1.232452392578125,1.2299073934555054
19,34178,34176,-0.011024517007172108,-0.005509793758392334,1.0218918323516846,16.937335968017578,-5.312164306640625,-1.0974797010421753,0.5413827300071716,0.5008849501609802,0.2095392942428589,1.2648608684539795,-0.9182571172714233,1.212073564529419
20,34188,34186,-0.017273712903261185,-0.01931620016694069,0.9992111921310425,22.930063247680664,3.2319257259368896,-1.0163400173187256,0.5409004092216492,0.5008760690689087,0.2115979790687561,1.3092018365859985,-0.6467040181159973,1.1899826526641846
21,34198,34196,0.026373013854026794,0.03316750004887581,0.9945947527885437,23.841033935546875,11.206158638000488,-1.3175992965698242,0.5397932529449463,0.500641942024231,0.21069759130477905,1.3612513542175293,-0.3285394012928009,1.1489713191986084
22,34208,34206,-0.0013119741342961788,-0.001550263841636479,1.006009578704834,18.807722091674805,15.550643920898438,-1.1933139562606812,0.5404769778251648,0.5007691979408264,0.21278318762779236,1.0732240676879883,-0.06824734807014465,1.1549006700515747
23,34218,34216,-0.034102797508239746,-0.030725758522748947,0.988592803478241,10.490385055541992,18.08909034729004,-1.4717308282852173,0.5401853322982788,0.5018092393875122,0.2146896868944168,0.8969404697418213,-0.006416529417037964,1.1542643308639526
24,34228,34226,0.06453736871480942,0.08113058656454086,0.9909669756889343,0.5386871099472046,17.164939880371094,-1.0788055658340454,0.5409450531005859,0.5034279227256775,0.21739518642425537,0.5645484924316406,-0.09369953721761703,1.174828290939331
25,34238,34236,0.009735986590385437,0.005655796732753515,0.9968273043632507,-4.352591514587402,16.264415740966797,-2.205272674560547,0.5412065982818604,0.5041720867156982,0.2193012535572052,0.32807275652885437,-0.1329883635044098,1.164795994758606
26,34248,34246,0.014897220768034458,0.0059938980266451836,0.9797952771186829,-4.4658203125,12.660076141357422,-2.5962469577789307,0.5390509963035583,0.504904568195343,0.22129498422145844,0.4354628026485443,-0.2053801417350769,1.121984839439392
27,34258,34256,-0.009365545585751534,0.01887231133878231,1.0045417547225952,-1.5031229257583618,9.00228500366211,-3.251246452331543,0.5390149354934692,0.5049933791160583,0.22330377995967865,0.27324673533439636,-0.16633300483226776,1.0903066396713257
28,34268,34266,0.021959371864795685,-0.0007218861137516797,0.9594416618347168,4.024842262268066,6.704226493835449,-3.872516393661499,0.5383434891700745,0.504695475101471,0.22280877828598022,0.24176006019115448,-0.05743510276079178,1.0470669269561768
29,34278,34276,-0.018233615905046463,0.016288327053189278,1.0133110284805298,8.246529579162598,4.545413970947266,-4.312482833862305,0.5374317169189453,0.505429744720459,0.22452668845653534,0.24396418035030365,-0.031964074820280075,1.0066585540771484
30,34288,34286,0.022145118564367294,0.013884774409234524,0.9665292501449585,10.060134887695312,3.2807395458221436,-4.69297981262207,0.5358418822288513,0.5054418444633484,0.2262025624513626,0.34645840525627136,0.11693507432937622,0.955985426902771
31,34298,34296,-0.012602980248630047,-0.010931046679615974,0.9991898536682129,10.593378067016602,3.939732551574707,-4.853911876678467,0.5361436009407043,0.5053659677505493,0.22577480971813202,0.20950978994369507,0.2795237898826599,0.9099098443984985
32,34308,34306,0.015821699053049088,0.025377923622727394,0.9838573932647705,9.271212577819824,5.976944923400879,-5.150737285614014,0.534690260887146,0.5053773522377014,0.22729167342185974,0.2731839120388031,0.42413145303726196,0.859025776386261
33,34318,34316,-0.0010723223676905036,-0.015994912013411522,0.9817276000976562,6.103182792663574,9.000732421875,-4.579072952270508,0.5346023440361023,0.5055656433105469,0.22892992198467255,0.12811939418315887,0.5242943167686462,0.8094694018363953
34,34328,34326,2.260507426399272e-05,0.03200250491499901,1.0078818798065186,1.677076816558838,11.44961166381836,-4.344575881958008,0.5334363579750061,0.5065461993217468,0.22967541217803955,0.09683575481176376,0.48278000950813293,0.7650641798973083
35,34338,34336,0.013079115189611912,-0.0053452798165380955,0.9641008377075195,-1.8238096237182617,13.206985473632812,-3.3476247787475586,0.5335717797279358,0.5065833926200867,0.23125618696212769,-0.12135179340839386,0.5247738361358643,0.7235645055770874
36,34348,34346,-0.0002668722881935537,0.013013696298003197,1.0037449598312378,-2.6923301219940186,13.722150802612305,-2.526496410369873,0.5319188833236694,0.5066885352134705,0.23269256949424744,-0.12779639661312103,0.5244745016098022,0.7025738954544067
37,34358,34356,0.004776735324412584,-0.004686200991272926,0.9729690551757812,-1.091829776763916,12.846367835998535,-1.9908033609390259,0.5302039980888367,0.5067631006240845,0.2355966866016388,-0.14940336346626282,0.5332037210464478,0.6909120678901672
38,34368,34366,0.018406668677926064,-0.0017150043277069926,0.9741697311401367,1.1704868078231812,11.809486389160156,-1.5231685638427734,0.5303564071655273,0.5073240399360657,0.23725396394729614,-0.38975921273231506,0.49577048420906067,0.6630013585090637
39,34378,34376,0.010805174708366394,0.0006975699216127396,0.9598886966705322,3.5069572925567627,12.219169616699219,-1.7140110731124878,0.5293579697608948,0.5071118474006653,0.23877525329589844,-0.48149582743644714,0.5754703283309937,0.654783308506012
40,34388,34386,0.04103013500571251,0.04762455075979233,0.9992951154708862,5.103446006774902,7.623561382293701,-1.621411919593811,0.5286070704460144,0.5068069696426392,0.24027274549007416,-0.5720832347869873,0.6786065697669983,0.6458218693733215
41,34398,34396,-0.011852025054395199,-0.01081265788525343,0.9903838634490967,4.9712419509887695,5.9865312576293945,-1.3040063381195068,0.5277472138404846,0.5064709186553955,0.24080464243888855,-0.6149181723594666,0.7833755016326904,0.6390783786773682
42,34408,34406,0.022213557735085487,0.0036395536735653877,1.0031627416610718,2.6571850776672363,4.803391456604004,-0.9938522577285767,0.5280166268348694,0.5075365304946899,0.2423347681760788,-0.7787913680076599,0.7125886678695679,0.6037287712097168
43,34418,34416,-0.005327648017555475,0.050431910902261734,1.0202884674072266,-0.9345530271530151,4.848918437957764,-1.314247965812683,0.5264261364936829,0.5075055956840515,0.2437407672405243,-0.7155614495277405,0.746971607208252,0.6091992259025574
44,34428,34426,0.02363782376050949,-0.06534046679735184,0.9140356183052063,-3.67972993850708,5.630461692810059,-1.0750261545181274,0.5261349678039551,0.5076656937599182,0.24608033895492554,-0.817054808139801,0.724498987197876,0.5907288193702698
45,34438,34436,0.010048823431134224,0.060362499207258224,1.04496169090271,-5.332109451293945,6.471473693847656,-0.9215618371963501,0.5252830386161804,0.50791335105896,0.2475253790616989,-0.8573253750801086,0.6678526997566223,0.581122636795044
46,34448,34446,-0.016472389921545982,0.004838304128497839,0.9789084196090698,-5.551238059997559,6.7698974609375,-0.48218849301338196,0.5244296789169312,0.5082142949104309,0.24896612763404846,-0.9031986594200134,0.5927876830101013,0.5734163522720337
47,34458,34456,0.04886510968208313,0.02664126269519329,0.9774959087371826,-4.973326683044434,6.664376258850098,-0.053032416850328445,0.5235182642936707,0.5078343749046326,0.251518577337265,-0.9505382776260376,0.5939399600028992,0.5857192873954773
48,34468,34466,-0.004918002523481846,-0.1703382134437561,0.9645683765411377,-2.7562460899353027,6.114588260650635,0.5503683090209961,0.5238827466964722,0.5080245733261108,0.25319966673851013,-1.1404731273651123,0.5448631048202515,0.5714044570922852
49,34478,34476,0.04156293347477913,0.006707355380058289,0.9822717308998108,-1.2875465154647827,6.3881354331970215,1.0988068580627441,0.5230001211166382,0.5074637532234192,0.25467079877853394,-1.1686859130859375,0.5935969948768616,0.5992669463157654
50,34488,34486,-0.025432974100112915,-0.002746615093201399,0.9306932687759399,0.8656619191169739,6.575973987579346,1.017087697982788,0.523596465587616,0.5074100494384766,0.25612884759902954,-1.3656561374664307,0.6019706726074219,0.5951687693595886
51,34498,34496,0.020286206156015396,-0.014587453566491604,0.9206491112709045,0.3137325346469879,1.846449375152588,2.0200159549713135,0.5224707722663879,0.5073498487472534,0.25815367698669434,-1.3258748054504395,0.6135076284408569,0.6230269074440002
52,34508,34506,-0.022441532462835312,0.06626123934984207,1.0101830959320068,-1.3765493631362915,-0.5666223168373108,2.487269163131714,0.5225326418876648,0.5073838829994202,0.2595396041870117,-1.3849700689315796,0.6015008687973022,0.6368058919906616
53,34518,34516,0.03040836937725544,-0.01586836390197277,0.9443232417106628,-4.372650623321533,-2.3449981212615967,2.3260912895202637,0.5224891901016235,0.5075819492340088,0.2608757019042969,-1.404284119606018,0.5466216206550598,0.6501341462135315
54,34528,34526,0.005016738083213568,0.012990652583539486,0.9783411026000977,-7.104538917541504,-4.521577835083008,2.715320110321045,0.5216225981712341,0.5072866082191467,0.2610894441604614,-1.307307481765747,0.5152239799499512,0.6909260153770447
55,34538,34536,0.0007508627604693174,-0.025066664442420006,0.9633191227912903,-8.432947158813477,-7.0472307205200195,2.125209093093872,0.5212744474411011,0.5064213275909424,0.262287437915802,-1.2453848123550415,0.5197381377220154,0.7381656765937805
56,34548,34546,0.023829296231269836,0.045076336711645126,1.014138102531433,-8.796089172363281,-6.876229286193848,1.4032180309295654,0.5215698480606079,0.5069503784179688,0.26350200176239014,-1.2402396202087402,0.365055650472641,0.7277392148971558
57,34558,34556,-0.017152737826108932,0.003919909708201885,0.9586227536201477,-8.115680694580078,-4.55377197265625,1.8602328300476074,0.5212775468826294,0.5067727565765381,0.26475563645362854,-1.1797596216201782,0.2903709411621094,0.7473806738853455
58,34568,34566,0.03138826787471771,-0.015818217769265175,0.9561089873313904,-7.13495397567749,-4.000547885894775,1.9063647985458374,0.5210669040679932,0.5072336792945862,0.2659072279930115,-1.1431926488876343,0.15645235776901245,0.749083936214447
59,34578,34576,0.002198745496571064,0.07114866375923157,1.0194932222366333,-5.875741958618164,-3.881749391555786,1.9006714820861816,0.5208495259284973,0.5076084733009338,0.26702287793159485,-1.1047210693359375,0.04987002909183502,0.7552459239959717
60,34588,34586,-0.010335465893149376,-0.00897128414362669,0.9493345022201538,-4.312460899353027,-4.4641242027282715,1.9277923107147217,0.5220335125923157,0.5071981549263,0.2699786126613617,-1.2011700868606567,0.039828743785619736,0.7717162370681763
61,34598,34596,0.039518240839242935,0.008018937893211842,0.9823454022407532,-3.0236246585845947,-5.737906455993652,2.062164545059204,0.521719217300415,0.5074158310890198,0.2711758613586426,-1.1232808828353882,-0.024245459586381912,0.7866533994674683
62,34608,34606,-0.0007371939718723297,0.046937137842178345,0.9985947608947754,-1.537589430809021,-7.375698566436768,1.7489264011383057,0.5213125944137573,0.507553219795227,0.2723519206047058,-1.0232352018356323,-0.06483081728219986,0.8048647046089172
63,34618,34616,0.002284441841766238,-0.01607229746878147,0.9633416533470154,0.1508590579032898,-8.706392288208008,1.8767515420913696,0.520795464515686,0.5075619220733643,0.27351322770118713,-0.8967695236206055,-0.07141707837581635,0.825760006904602
64,34628,34626,0.015702171251177788,-0.008566159754991531,0.9787625670433044,0.5652914643287659,-9.787772178649902,2.4591140747070312,0.5202263593673706,0.5082281231880188,0.2743997275829315,-0.759754478931427,-0.13232406973838806,0.8330111503601074
65,34638,34636,0.003392427694052458,0.04469207301735878,0.9883497953414917,0.05690898001194,-10.180363655090332,2.6195154190063477,0.5202988982200623,0.5082239508628845,0.27550363540649414,-0.6750068068504333,-0.12194305658340454,0.8579911589622498
66,34648,34646,-0.0014842315576970577,0.0015809924807399511,0.9769952297210693,0.06657765805721283,-9.8684720993042,2.9270870685577393,0.5196723341941833,0.5082179307937622,0.27657222747802734,-0.5202743411064148,-0.11564052850008011,0.8907454609870911
67,34658,34656,-0.017165448516607285,-0.039671510457992554,1.007137656211853,0.4088922441005707,-8.812435150146484,3.274725914001465,0.5219707489013672,0.5081875920295715,0.2794516086578369,-0.6563947200775146,-0.10044106841087341,0.9141659140586853
68,34668,34666,-0.024266036227345467,0.020066462457180023,1.008819580078125,0.49622952938079834,-5.910839080810547,4.001371383666992,0.5208006501197815,0.5081200003623962,0.28063881397247314,-0.45696306228637695,-0.08531254529953003,0.9584986567497253
69,34678,34676,-0.0023461587261408567,0.0059493170119822025,0.9740744233131409,0.11070303618907928,-3.5062029361724854,4.532738208770752,0.5183901190757751,0.5080713033676147,0.2817613184452057,-0.18525998294353485,-0.07907398045063019,1.0104089975357056
70,34688,34686,0.031808216124773026,0.010475422255694866,0.9761004447937012,0.9282046556472778,-2.159752368927002,4.657601833343506,0.5226016044616699,0.5066521763801575,0.28353869915008545,-0.5761674046516418,0.07250653952360153,1.0742298364639282
71,34698,34696,0.0010611378820613027,0.028644245117902756,0.9801579713821411,1.2841598987579346,-0.26351094245910645,4.793642520904541,0.5190106630325317,0.5021955966949463,0.28474774956703186,-0.19913537800312042,0.48890501260757446,1.2072453498840332
72,34708,34706,0.031527336686849594,0.04234042018651962,0.9413874745368958,-0.146102637052536,0.07176929712295532,4.429232597351074,0.5190370082855225,0.5022181868553162,0.28598836064338684,-0.21781671047210693,0.4366879463195801,1.2442885637283325
73,34718,34716,0.06028623878955841,0.0038784733042120934,0.9802808165550232,-4.954145431518555,0.1288575977087021,4.741330146789551,0.5190420746803284,0.5024389624595642,0.2872130572795868,-0.23251059651374817,0.34292593598365784,1.2800109386444092
74,34728,34726,0.007517925463616848,-0.09554607421159744,1.0147407054901123,-10.45693588256836,-0.2265094518661499,4.141013145446777,0.5189542770385742,0.5030524134635925,0.2879383862018585,-0.23531033098697662,0.16211649775505066,1.310365080833435
75,34738,34736,0.022773684933781624,-0.11013752222061157,0.9047802686691284,-13.801047325134277,0.09635264426469803,3.359724521636963,0.5189812183380127,0.5024728775024414,0.2889777719974518,-0.2517516314983368,0.058513093739748,1.348920226097107
76,34748,34746,0.021344076842069626,-0.03936244919896126,0.9485459923744202,-14.038954734802246,0.2755032479763031,2.9619851112365723,0.5189791917800903,0.5034344792366028,0.2900417447090149,-0.26922282576560974,-0.20773917436599731,1.3641918897628784
77,34758,34756,-0.015537598170340061,0.08505409955978394,1.0306800603866577,-11.446836471557617,0.4331275224685669,2.412090301513672,0.5190171003341675,0.5035107731819153,0.29100561141967773,-0.28989356756210327,-0.3616088330745697,1.3870152235031128
78,34768,34766,0.016501614823937416,-0.001117661246098578,0.9158375859260559,-7.568328380584717,0.9578174948692322,1.9310935735702515,0.5190993547439575,0.5033621191978455,0.2919543385505676,-0.3162785768508911,-0.45960259437561035,1.4070756435394287
79,34778,34776,0.020493533462285995,-0.038037147372961044,0.9426668286323547,-2.331606149673462,0.6327294707298279,1.7808369398117065,0.5199519395828247,0.5029067993164062,0.2928660809993744,-0.4103270471096039,-0.48074209690093994,1.4253473281860352
80,34788,34786,-0.009021537378430367,0.0665745884180069,1.0306402444839478,1.478947639465332,0.5236117839813232,1.8760591745376587,0.5192736983299255,0.5028641223907471,0.293178528547287,-0.35021716356277466,-0.4975101947784424,1.4428107738494873
81,34798,34796,0.022792184725403786,0.01630263775587082,0.9455209374427795,4.372731685638428,-0.7867416739463806,1.4181904792785645,0.5200303196907043,0.5026456713676453,0.29398876428604126,-0.4156695306301117,-0.4605821967124939,1.4592125415802002
82,34808,34806,0.02661130763590336,-0.01635163091123104,0.9409421682357788,5.337146759033203,-1.7561731338500977,1.3939582109451294,0.5199347138404846,0.5022944211959839,0.2947659492492676,-0.38036492466926575,-0.39410606026649475,1.4751754999160767
83,34818,34816,-0.004961647558957338,0.02885725349187851,0.9770629405975342,4.967255115509033,-2.140441656112671,1.593433141708374,0.5205647349357605,0.5019739270210266,0.2954827845096588,-0.40842005610466003,-0.3287924528121948,1.4944473505020142
84,34828,34826,-0.011431113816797733,-0.0003038797003682703,0.9581761360168457,4.050490379333496,-2.5614864826202393,1.1808303594589233,0.5203624367713928,0.5016902089118958,0.29534029960632324,-0.3492274284362793,-0.2759689688682556,1.5076332092285156
85,34838,34836,-0.007779525592923164,-0.008737307041883469,0.9708779454231262,2.400341033935547,-2.6385085582733154,1.344693899154663,0.520908772945404,0.5022807121276855,0.29595285654067993,-0.3629906177520752,-0.31517213582992554,1.5158928632736206
86,34848,34846,0.029768837615847588,0.03347339108586311,0.9700117707252502,0.4801349341869354,-3.031524181365967,0.7521210312843323,0.5206587910652161,0.502977192401886,0.2965364456176758,-0.2980325520038605,-0.37740281224250793,1.5204795598983765
87,34858,34856,0.031755369156599045,0.01991955004632473,0.9358880519866943,-0.9410260319709778,-3.5237481594085693,0.812993586063385,0.5204394459724426,0.5022484660148621,0.2977480888366699,-0.23380953073501587,-0.317715048789978,1.5314949750900269
88,34868,34866,-0.0001815316209103912,-0.016303692013025284,0.9691058993339539,-0.934928834438324,-4.744629383087158,-0.01580829545855522,0.5201226472854614,0.5023221373558044,0.2982821464538574,-0.15772543847560883,-0.3438533842563629,1.5330383777618408
89,34878,34876,-0.019065484404563904,0.008130555972456932,0.9732521176338196,-0.31559059023857117,-5.973846912384033,-0.6347751617431641,0.5212543606758118,0.5031582713127136,0.2987801134586334,-0.20852109789848328,-0.42938485741615295,1.5297234058380127
90,34888,34886,0.03278844431042671,-0.018115997314453125,0.9413936138153076,0.5747129917144775,-6.6174702644348145,-0.7916663289070129,0.520787239074707,0.503883421421051,0.298490434885025,-0.09376101195812225,-0.4914485812187195,1.5162653923034668
91,34898,34896,0.007994775660336018,0.04772195219993591,1.0097068548202515,0.9838066101074219,-7.121800899505615,-1.5964356660842896,0.5203157663345337,0.5038223266601562,0.29888105392456055,0.024098964408040047,-0.4710773825645447,1.503686547279358
92,34908,34906,0.001832398702390492,-0.026754572987556458,0.9378374814987183,1.6629986763000488,-6.072889804840088,-1.8544282913208008,0.5206462740898132,0.5037330389022827,0.2992528975009918,0.06452318280935287,-0.4403090476989746,1.4894996881484985
93,34918,34916,0.00739595852792263,0.005786178633570671,0.9908515214920044,3.2751078605651855,-4.239484786987305,-2.523615837097168,0.522587239742279,0.5035811066627502,0.296155720949173,-0.0560348704457283,-0.3884063959121704,1.4788217544555664
94,34928,34926,0.009709318168461323,0.04765015095472336,1.0064148902893066,4.0347981452941895,-1.5530868768692017,-3.622690200805664,0.5223933458328247,0.5040742754936218,0.2962588965892792,0.015526148490607738,-0.39078715443611145,1.4442061185836792
95,34938,34936,-0.0011887778528034687,-0.035256076604127884,0.9483594298362732,5.335109233856201,0.9928790926933289,-4.027811050415039,0.5239538550376892,0.5037564635276794,0.2963281273841858,-0.10379783809185028,-0.2993498146533966,1.413464903831482
96,34948,34946,-1.1314968105580192e-05,0.030330214649438858,1.0158076286315918,7.611412048339844,0.5296741127967834,-4.559274673461914,0.5239905118942261,0.5040454864501953,0.2964004576206207,-0.08471731841564178,-0.25448447465896606,1.368127703666687
97,34958,34956,0.014029712416231632,0.0053065987303853035,0.9824458956718445,8.912353515625,-0.9584974646568298,-4.193634510040283,0.5239415764808655,0.5042241215705872,0.2956051826477051,-0.05218752846121788,-0.1799779236316681,1.3228883743286133
98,34968,34966,-0.008557053282856941,-0.00771059887483716,1.000762701034546,9.213998794555664,-2.9265389442443848,-4.101742744445801,0.5237404108047485,0.5051031708717346,0.2956015467643738,0.011039040982723236,-0.15809549391269684,1.2763200998306274
99,34978,34976,0.02397754415869713,0.018690627068281174,1.0083160400390625,8.650908470153809,-3.3520164489746094,-4.002353668212891,0.5250559449195862,0.5052871704101562,0.29556429386138916,-0.05751578509807587,-0.06535167247056961,1.2414854764938354
100,34988,34986,-0.012920625507831573,-0.017493706196546555,1.0042483806610107,7.242692470550537,-3.366116762161255,-4.2038140296936035,0.5248456597328186,0.5055241584777832,0.2977294921875,0.03168671578168869,0.011482369154691696,1.198822259902954
101,34998,34996,0.01868041232228279,0.032668337225914,1.0232478380203247,5.704724311828613,-4.108508586883545,-4.844127655029297,0.5245575308799744,0.5050967931747437,0.2978692352771759,0.13020570576190948,0.13347280025482178,1.1503021717071533
102,35008,35006,-0.012041511945426464,-0.00940562505275011,1.017499327659607,5.896646022796631,-4.249415874481201,-5.396038055419922,0.5250078439712524,0.5046900510787964,0.29799503087997437,0.15538813173770905,0.2443094253540039,1.099301815032959
103,35018,35016,-0.000851158460136503,0.006089764181524515,1.0174095630645752,4.504148006439209,-5.313661098480225,-6.731822490692139,0.5246513485908508,0.5058709383010864,0.30008143186569214,0.258296936750412,0.1932213306427002,1.0370033979415894
104,35028,35026,0.016706371679902077,0.020571691915392876,1.0306473970413208,2.7900707721710205,-7.279088020324707,-7.093886375427246,0.5249533653259277,0.5056518316268921,0.3003682792186737,0.3082362413406372,0.2672617435455322,0.9658604264259338
105,35038,35036,-0.026418272405862808,-0.018108109012246132,1.0334833860397339,1.12636137008667,-7.323868274688721,-7.094420909881592,0.5244385004043579,0.5062959790229797,0.3006739914417267,0.44661858677864075,0.23760004341602325,0.8931866884231567
106,35048,35046,0.0383523590862751,0.011042322032153606,0.9931982159614563,0.6642927527427673,-7.263645172119141,-7.011828422546387,0.525465190410614,0.5062487125396729,0.3010326325893402,0.4342072606086731,0.2713518738746643,0.8211679458618164
107,35058,35056,-0.01402111817151308,0.03972606733441353,1.057599425315857,0.2530830204486847,-5.805753231048584,-6.853504180908203,0.5250126719474792,0.5061855912208557,0.29845428466796875,0.5611268281936646,0.2941926121711731,0.7507454752922058
108,35068,35066,0.007574567571282387,-0.04307354986667633,0.9903804659843445,-1.2603627443313599,-3.883188009262085,-6.737894058227539,0.5254705548286438,0.5062255859375,0.2986562252044678,0.5785117149353027,0.2995699644088745,0.6815841197967529
109,35078,35076,-0.0010777652496472,0.03523104265332222,1.0496281385421753,-3.291836977005005,-1.1866158246994019,-5.732597351074219,0.5260633826255798,0.5064231157302856,0.2988828420639038,0.5635859370231628,0.26873767375946045,0.6194250583648682
110,35088,35086,0.01800408959388733,-0.010111693292856216,0.9938459396362305,-4.868765354156494,1.879193902015686,-4.995417594909668,0.526136040687561,0.5067365765571594,0.29907727241516113,0.5676186680793762,0.20956285297870636,0.5673169493675232
111,35098,35096,-0.0013752058148384094,0.01704220473766327,1.049086093902588,-4.573536396026611,3.082169771194458,-3.8757660388946533,0.52633136510849,0.5070533752441406,0.2993324398994446,0.5382197499275208,0.14688654243946075,0.5238850712776184
112,35108,35106,0.0026197920087724924,-0.01105897780507803,1.0061542987823486,-3.6158761978149414,2.36379337310791,-2.631239175796509,0.5257627964019775,0.5073207020759583,0.2996065020561218,0.5789525508880615,0.09385653585195541,0.4931902587413788
113,35118,35116,0.019910667091608047,0.030260134488344193,1.0415303707122803,-1.9655373096466064,0.6368899941444397,-2.419090509414673,0.5265716314315796,0.5074799060821533,0.3012639582157135,0.49549898505210876,0.06999070942401886,0.4660753905773163
114,35128,35126,0.00330894673243165,-0.01729072816669941,1.0068037509918213,-0.9063265323638916,-0.7877384424209595,-1.2390227317810059,0.5265482068061829,0.5075772404670715,0.30167755484580994,0.5093947052955627,0.05931095778942108,0.4473476707935333
115,35138,35136,0.010799968615174294,0.03652751073241234,1.049743890762329,0.26304876804351807,-1.9080528020858765,-0.3745052218437195,0.5264499187469482,0.50758296251297,0.3021172881126404,0.5406869649887085,0.07103827595710754,0.43803733587265015
116,35148,35146,0.009905444458127022,0.0003246593114454299,0.9954684376716614,1.3798171281814575,-1.9230586290359497,-0.2638744115829468,0.5270645022392273,0.5075123906135559,0.30258819460868835,0.5108701586723328,0.10088604688644409,0.431013822555542
117,35158,35156,0.018406780436635017,-0.016350070014595985,1.0097308158874512,2.2578623294830322,-1.9570019245147705,0.0332292765378952,0.5276731252670288,0.5073733925819397,0.3028639853000641,0.4893421530723572,0.1444866806268692,0.42765653133392334
118,35168,35166,-0.0020206505432724953,0.06408774107694626,1.050458550453186,1.664018988609314,-0.5985997319221497,0.029526561498641968,0.526840329170227,0.5072276592254639,0.3033658266067505,0.6027798056602478,0.18561938405036926,0.4289172291755676
119,35178,35176,0.013175660744309425,-0.03841670602560043,0.9686686992645264,0.5608912110328674,0.6094416975975037,0.33688098192214966,0.5268276929855347,0.5079135894775391,0.30387845635414124,0.6107677221298218,0.13589176535606384,0.43716466426849365
120,35188,35186,0.028978554531931877,0.02279910072684288,1.0246682167053223,-1.0797868967056274,2.3444135189056396,0.3126026690006256,0.5276854634284973,0.5079477429389954,0.3035556375980377,0.5167819857597351,0.143392413854599,0.4379189908504486
121,35198,35196,-0.0284015703946352,0.026329929009079933,1.0328088998794556,-3.1174349784851074,3.8718113899230957,-0.06203034147620201,0.5279076099395752,0.50810307264328,0.3040282726287842,0.4727953374385834,0.11925169825553894,0.4376782476902008
122,35208,35206,0.05159382522106171,-0.021652406081557274,0.94721519947052,-4.103479385375977,3.7200565338134766,-0.40791982412338257,0.527411162853241,0.5083611607551575,0.3045193552970886,0.4914158582687378,0.06716559827327728,0.43596282601356506
123,35218,35216,-0.00783472042530775,-0.00041989603778347373,1.0247968435287476,-3.952911853790283,2.7535030841827393,-0.379220187664032,0.5276347398757935,0.5086479783058167,0.3060179054737091,0.4377809762954712,0.009761111810803413,0.43398332595825195
124,35228,35226,0.009511676616966724,0.060297589749097824,1.0243299007415771,-2.577707052230835,1.8881843090057373,-0.3308789134025574,0.5277714133262634,0.5088468790054321,0.30656006932258606,0.40912923216819763,-0.028497468680143356,0.43059656023979187
125,35238,35236,0.029113512486219406,-0.02432817593216896,0.9510579109191895,-0.6809812188148499,1.614734411239624,-0.29423677921295166,0.5278772711753845,0.5089393258094788,0.30711352825164795,0.39331191778182983,-0.04559045284986496,0.42933470010757446
126,35248,35246,-0.005076209083199501,0.03249744698405266,1.0242856740951538,1.4852477312088013,1.8124642372131348,-0.03657606989145279,0.5279831290245056,0.5088974833488464,0.3076610863208771,0.3727412521839142,-0.024683475494384766,0.427165150642395
127,35258,35256,0.023037873208522797,0.014784727245569229,0.978088915348053,4.793872833251953,2.002091646194458,0.6738904118537903,0.5281248092651367,0.5086441040039062,0.3072594106197357,0.34428662061691284,0.04352342337369919,0.4274058938026428
128,35268,35266,0.002200961345806718,-0.005328568629920483,0.9842891097068787,7.860076427459717,2.022624969482422,0.7515232563018799,0.5282745957374573,0.5089303255081177,0.30774053931236267,0.31126099824905396,0.0889175534248352,0.4361264407634735
129,35278,35276,0.009923223406076431,0.03812997043132782,1.0077333450317383,8.495306015014648,5.2881693840026855,1.4669015407562256,0.5285496711730957,0.5083599090576172,0.3082126975059509,0.25792768597602844,0.23976197838783264,0.44206705689430237
130,35288,35286,0.019480496644973755,-0.01212010532617569,0.9604595303535461,7.0652031898498535,11.09226131439209,1.9324737787246704,0.5291658043861389,0.5093364715576172,0.308794766664505,0.12698981165885925,0.22841787338256836,0.46509918570518494
131,35298,35296,0.002537523163482547,-0.007201992440968752,0.9822425246238708,2.695610284805298,16.589736938476562,2.110835313796997,0.5301907658576965,0.5090681910514832,0.3092202842235565,-0.09660696238279343,0.3205855190753937,0.4819778800010681
132,35308,35306,0.013118857517838478,0.05083465576171875,1.0070691108703613,-2.1702587604522705,20.21599769592285,2.40175724029541,0.5299961566925049,0.5091316103935242,0.3096841871738434,-0.23671409487724304,0.32564085721969604,0.5060794949531555
133,35318,35316,0.020238008350133896,-0.0004618169623427093,0.9681551456451416,-5.345682621002197,20.194229125976562,2.8155710697174072,0.531389594078064,0.5094340443611145,0.3079439401626587,-0.5597585439682007,0.2678746283054352,0.5317398905754089
134,35328,35326,0.00701393885537982,-0.010123173706233501,0.9718822836875916,-7.055115222930908,17.333316802978516,3.1327450275421143,0.5296100378036499,0.5098740458488464,0.30839961767196655,-0.5431956052780151,0.16764338314533234,0.56947922706604
135,35338,35336,0.016241343691945076,0.049778249114751816,1.0121196508407593,-6.526731967926025,13.062203407287598,3.6782453060150146,0.5298391580581665,0.5103473663330078,0.30865222215652466,-0.7137446403503418,0.06366104632616043,0.6046963334083557
136,35348,35346,0.01598486490547657,-0.017957167699933052,0.9641347527503967,-3.7272913455963135,7.853631973266602,4.14509391784668,0.5304529666900635,0.5106726884841919,0.30957043170928955,-0.87837815284729,-0.010296394117176533,0.6462260484695435
137,35358,35356,-0.007728432770818472,0.07512728124856949,1.0455316305160522,0.11851099878549576,4.715090274810791,4.575375080108643,0.5308269262313843,0.5107628107070923,0.3098626732826233,-0.9497186541557312,-0.014111175201833248,0.6902685761451721
138,35368,35366,0.012785239145159721,0.017043331637978554,0.9896335005760193,4.231442928314209,3.1495237350463867,4.586540699005127,0.5302930474281311,0.5105514526367188,0.31021782755851746,-0.9075831174850464,0.04822935536503792,0.7389758825302124
139,35378,35376,0.014222285710275173,0.007198164705187082,0.997424304485321,7.467621326446533,2.949169397354126,5.16348934173584,0.5304964184761047,0.5101006627082825,0.31052592396736145,-0.940956711769104,0.1699589192867279,0.7908511757850647
140,35388,35386,0.011195993050932884,0.04017641767859459,1.023094892501831,8.0922269821167,3.998441219329834,5.3781023025512695,0.5307143926620483,0.5095404982566833,0.31123098731040955,-0.9443636536598206,0.2349138855934143,0.7942578792572021
141,35398,35396,0.013508867472410202,-0.048954885452985764,0.9541218280792236,5.474468231201172,5.8790788650512695,5.46242094039917,0.5303003191947937,0.5106026530265808,0.3116180896759033,-0.9643027186393738,0.27450984716415405,0.8946800231933594
142,35408,35406,0.015305960550904274,-0.03383466973900795,0.9697004556655884,2.425522804260254,6.531924247741699,5.775832176208496,0.5307255983352661,0.5104049444198608,0.3119262158870697,-0.9925280213356018,0.30650556087493896,0.8965162634849548
143,35418,35416,0.015283551998436451,0.03322671726346016,1.018059492111206,-0.06888881325721741,7.4525251388549805,5.734349727630615,0.5312029123306274,0.5118995308876038,0.3128039836883545,-1.085384488105774,0.19426095485687256,0.9396942853927612
144,35428,35426,-0.006009229924529791,0.04996553808450699,0.9914106130599976,-3.3214564323425293,7.235241413116455,6.0669264793396,0.5316848158836365,0.5121176838874817,0.31310006976127625,-1.181885004043579,0.2008032500743866,0.9987647533416748
145,35438,35436,0.00016269218758679926,0.025589803233742714,1.0312201976776123,-3.2959117889404297,5.672550201416016,5.782167434692383,0.5320736169815063,0.5123617053031921,0.31340518593788147,-1.2660493850708008,0.17372339963912964,1.0591744184494019
146,35448,35446,0.02966073527932167,0.022609692066907883,0.9852386713027954,-2.3589508533477783,3.0997772216796875,6.091525554656982,0.532356858253479,0.5125374794006348,0.31676095724105835,-1.3208369016647339,0.144453763961792,1.1194242238998413
147,35458,35456,0.014004135504364967,-0.02752569504082203,0.9979326725006104,-0.5819416642189026,0.36254945397377014,6.423035621643066,0.5324384570121765,0.5125973224639893,0.31729695200920105,-1.335237979888916,0.13486815989017487,1.181918978691101
148,35468,35466,-0.011771603487432003,0.04191624000668526,1.0186772346496582,1.4556087255477905,-1.393396019935608,6.401961326599121,0.5316561460494995,0.5125187039375305,0.31789612770080566,-1.2324905395507812,0.1518370509147644,1.2506787776947021
149,35478,35476,0.047956474125385284,-0.021123142912983894,0.9481430649757385,3.1666994094848633,-1.7398200035095215,6.244141578674316,0.5315967202186584,0.512335479259491,0.318443238735199,-1.1944738626480103,0.19586032629013062,1.3197895288467407
150,35488,35486,-0.004520812537521124,0.05820855870842934,1.0309792757034302,4.047372341156006,0.5932220816612244,6.555079936981201,0.5331305861473083,0.5121021270751953,0.31703981757164,-1.3205143213272095,0.2638195753097534,1.3853904008865356
151,35498,35496,0.010312618687748909,-0.02795477770268917,0.942929208278656,2.9602816104888916,2.770087480545044,6.051510334014893,0.5340605974197388,0.5119134187698364,0.3174002170562744,-1.3760356903076172,0.3340696394443512,1.4528510570526123
152,35508,35506,0.0016824081540107727,0.008675293065607548,1.00309419631958,1.2147397994995117,5.169926643371582,5.880599021911621,0.5343820452690125,0.5118077993392944,0.3177894353866577,-1.379718542098999,0.3856429159641266,1.5180062055587769
153,35518,35516,0.013471519574522972,0.03708112984895706,0.9990023374557495,-1.2108745574951172,5.949036121368408,5.797952651977539,0.5393249988555908,0.5119722485542297,0.3181210160255432,-1.887204647064209,0.4029301702976227,1.5633269548416138
154,35528,35526,0.01042875275015831,0.026448305696249008,0.991701602935791,-3.498391628265381,4.481881618499756,5.597513198852539,0.538165271282196,0.5121493935585022,0.31879210472106934,-1.722686767578125,0.38224947452545166,1.6249117851257324
155,35538,35536,0.025434402748942375,-0.026006575673818588,0.9485499262809753,-4.982156753540039,-1.0444586277008057,5.082756519317627,0.537447452545166,0.5124591588973999,0.3193313181400299,-1.6208155155181885,0.32481685280799866,1.6799896955490112
156,35548,35546,-0.009429225698113441,-0.034407954663038254,1.0201698541641235,-5.586987018585205,-8.354483604431152,5.11659574508667,0.5391926765441895,0.5121670365333557,0.31800907850265503,-1.749267816543579,0.3220759332180023,1.7369968891143799
157,35558,35556,0.035087067633867264,-0.08409766852855682,1.004693627357483,-3.566188335418701,-8.409890174865723,3.5258166790008545,0.5386367440223694,0.5124405026435852,0.31836503744125366,-1.5556979179382324,0.23760433495044708,1.7856647968292236
158,35568,35566,0.0030624938663095236,0.02683209627866745,1.0062148571014404,-1.7684178352355957,-9.604191780090332,3.4607415199279785,0.5379390120506287,0.5125764608383179,0.3187117278575897,-1.3334500789642334,0.18084222078323364,1.8279716968536377
159,35578,35576,0.013355396687984467,-0.003870003391057253,0.9650219082832336,-0.2895106077194214,-8.352319717407227,3.38496470451355,0.5387951135635376,0.512649416923523,0.31894147396087646,-1.2647465467453003,0.15566883981227875,1.8630927801132202
160,35588,35586,0.0073607382364571095,0.004697773139923811,0.9815239310264587,1.318522334098816,-5.307408332824707,3.322575569152832,0.5397969484329224,0.5126041769981384,0.31745848059654236,-1.2145133018493652,0.1600547581911087,1.8973509073257446
161,35598,35596,0.006441797595471144,0.029568301513791084,0.9922205805778503,2.3328404426574707,-1.7411248683929443,3.407092571258545,0.5396286845207214,0.5124489068984985,0.31762170791625977,-1.0589364767074585,0.18745288252830505,1.9375499486923218
162,35608,35606,0.011385995894670486,0.032672081142663956,0.9980692863464355,2.713209867477417,1.3871464729309082,3.439040422439575,0.5427471995353699,0.5123762488365173,0.3176014721393585,-1.2848851680755615,0.2246711105108261,1.967547059059143
163,35618,35616,0.03037288598716259,0.004301880486309528,0.9788824915885925,2.065795660018921,3.438342332839966,2.9504003524780273,0.5452440977096558,0.5123109817504883,0.3176286816596985,-1.4518439769744873,0.2628342807292938,1.9983808994293213
164,35628,35626,-0.0011074906215071678,0.010156681761145592,1.0007411241531372,0.4465690553188324,3.2879905700683594,2.703874349594116,0.5462056398391724,0.5122954249382019,0.3176978826522827,-1.4673101902008057,0.288261353969574,2.0310416221618652
165,35638,35636,0.012729624286293983,-0.02761969156563282,0.9738361239433289,-1.138616919517517,-0.6949474811553955,2.339048147201538,0.5469245910644531,0.512378990650177,0.31779593229293823,-1.4621953964233398,0.2893076539039612,2.0592586994171143
166,35648,35646,-0.0028921246994286776,0.053261760622262955,1.0269393920898438,-1.3824347257614136,-6.033280849456787,1.782671570777893,0.547980785369873,0.5132930278778076,0.31557464599609375,-1.4774529933929443,0.19159412384033203,2.0645530223846436
167,35658,35656,0.027379650622606277,-0.04805557429790497,0.953910231590271,-0.6004424691200256,-11.066353797912598,1.926067590713501,0.5480858683586121,0.5126047730445862,0.31559261679649353,-1.3285361528396606,0.254613995552063,2.1035311222076416
168,35668,35666,-0.010415716096758842,0.01699039898812771,1.0106499195098877,1.4683661460876465,-14.326881408691406,1.8750642538070679,0.5479742288589478,0.5117803812026978,0.315605103969574,-1.1197718381881714,0.3261302411556244,2.142484426498413
169,35678,35676,0.022555461153388023,0.011922149918973446,0.9981129169464111,2.1430845260620117,-14.139277458190918,1.726191520690918,0.5500145554542542,0.5117299556732178,0.31368008255958557,-1.1085492372512817,0.33550578355789185,2.1565051078796387
170,35688,35686,0.03761576861143112,0.013716851361095905,0.9826151132583618,1.3108958005905151,-12.421051979064941,1.1173301935195923,0.5514236688613892,0.5124355554580688,0.3134559094905853,-1.0054328441619873,0.2752447724342346,2.157601833343506
171,35698,35696,-0.014622579328715801,0.01503660622984171,1.027416706085205,0.9265567064285278,-10.078679084777832,1.2659426927566528,0.5514426827430725,0.5131227374076843,0.3133466839790344,-0.7681963443756104,0.21726737916469574,2.1603469848632812
172,35708,35706,0.037624064832925797,-0.00852703396230936,0.9693513512611389,0.7801989912986755,-8.314706802368164,1.8641154766082764,0.5539215207099915,0.5131635069847107,0.31302639842033386,-0.8063318729400635,0.23441395163536072,2.167144775390625
173,35718,35716,-0.002832969417795539,0.029901649802923203,1.0331498384475708,1.0569932460784912,-6.054710865020752,2.146512508392334,0.5544084310531616,0.5123540163040161,0.3139311671257019,-0.640673816204071,0.3270174562931061,2.1994400024414062
174,35728,35726,0.03731159120798111,-0.008707703091204166,0.9713087677955627,0.7244148850440979,-5.760239124298096,1.9140185117721558,0.5571202039718628,0.5124053359031677,0.31365713477134705,-0.7381010055541992,0.3345344066619873,2.214343309402466
175,35738,35736,-0.024513954296708107,-0.0026123670395463705,1.005324363708496,0.5678065419197083,-5.623258590698242,1.9207271337509155,0.5575344562530518,0.513120174407959,0.3136119544506073,-0.5996904969215393,0.2643062174320221,2.225602865219116
176,35748,35746,-0.0009568234672769904,0.010536912828683853,1.0325322151184082,-0.5345991849899292,-7.783389091491699,1.7690776586532593,0.5586094260215759,0.5131959319114685,0.31363844871520996,-0.531421422958374,0.267226904630661,2.2437665462493896
177,35758,35756,0.034138694405555725,-0.004600805696099997,0.9656442999839783,-1.107840895652771,-9.141934394836426,1.3147475719451904,0.5595463514328003,0.5125539302825928,0.3135353624820709,-0.43172764778137207,0.33141791820526123,2.2695696353912354
178,35768,35766,0.0015507659409195185,0.0655890554189682,1.0605825185775757,-2.5626308917999268,-9.596332550048828,1.0950053930282593,0.5603721141815186,0.5134821534156799,0.3134578466415405,-0.3090497553348541,0.22481019794940948,2.275566577911377
179,35778,35776,0.0033515545073896646,-0.015574965626001358,0.9947604537010193,-3.3577051162719727,-9.41914176940918,0.7571036219596863,0.561321496963501,0.5137225985527039,0.31482410430908203,-0.18332809209823608,0.18316540122032166,2.2862741947174072
180,35788,35786,-0.003945061471313238,0.016302863135933876,1.0142377614974976,-2.8686769008636475,-6.524808883666992,0.4469141960144043,0.5638126730918884,0.5140237808227539,0.3147335648536682,-0.22067992389202118,0.13390927016735077,2.2893002033233643
181,35798,35796,0.021591667085886,-0.007761548273265362,0.9679450988769531,-1.4374476671218872,-2.9262821674346924,0.22461339831352234,0.5643476247787476,0.5134443640708923,0.3148108422756195,-0.06374005973339081,0.16683438420295715,2.2997584342956543
182,35808,35806,-0.039563730359077454,0.05694148316979408,1.1031970977783203,0.11950498819351196,-0.272368460893631,-0.17611147463321686,0.5650579929351807,0.5135030150413513,0.3148542046546936,0.031778253614902496,0.13958725333213806,2.30417537689209
183,35818,35816,0.05459819361567497,-0.03237258270382881,0.9509486556053162,1.452160358428955,-0.04246825724840164,-0.5817803740501404,0.5658623576164246,0.5134554505348206,0.3156100809574127,0.08649258315563202,0.13963063061237335,2.305767297744751
184,35828,35826,-0.0024011365603655577,0.04818285256624222,1.0435343980789185,1.7988214492797852,0.32060757279396057,-0.8838642835617065,0.5681596398353577,0.5126935243606567,0.31562525033950806,-0.024338193237781525,0.2320311963558197,2.29913592338562
185,35838,35836,-0.0012521566823124886,-0.030839717015624046,0.9829809069633484,1.9048069715499878,-0.2926953434944153,-1.6047199964523315,0.5689600706100464,0.5125932693481445,0.3157537877559662,0.01704895868897438,0.25125572085380554,2.2920804023742676
186,35848,35846,0.0005044552963227034,0.01927812211215496,1.022854208946228,1.6865348815917969,-2.2017860412597656,-2.2258517742156982,0.5704750418663025,0.5125259160995483,0.3175479471683502,-0.009848403744399548,0.26946619153022766,2.2787303924560547
187,35858,35856,0.04359380900859833,0.01906220242381096,0.9966313242912292,0.4887239634990692,-4.795042037963867,-2.5966999530792236,0.5703138709068298,0.5117231607437134,0.31786978244781494,0.14404357969760895,0.35292378067970276,2.2600746154785156
188,35868,35866,-0.018209123983979225,-0.00291434396058321,0.9934868216514587,-0.9888874292373657,-6.644260406494141,-3.294482707977295,0.5714207887649536,0.5117837190628052,0.31809917092323303,0.1784084439277649,0.3420139253139496,2.2361867427825928
189,35878,35876,0.013367017731070518,0.00047863638610579073,1.0103251934051514,-2.862729549407959,-5.680717468261719,-4.189910888671875,0.5725789070129395,0.5119724273681641,0.3191852271556854,0.23276656866073608,0.306490421295166,2.20645809173584
190,35888,35886,0.017063187435269356,0.026995588093996048,0.9785875678062439,-4.229992866516113,-2.8313355445861816,-4.636725902557373,0.5745943188667297,0.5122867822647095,0.3194185793399811,0.19567041099071503,0.24631403386592865,2.1669583320617676
191,35898,35896,0.014129727147519588,-0.003265026956796646,0.9926483631134033,-4.742781162261963,-0.15303879976272583,-4.826083660125732,0.5761438608169556,0.5111541152000427,0.31965014338493347,0.19682413339614868,0.3139590919017792,2.1129751205444336
192,35908,35906,-0.019135816022753716,-0.014840122312307358,0.9832594990730286,-4.828581809997559,0.26206958293914795,-5.124162673950195,0.5762361288070679,0.5114759802818298,0.3197149932384491,0.3097856342792511,0.21515381336212158,2.070889472961426
193,35918,35916,-0.002267590258270502,0.025898244231939316,1.0028440952301025,-4.489516258239746,0.07692201435565948,-5.201472759246826,0.5785295367240906,0.5118629932403564,0.3198907971382141,0.18796946108341217,0.12014841288328171,2.0208139419555664
194,35928,35926,0.05115453526377678,0.038272444158792496,0.9743746519088745,-4.712452411651611,-0.28588995337486267,-5.255897521972656,0.5800682902336121,0.5114696621894836,0.3200843036174774,0.15816852450370789,0.10436702519655228,1.9648722410202026
195,35938,35936,-0.022568434476852417,0.019621096551418304,1.0053207874298096,-4.148569107055664,-1.0458039045333862,-4.585563659667969,0.5823206305503845,0.5110734105110168,0.3201722502708435,0.06687083095312119,0.0887208953499794,1.907139778137207
196,35948,35946,0.0059128375723958015,-0.014247961342334747,0.9601836204528809,-3.6036391258239746,-1.5422203540802002,-4.823025226593018,0.5821938514709473,0.5113194584846497,0.3180372714996338,0.20769783854484558,0.0043262336403131485,1.8655649423599243
197,35958,35956,0.010706835426390171,0.03245363384485245,0.9914097189903259,-2.4858720302581787,-3.8580315113067627,-5.272889614105225,0.5827527046203613,0.5115228295326233,0.3181276321411133,0.28280216455459595,-0.0647081807255745,1.8228764533996582
198,35968,35966,0.005955904722213745,0.011938315816223621,0.9917161464691162,-1.042049765586853,-4.612225532531738,-5.4329705238342285,0.582530677318573,0.5108723044395447,0.3182682693004608,0.44706061482429504,-0.04438234865665436,1.7667235136032104
199,35978,35976,0.0191006101667881,0.04402681440114975,0.9944844841957092,0.4473789930343628,-3.786318063735962,-5.140455722808838,0.5852692127227783,0.5109326839447021,0.3177977502346039,0.321087509393692,-0.07422713190317154,1.714127540588379
200,35988,35986,0.006630716845393181,0.07253841310739517,1.0092854499816895,0.98936927318573,-1.8287490606307983,-4.917629241943359,0.5866255760192871,0.5109019875526428,0.3177585005760193,0.3450296223163605,-0.08200651407241821,1.6622365713119507
201,35998,35996,0.005116951186209917,0.012171642854809761,0.9918583631515503,0.7040751576423645,-0.6743165850639343,-4.549400806427002,0.5873444676399231,0.5108590126037598,0.3177844285964966,0.41537126898765564,-0.0804039016366005,1.612404227256775
202,36008,36006,0.006978280376642942,0.016915615648031235,1.005340814590454,-0.050691988319158554,-0.8249026536941528,-4.412558555603027,0.5889016389846802,0.5108643174171448,0.3203537166118622,0.39136335253715515,-0.0813169777393341,1.567801594734192
203,36018,36016,0.023959806188941002,0.012892511673271656,0.9904732704162598,-1.283589243888855,-0.21857613325119019,-4.1263933181762695,0.5896872878074646,0.5109467506408691,0.32053327560424805,0.4328819513320923,-0.09480051696300507,1.5257982015609741
204,36028,36026,-0.028199326246976852,0.05100380629301071,0.9873038530349731,-2.0405449867248535,-0.06031015142798424,-4.335873603820801,0.5905179977416992,0.5110638737678528,0.32070034742355347,0.4617360830307007,-0.12095680087804794,1.4857629537582397
205,36038,36036,-0.0671687126159668,0.12179906666278839,1.032492756843567,-1.6300575733184814,0.43117913603782654,-3.2681925296783447,0.5928295254707336,0.5097432136535645,0.32074809074401855,0.34632113575935364,-0.014574384316802025,1.427730917930603
206,36048,36046,0.053550075739622116,0.0009405715973116457,0.9480119943618774,-0.9696676135063171,1.167545199394226,-3.082533836364746,0.5930288434028625,0.5097908973693848,0.32238778471946716,0.44040772318840027,-0.05583282560110092,1.3930795192718506
207,36058,36056,-0.016596833243966103,0.01736801117658615,1.014020323753357,-1.4832552671432495,0.6155585050582886,-3.2896108627319336,0.5939195156097412,0.5098899602890015,0.32262083888053894,0.4456964433193207,-0.09066108614206314,1.3636341094970703
208,36068,36066,0.010151776485145092,0.008990718983113766,0.9795525670051575,-2.301910161972046,0.22222696244716644,-3.3015122413635254,0.5947339534759521,0.5107907652854919,0.322856068611145,0.4544173777103424,-0.199721097946167,1.3457783460617065
209,36078,36076,0.027607683092355728,0.02775454707443714,0.9874140620231628,-2.0501420497894287,0.5297591686248779,-3.1758642196655273,0.595613420009613,0.5109567046165466,0.3243967592716217,0.4691954553127289,-0.2387537807226181,1.3146069049835205
210,36088,36086,-0.004199236165732145,-0.0012334370985627174,0.9705259799957275,0.8359672427177429,0.892543375492096,-3.2890594005584717,0.5964948534965515,0.5102540850639343,0.32468223571777344,0.48174020648002625,-0.1965431571006775,1.2733705043792725
211,36098,36096,0.01445330772548914,-0.009201613254845142,0.9795698523521423,4.054769992828369,1.5264499187469482,-2.6871790885925293,0.5981088876724243,0.5100782513618469,0.3248828053474426,0.42012128233909607,-0.1883482038974762,1.2420450448989868
212,36108,36106,0.015276111662387848,0.046844687312841415,1.0047264099121094,6.160280704498291,1.6961867809295654,-2.439641237258911,0.5989816188812256,0.509704053401947,0.3247455656528473,0.4283662438392639,-0.13028216361999512,1.2088685035705566
213,36118,36116,0.011904413811862469,-0.011135020293295383,0.9393472671508789,5.999694347381592,1.9593654870986938,-2.3009936809539795,0.5991756916046143,0.509272038936615,0.3249812722206116,0.49434569478034973,-0.045290473848581314,1.1756283044815063
214,36128,36126,0.015262586995959282,-0.040469326078891754,0.9563785791397095,4.201519966125488,0.6778123378753662,-2.5190722942352295,0.6000193357467651,0.5097049474716187,0.325155645608902,0.47915002703666687,-0.03539985045790672,1.1603449583053589
215,36138,36136,0.010226991027593613,0.05895343795418739,1.0226784944534302,1.2742558717727661,0.8516947031021118,-2.7482664585113525,0.6016049981117249,0.5095852017402649,0.32523253560066223,0.39891478419303894,0.020098324865102768,1.1379762887954712
216,36148,36146,0.030410161241889,0.021567590534687042,0.9596354961395264,-1.4004218578338623,1.5503921508789062,-2.82832407951355,0.6024593114852905,0.5096617341041565,0.3225193917751312,0.3902921974658966,0.029320038855075836,1.1128414869308472
217,36158,36156,0.015104873105883598,-0.026251161471009254,0.9689167737960815,-2.395993232727051,1.0389264822006226,-2.6005361080169678,0.6033526062965393,0.5098355412483215,0.3224477469921112,0.3741411566734314,0.0008584975730627775,1.0890079736709595
218,36168,36166,0.03992655128240585,0.022234806790947914,0.979931652545929,-2.1777515411376953,0.338504821062088,-2.3278119564056396,0.6034366488456726,0.5099786520004272,0.3224197030067444,0.4355497658252716,-0.03952983394265175,1.0617706775665283
219,36178,36176,-0.006682862062007189,0.02029799111187458,0.979248583316803,-1.6996461153030396,1.4909930229187012,-1.789142370223999,0.6058059930801392,0.5093821883201599,0.3217681646347046,0.2834201157093048,-0.004669620655477047,1.0322710275650024
220,36188,36186,0.0033559591975063086,-0.04194372147321701,0.9627817869186401,-1.7306029796600342,2.9574809074401855,-1.570030927658081,0.6060451865196228,0.509498655796051,0.3216635584831238,0.3421895205974579,-0.04239717870950699,1.0119162797927856
221,36198,36196,0.015413811430335045,0.06736249476671219,1.0285879373550415,-2.240406036376953,3.6618402004241943,-1.095514178276062,0.6063508987426758,0.5096285343170166,0.3215285539627075,0.3735351264476776,-0.07814589142799377,0.9943718910217285
222,36208,36206,2.483212483639363e-06,0.00192364864051342,0.9647790789604187,-3.1578032970428467,5.296883583068848,-0.8206592798233032,0.6074596047401428,0.5098552107810974,0.32154375314712524,0.31345999240875244,-0.12166724354028702,0.9860622882843018
223,36218,36216,0.027122939005494118,-0.0015590188559144735,0.9933207035064697,-1.4755903482437134,5.713569164276123,-0.9500544667243958,0.6078922152519226,0.5092541575431824,0.32138898968696594,0.31200167536735535,-0.09707003831863403,0.9676838517189026
224,36228,36226,0.0008690048125572503,0.04675781726837158,1.021823763847351,1.0900497436523438,6.323237419128418,-0.3972109854221344,0.609078049659729,0.509249746799469,0.32116150856018066,0.22418124973773956,-0.12524066865444183,0.960601806640625
225,36238,36236,0.0061882068403065205,-0.02813822589814663,0.9716784954071045,4.027244567871094,5.493882656097412,-0.38103827834129333,0.6102012991905212,0.5090495347976685,0.31801334023475647,0.1383417546749115,-0.10996973514556885,0.9541292190551758
226,36248,36246,0.01227518543601036,0.0402054600417614,1.028481364250183,6.286510944366455,3.5848119258880615,-0.3273671269416809,0.6104875802993774,0.5086522102355957,0.31766653060913086,0.14142006635665894,-0.05027882009744644,0.9451996088027954
227,36258,36256,0.03676841780543327,0.01218822319060564,0.9917826652526855,7.973806381225586,0.8718537092208862,-0.3237268924713135,0.6128410696983337,0.5089410543441772,0.31716200709342957,-0.04737327620387077,-0.0275455042719841,0.9494417309761047
228,36268,36266,-0.007850123569369316,-0.01597120426595211,0.9971091747283936,8.104328155517578,-1.379215955734253,-0.16837015748023987,0.6128295660018921,0.5091412663459778,0.31690284609794617,0.025949843227863312,0.019506966695189476,0.9452928900718689
229,36278,36276,0.03107493370771408,0.030918346717953682,1.0151926279067993,6.515866279602051,-3.117945671081543,0.03898801654577255,0.6127114295959473,0.5086720585823059,0.3171078562736511,0.12430603802204132,0.13950154185295105,0.9355961680412292
230,36288,36286,0.00812210701406002,-0.01899370551109314,1.011989951133728,2.823962926864624,-1.8871320486068726,0.7003675699234009,0.6155402660369873,0.5091978907585144,0.3166634142398834,-0.05697254091501236,0.15526072680950165,0.9454879760742188
231,36298,36296,0.03949717804789543,0.038552425801754,0.9988115429878235,-1.7343533039093018,0.3348676860332489,0.9349259734153748,0.6155847907066345,0.5092198252677917,0.3164403438568115,0.056487515568733215,0.1927468329668045,0.9480465054512024
232,36308,36306,-0.015463115647435188,0.04436219483613968,1.0516325235366821,-6.879474639892578,-0.6634089350700378,1.6501942873001099,0.6171236634254456,0.509560763835907,0.31872445344924927,-0.0015056829433888197,0.15782219171524048,0.9600340723991394
233,36318,36316,0.02547057904303074,0.14916838705539703,1.0567911863327026,-9.653448104858398,2.0600972175598145,1.7281625270843506,0.618762195110321,0.51014643907547,0.3185226619243622,-0.06990156322717667,0.0542520210146904,0.9789774417877197
234,36328,36326,0.008452187292277813,0.09984049201011658,1.0897241830825806,-10.900187492370605,3.22253155708313,2.122927188873291,0.6197637319564819,0.510150671005249,0.31842952966690063,-0.08278223127126694,-0.02575397863984108,0.9952719807624817
235,36338,36336,0.02243584208190441,-0.010161733254790306,0.9863389134407043,-8.996888160705566,3.930560350418091,2.840250253677368,0.6201184988021851,0.5100703239440918,0.32029542326927185,-0.043190933763980865,-0.12059719860553741,1.015478491783142
236,36348,36346,-0.0020545655861496925,0.001358048990368843,1.0137207508087158,-3.8162405490875244,2.839790105819702,3.556687593460083,0.6203868389129639,0.5104271769523621,0.32047995924949646,-0.011884783394634724,-0.2515541613101959,1.041980504989624
237,36358,36356,0.013918982818722725,0.036085084080696106,1.0336664915084839,2.3655688762664795,1.6833001375198364,4.101378440856934,0.6220260858535767,0.5104344487190247,0.32057106494903564,-0.11978697031736374,-0.2996785640716553,1.0758265256881714
238,36368,36366,0.014514029026031494,-0.02084290236234665,0.9774110913276672,7.914046287536621,1.8028498888015747,4.383050918579102,0.6222226023674011,0.5093092322349548,0.32086673378944397,-0.06162869930267334,-0.18097925186157227,1.1071593761444092
