,timestamp_start,timestamp_end,acc.x,acc.y,acc.z,gyro.x,gyro.y,gyro.z,stateEstimate.x,stateEstimate.y,stateEstimate.z,stabilizer.pitch,stabilizer.roll,stabilizer.yaw
0,33780,33762,0.0221535545,-0.0886582881,1.0732554197,-1.1619558334,4.5955295563,1.4912265539,0.5404545665,0.4786637425,0.1655077487,0.2467102557,-0.4380848706,2.5740432739
1,33790,33772,0.0046457518,-0.0187386107,1.1137530804,3.5750217438,3.0066628456,1.3734141588,0.5408815742,0.477997452,0.167561844,0.1725755781,-0.9895982146,2.6036038399
2,33800,33782,0.0071318988,-0.1131963804,1.1458384991,5.8646087646,0.4566108882,1.5042876005,0.5411613584,0.4782100916,0.1694039553,0.125348404,0.2756681144,2.6009669304
3,33810,33792,-0.001019243,-0.0285133943,1.017229557,4.4501986504,-1.76848948,1.3044213057,0.5411729217,0.4821301699,0.1713166833,-0.2804727256,-0.7487159371,2.6200590134
4,33820,33802,0.0011334902,0.0292773657,1.0962848663,2.3823165894,-5.5953388214,1.6864329576,0.5414662361,0.4739266932,0.1789717078,-0.4956917763,-2.466520071,2.5940845013
5,33830,33812,0.013488668,-0.0206495989,1.0514657497,6.4263653755,-8.5975599289,1.9631556273,0.5440645814,0.4812059999,0.1822844446,-0.2884396017,-2.0766835213,2.6234016418
6,33840,33822,0.0029338954,-0.0471906811,1.0187389851,20.6023311615,-13.6900062561,1.6132985353,0.5459019542,0.4946506917,0.1792735904,-0.0352198668,-1.6580098867,2.6484050751
7,33850,33832,0.0298200753,-0.1201025769,1.0227248669,37.7281112671,-15.6618518829,1.0161019564,0.545404613,0.4943144023,0.1874172837,0.1217265278,-1.1590833664,2.6789557934
8,33860,33842,0.0110840853,-0.0700718537,1.0954326391,47.5801315308,-12.5984697342,1.6120276451,0.5447897911,0.4941362441,0.1936432421,0.3992112577,-0.3975745142,2.697715044
9,33870,33852,-0.0302354302,0.0765411928,1.0802032948,48.0234413147,-9.4358034134,1.5352646112,0.5451020598,0.4942155182,0.1958221346,0.6163357496,0.4729194343,2.7245950699
10,33880,33862,-0.0204003081,0.1243780404,0.9761556983,41.5851974487,-5.4534349442,1.0723712444,0.5444471836,0.4931461811,0.2001829743,0.3589217067,0.094019033,2.7311098576
11,33890,33872,0.0466297157,-0.0564215593,0.9549335837,24.8747386932,0.5020586252,0.5482631326,0.5439450145,0.4912762642,0.2037776709,0.3311610222,0.6514491439,2.7560067177
12,33900,33882,-0.0259350818,-0.1008898243,1.0324920416,12.3849105835,1.5736130476,0.409956187,0.5464151502,0.4987562597,0.2050629854,0.4497774839,1.0142816305,2.7601611614
13,33910,33892,-0.0193459578,-0.0718494058,0.9948305488,4.9470543861,-1.6981073618,0.6785790324,0.5473238826,0.4986959696,0.2086430192,0.5056909323,1.1860346794,2.7659335136
14,33920,33902,0.0493306071,-0.0931936577,1.0107951164,-1.0740180016,-2.8841052055,0.2720756829,0.5467536449,0.4986855984,0.2120764405,0.6571950316,1.3654395342,2.7750191689
15,33930,33912,0.0355181135,-0.1681545228,1.0307645798,-1.7910370827,-6.2580657005,0.4525765777,0.5466413498,0.4990674853,0.2126914561,0.8364944458,1.5366302729,2.7849030495
16,33940,33922,-0.0090632848,-0.0234062877,0.9716150165,-1.6423879862,-5.7734007835,0.22184816,0.5458577275,0.498734951,0.2155907452,0.9401838183,1.6016862392,2.7900197506
17,33950,33932,-0.0287244134,-0.1112563089,0.986857295,-1.3644001484,-3.8993752003,0.695345819,0.5449380279,0.4979569614,0.21827811,1.0176810026,1.6533144712,2.795371294
18,33960,33942,-0.0252875332,-0.0761933327,0.9384490848,-1.8940933943,-1.2280857563,0.6114519238,0.5445588231,0.4978417456,0.2209714502,1.0590513945,1.6993104219,2.8010275364
19,33970,33952,0.0136207147,-0.0444188304,0.9127131701,-3.1612758636,4.1408848763,0.1683961451,0.5442463756,0.4976508319,0.2218765318,0.895088315,1.717361927,2.7813863754
20,33980,33962,0.0392009728,-0.0814166963,0.9216969013,-4.1026706696,6.4293732643,0.0202827025,0.5440407991,0.4975286722,0.2244328558,0.8239764571,1.7067735195,2.7800223827
21,33990,33972,0.0778810903,-0.060323596,0.9197797775,-5.0372405052,7.4842252731,-0.1109259576,0.5452982187,0.4975413978,0.2271510363,0.5147693753,0.9551455379,2.7589690685
22,34000,33982,0.0074638217,0.0120782992,0.959231019,-3.9113309383,6.4760727882,0.4361964762,0.5455237627,0.4974834621,0.2264110148,0.4486862421,1.0058190823,2.7586491108
23,34010,33992,-0.0050246827,-0.0046669962,0.9168679714,0.7720580697,3.5254848003,0.7295831442,0.5474523306,0.5042548776,0.2294133008,0.4198346436,1.1554253101,2.7614994049
24,34020,34002,0.0113862958,-0.0293516256,0.9058549404,6.2360973358,-4.0600295067,0.6599075794,0.5477193594,0.5043168664,0.2318254709,0.6149293184,1.3003152609,2.7997984886
25,34030,34012,0.1302702725,0.030565206,0.8604092598,9.1526899338,-6.638235569,0.6409373283,0.547899425,0.5034553409,0.2299365848,0.7069132924,1.5695468187,2.8082458973
26,34040,34022,0.0400716178,0.065594539,0.8845008612,8.0215597153,-7.7454767227,0.2508770823,0.5464116335,0.5029818416,0.2319065779,0.9075706005,1.8330572844,2.8303456306
27,34050,34032,-0.0404089577,0.0986683667,0.9766210318,3.3050813675,-5.342130661,-0.1701941788,0.5461274385,0.5016350746,0.2336300462,0.9979838729,2.0201852322,2.8296973705
28,34060,34042,-0.0322611332,-0.0065130848,0.9644436836,-5.7391915321,1.4555102587,-0.1691208929,0.5450128317,0.500204742,0.2346755564,1.0262533426,2.0080029964,2.8270726204
29,34070,34052,-0.0269164611,-0.0103832232,0.9796417356,-14.0959177017,4.6823410988,-0.5691636205,0.5446744561,0.4990239441,0.2360991687,0.9631874561,1.8434247971,2.8175246716
30,34080,34062,0.0046275631,-0.0348749943,0.9298885465,-21.6477928162,10.0494480133,-0.3991808295,0.5444899797,0.4990078509,0.2376608551,0.8858850002,1.6825895309,2.8142678738
31,34090,34072,-0.0816923678,0.0974510536,0.9775558114,-23.7071762085,12.9766864777,-0.5328912139,0.5446366668,0.4995982051,0.2393169999,0.7508608699,1.5856063366,2.8010470867
32,34100,34082,-0.0456377529,0.0976288468,0.9545641541,-20.1267528534,11.3611955643,-0.5270699263,0.54449296,0.4993339181,0.2395527214,0.7430879474,1.5563614368,2.8176853657
33,34110,34092,-0.0017183899,0.068975836,0.9803584218,-17.4719638824,7.9438018799,-0.9312983155,0.544552505,0.4978967905,0.2408230454,0.6873515844,1.4694553614,2.8181707859
34,34120,34102,0.0194563661,-0.0114476895,0.9660063982,-15.1695461273,5.0080966949,-1.3529769182,0.543328464,0.4956620932,0.2418861836,0.7472492456,1.3412309885,2.8381283283
35,34130,34112,-0.0257144216,0.0090489974,0.9839929342,-14.6757764816,3.8799197674,-1.1183410883,0.5426394939,0.4940543473,0.2426735461,0.6134701371,1.3772054911,2.7957181931
36,34140,34122,-0.0578391775,0.1090063676,0.9710900187,-16.1410007477,3.3357510567,-0.6590118408,0.541040957,0.492982775,0.2437702417,0.5639230609,1.086918354,2.7905209064
37,34150,34132,-0.0015653743,0.0214660615,0.9955809116,-19.7133235931,8.7586765289,-1.3279085159,0.5415188074,0.4904244244,0.2447870225,0.4150853753,0.9129567742,2.7594058514
38,34160,34142,0.0064097987,-0.179729715,1.0044277906,-20.7254238129,6.830327034,-1.4171457291,0.5411616564,0.4908552766,0.2454754114,0.312864095,0.6988179088,2.7420022488
39,34170,34152,-0.0515064411,-0.0682483464,1.076167345,-22.0484371185,8.5734157562,-1.3604067564,0.5416761041,0.489993006,0.2466749847,0.3617468476,0.5394501686,2.7540330887
40,34180,34162,-0.0782784745,-0.0904183686,1.0569800138,-20.7552871704,5.6665096283,-1.0743672848,0.5416110158,0.4892710447,0.247895807,0.260976404,0.2146713585,2.7385485172
41,34190,34172,0.0028404852,-0.031842649,0.9926168323,-18.5825405121,5.9918451309,-1.5767424107,0.5400756598,0.4878283441,0.2490703613,0.2615442872,0.2302325368,2.7332684994
42,34200,34182,0.0125752492,-0.0180497002,1.0088943243,-14.7220697403,3.6999914646,-0.8835658431,0.5399649143,0.4881714582,0.245760113,0.1238564029,-0.1034243703,2.7087914944
43,34210,34192,0.0249312371,-0.015802592,0.9998480082,-11.6424894333,4.3447294235,-1.2041736841,0.5390818119,0.4851732254,0.2466586232,0.1526013762,-0.2870155573,2.7075350285
44,34220,34202,0.0463032015,-0.1057643071,0.9967544079,-9.089471817,4.1784014702,-1.0821794271,0.53946805,0.4857958853,0.2479172349,0.1688887626,-0.1896972656,2.7028479576
45,34230,34212,0.0379046947,-0.0266541131,0.9994989038,-8.3005561829,7.480038166,-1.121961832,0.5383688807,0.4853865802,0.2486086637,0.0825345144,-0.3074617088,2.688226223
46,34240,34222,0.0265946928,-0.0456454717,0.9722682834,-9.7795476913,7.1916832924,-0.9286817312,0.537394166,0.4824988246,0.2495381534,-0.0268739183,-0.4968095124,2.6729996204
47,34250,34232,0.0347601697,-0.0243206248,0.9604001045,-11.3360948563,5.7927885056,-0.8398275375,0.5371281505,0.4817774296,0.250564158,-0.0520452335,-0.4798054397,2.669015646
48,34260,34242,-0.0180686675,-0.0688423291,1.0683978796,-13.045050621,6.3495817184,-0.1719924361,0.5368708968,0.4816285968,0.2552979589,-0.2221895158,-0.7246869802,2.6568136215
49,34270,34252,-0.049478516,-0.0379639529,1.0371550322,-14.2736692429,6.0049715042,-0.0677039698,0.5360674262,0.4795106649,0.2564505339,-0.2340174764,-0.8337997198,2.6577754021
50,34280,34262,-0.0709927902,0.0731766149,1.0256460905,-12.4117937088,3.1307928562,-0.1835195422,0.5365993977,0.4797918797,0.2578581274,-0.3747977912,-0.8713981509,2.663018465
51,34290,34272,-0.0270234719,0.0880744979,1.0257108212,-9.5536384583,1.7101769447,-0.3656284809,0.5356999636,0.478607595,0.2591376007,-0.3918714821,-0.9531216621,2.6606807709
52,34300,34282,-0.0264615677,0.0536615774,1.1090654135,-7.551692009,1.2681444883,-0.2740356922,0.536239028,0.476754874,0.2603876591,-0.4647882581,-1.1425142288,2.6518526077
53,34310,34292,0.0165164042,-0.0231999066,1.0057173967,-6.5801081657,0.3792883754,-0.0766446069,0.535831511,0.4754467309,0.261747241,-0.4480467737,-1.2181776762,2.6472697258
54,34320,34302,0.0441138484,0.0145048182,0.9349586368,-4.9229388237,-1.4370635748,0.5539505482,0.5360052586,0.4754938781,0.2632475793,-0.475161016,-1.3401165009,2.6465437412
55,34330,34312,0.0913490579,-0.0283191185,0.9252839088,-3.0656552315,-3.0556542873,0.3042554259,0.5354259014,0.4746321738,0.2645364404,-0.4661966562,-1.271155715,2.6636176109
56,34340,34322,0.0754325688,-0.1605699658,0.9947208762,-2.360637188,-3.5347428322,-0.1227422953,0.535410583,0.4744356275,0.2658797801,-0.4480780363,-1.4183148146,2.6547768116
57,34350,34332,0.0189800132,-0.2282197475,1.007663846,-2.6726980209,-1.3638763428,0.1651821434,0.5353730917,0.4725844562,0.267146498,-0.4373858273,-1.3948142529,2.6626505852
58,34360,34342,-0.0183707178,-0.1188500524,1.0168944597,-3.303508997,-0.5629493594,-0.274731189,0.535241425,0.4729995728,0.2672245502,-0.2056266963,-1.4518277645,2.6263377666
59,34370,34352,0.0117100924,-0.0437550209,0.9436478615,-3.6860573292,-1.1175720692,-0.4113632739,0.5351918936,0.4718083739,0.2684321702,-0.2328939885,-1.5115417242,2.6260495186
60,34380,34362,0.0580193698,-0.0057768123,0.9643669724,-3.0884943008,0.4418064952,-0.9375900626,0.5327633619,0.4712548852,0.2696205974,-0.2599509954,-1.637606144,2.6162428856
61,34390,34372,0.0536790714,-0.0390361734,1.0282957554,-1.0776883364,-0.5496656895,-0.4157445431,0.5327484012,0.4708646536,0.2707980871,-0.3136355579,-1.5872660875,2.6246623993
62,34400,34382,0.0459720157,-0.0226127356,0.9826170802,0.0333822668,6.4003314972,-1.2807279825,0.5327300429,0.4712485373,0.2712885439,-0.3861681223,-1.6633843184,2.6184136868
63,34410,34392,-0.0145157631,-0.0919635892,1.0295554399,2.623524189,6.3293890953,-1.5454417467,0.5329194069,0.4700011611,0.2724264562,-0.5009132624,-1.6138886213,2.6189854145
64,34420,34402,0.0475873202,-0.0017857584,0.9384715557,4.6281037331,3.4038519859,-1.8980276585,0.5331329107,0.4702011943,0.2735629976,-0.434538871,-1.5263515711,2.5822384357
65,34430,34412,0.0598397255,0.0962995142,0.9159319401,5.308119297,-1.1240487099,-1.1743165255,0.5335296988,0.4694224894,0.2747697532,-0.4825835228,-1.5002818108,2.5723404884
66,34440,34422,0.0337810144,-0.012191047,0.9554069042,3.8248169422,-0.7126730084,-1.3229724169,0.5322364569,0.4683817327,0.2758029699,-0.4948998392,-1.4702891111,2.5634689331
67,34450,34432,-0.0020015235,-0.0207156483,0.9857749343,1.4900618792,5.0595026016,-1.2777738571,0.5323702693,0.4681680501,0.276801616,-0.4761921763,-1.4695156813,2.5378787518
68,34460,34442,-0.0042562024,-0.0282045137,0.9594292641,-0.4505130947,12.801566124,-1.6103458405,0.532379806,0.4679448009,0.2774577439,-0.6457092166,-1.5010001659,2.5398621559
69,34470,34452,0.0091071827,-0.0221663546,0.991538167,0.2382160723,16.4434547424,-1.6834869385,0.5317918658,0.467821449,0.2783915997,-0.9077633619,-1.5409436226,2.5425186157
70,34480,34462,0.0439255834,-0.038282346,0.9369911551,2.2182896137,18.2360496521,-2.3083412647,0.5324991345,0.4679381549,0.2793150246,-0.9860050678,-1.5555711985,2.4939799309
71,34490,34472,0.0411537848,-0.0555760451,0.9329372644,5.0598831177,16.3620014191,-1.5933103561,0.5336105227,0.4681257904,0.2810980678,-1.3016408682,-1.5219630003,2.5017447472
72,34500,34482,-0.0018110387,0.0306252129,0.9411557913,7.0727729797,15.5936479568,-1.5577270985,0.5325558782,0.468095541,0.2820206881,-1.4103904963,-1.4361549616,2.4745752811
73,34510,34492,-0.0530270524,0.1424931139,0.977822423,9.6012029648,8.1512956619,-1.7022732496,0.5339314938,0.468002677,0.2827941775,-1.452306509,-1.3191171885,2.4442574978
74,34520,34502,0.0366755426,-0.037657667,0.9416416287,11.1148262024,4.2684640884,-1.2871457338,0.5334796309,0.4675762951,0.2836403251,-1.4070671797,-1.1433647871,2.4103224277
75,34530,34512,-0.0056294459,-0.0031593768,1.0186777115,10.5278692245,-0.3608610332,-1.3489769697,1.6064562798,0.1906944811,0.2841714323,-1.4440819025,-1.0635399818,2.3968322277
76,34540,34522,0.0085001858,0.0428847149,0.9966384768,7.5342845917,-2.1455965042,-1.543151021,4.1695861816,13.2662115097,0.285004437,-1.4420934916,-1.0961705446,2.3898823261
77,34550,34532,0.0214393921,0.0286966637,0.9684329629,3.3490858078,-0.3936888874,-0.9992479682,4.1696276665,13.2664499283,0.2857282162,-1.5048872232,-0.9742065668,2.3966767788
78,34560,34542,0.004340278,-0.0468099713,0.9674893022,-0.0910164192,1.0890136957,-2.2167210579,2.963654995,8.6919441223,0.2876084149,-1.4977289438,-1.160045743,2.3338851929
79,34570,34552,0.0571986437,-0.182616666,1.0036581755,0.3999882042,1.7278267145,-1.5983092785,3.3004965782,8.4875059128,0.2883108556,-1.5146124363,-1.1385432482,2.3193309307
80,34580,34562,0.0445465371,-0.0912455097,0.9804151654,2.9499094486,4.3980345726,-1.8860292435,1.7411174774,3.0934724808,0.2891761959,-1.5496752262,-1.0365422964,2.3268485069
81,34590,34572,-0.0436409079,-0.1071404815,1.0642639399,6.6850376129,5.5448741913,-2.1946845055,1.8414350748,3.791066885,0.2902204394,-1.9076111317,-1.0503923893,2.3571500778
82,34600,34582,0.0175676979,-0.1151610389,0.931727767,10.0812101364,3.4805002213,-2.4734585285,1.8416267633,3.7910397053,0.2910123169,-1.7797732353,-1.2283840179,2.2456717491
83,34610,34592,-0.0196294095,0.0152594121,1.0378736258,11.5020503998,0.7039357424,-1.6606230736,1.8097707033,3.7442312241,0.2915611863,-1.7887214422,-1.0234560966,2.2453610897
84,34620,34602,0.0180023555,-0.0040448178,0.9865582585,14.3211212158,-4.6349987984,-2.8831415176,1.817856431,3.7469267845,0.2925368547,-1.8919577599,-0.7930297256,2.2738473415
85,34630,34612,0.0643208846,-0.0413649753,0.9770177007,13.636469841,-7.8745632172,-1.8247350454,1.8313529491,3.7681443691,0.2945359945,-1.6118696928,-0.6231930852,2.2212119102
86,34640,34622,-0.0121962437,0.0570241287,0.9933643341,10.0141391754,-8.1919717789,-1.6227663755,1.8375654221,3.7763810158,0.2952997684,-1.4542684555,-0.3913706839,2.2127902508
87,34650,34632,0.0323463306,-0.0446248837,0.9730678797,5.5926060677,-5.0000433922,-1.8249915838,1.8122124672,3.7980642319,0.2963718474,-1.29926157,-0.219655484,2.202059269
88,34660,34642,0.0031679315,-0.0299437866,0.9892281294,-0.5525149703,2.6722495556,-2.4242403507,1.8133916855,3.7909011841,0.2970117331,-1.35138762,-0.3572739661,2.1441335678
89,34670,34652,-0.0255865268,-0.0387650877,0.9890412688,-2.0277078152,-0.4794519842,-2.4202468395,1.8132610321,3.7906806469,0.2977761924,-1.3260669708,-0.3347957432,2.122846365
90,34680,34662,0.025862202,0.0767241791,0.9578455091,-3.1657295227,5.0233969688,-1.5857489109,1.8140456676,3.7918879986,0.2986379266,-1.4847947359,-0.5068010688,2.0741758347
91,34690,34672,-0.0543051437,-0.0375718065,0.9915969372,-1.278270483,5.190290451,-0.7919240594,1.8142632246,3.7919270992,0.3008172512,-1.3696473837,-0.2195698172,2.124966383
92,34700,34682,-0.0381007679,-0.0426687337,1.0101450682,3.1858992577,2.1840336323,-1.5886665583,1.8155556917,3.7932078838,0.301545471,-1.3455138206,-0.2254477292,2.1101996899
93,34710,34692,0.0512545258,-0.0598161034,0.9974813461,5.5961432457,-1.1801097393,-1.5357663631,1.8150051832,3.7912335396,0.3026489019,-1.5073394775,-0.4681591094,2.0400834084
94,34720,34702,0.0557392426,-0.0445935912,0.9465018511,6.9275712967,-3.2407968044,-1.0422906876,1.7986493111,3.7855651379,0.3039697707,-1.5293930769,-0.3450000882,2.0419337749
95,34730,34712,0.0105892327,-0.0101786675,0.9787046313,7.8686785698,-5.4077425003,-1.3902813196,1.7998510599,3.7872099876,0.3047762513,-1.43703866,-0.5022930503,1.9737465382
96,34740,34722,-0.012017576,-0.008458199,0.9651700258,7.3848948479,-5.8193082809,-1.0599908829,1.8003582954,3.8111364841,0.305564642,-1.3181447983,-0.3262854218,1.9809455872
97,34750,34732,0.0114651434,-0.0509303734,0.9453477263,8.2134981155,-6.1215953827,-0.9431939125,1.8002874851,3.812817812,0.3063057363,-1.1813789606,-0.2358549833,1.9701007605
98,34760,34742,-0.0645297617,-0.0333117694,1.0250086784,8.2623643875,-2.0977993011,-0.6119785905,1.7908968925,3.8370759487,0.3080301285,-1.350117445,-0.2083199769,1.9566379786
99,34770,34752,-0.0335558578,-0.0542451106,0.9876049161,8.3597297668,0.3687477112,-0.4156096578,1.790583849,3.8373682499,0.3088327348,-1.245100975,-0.0208273157,1.9678475857
100,34780,34762,0.0685841888,0.0396459624,0.9317256212,8.4123973846,0.3888429105,-0.80762887,1.7930116653,3.8382058144,0.3095400929,-1.2674198151,0.0070934696,1.9501531124
101,34790,34772,0.0294279847,0.0036716771,0.9455913901,6.2968816757,1.2789880037,-0.4166792631,1.7929925919,3.8379123211,0.3090607822,-1.371116519,0.1061418727,1.9465038776
102,34800,34782,-0.0383897983,0.0887584537,0.9765465856,4.6859436035,-0.4357782304,-0.7605363727,1.79381001,3.8387124538,0.3096002936,-1.4621173143,0.1757267565,1.9430081844
103,34810,34792,-0.0174585823,0.0638301745,0.9502003193,2.5852062702,-3.7076842785,-1.2548602819,1.7953345776,3.8390626907,0.310044229,-1.3715362549,0.2173695266,1.9348138571
104,34820,34802,0.0097811036,-0.014984169,0.9641368985,2.2881023884,-6.3433566093,-1.0796568394,1.7933202982,3.8487095833,0.3084905744,-1.4614379406,0.3073143959,1.9333449602
105,34830,34812,-2.47188181674574E-05,-0.0052804793,0.9697419405,1.8784285784,-8.4354372025,-1.1033555269,1.7932238579,3.8491506577,0.3088953495,-1.3374425173,0.2286799252,1.9045735598
106,34840,34822,0.015832955,-0.0159709677,0.9617397189,3.3621337414,-9.4499483109,-0.7609027624,1.7951146364,3.8491647243,0.3090661168,-1.1055772305,0.3082206845,1.9094849825
107,34850,34832,0.0055128522,-0.0121149635,0.9627389312,4.8320035934,-8.218629837,-0.456332624,1.7953404188,3.8503608704,0.3093859255,-1.1685093641,0.2524421215,1.8773982525
108,34860,34842,0.0330180824,0.0904883742,0.9447096586,4.9053683281,-5.717854023,-0.2723946869,1.7965331078,3.84842062,0.3077793419,-1.0821793079,0.3768283427,1.884350419
109,34870,34852,0.0639875531,0.0640889928,0.9137256145,4.8317055702,-4.9560008049,-0.6427151561,1.798866868,3.8496832848,0.307720542,-0.8877336979,0.4927186072,1.899071455
110,34880,34862,0.0654285252,-0.0693988129,0.9342133403,3.6727178097,-3.3183157444,-0.6525316238,1.7997863293,3.8494670391,0.3077109158,-0.9577337503,0.5181573629,1.881593585
111,34890,34872,0.0109328758,-0.159445852,0.989915967,1.6288677454,-1.5364193916,-0.7181195617,1.7993997335,3.8491494656,0.308175087,-1.0347707272,0.5295525789,1.8611773252
112,34900,34882,-0.0050260997,-0.1078905538,1.0000340939,-1.0878820419,-1.3681312799,-0.242090255,1.801440835,3.849755764,0.308041364,-0.8941271305,0.5881499052,1.8688321114
113,34910,34892,0.0127427001,-0.0998032242,0.9316954613,-2.3142392635,-4.5701832771,-0.4585709274,1.7965658903,3.8683626652,0.3078086078,-0.9162242413,0.6052589417,1.8640575409
114,34920,34902,0.0397531688,-0.0736671835,0.9730613828,-1.6190034151,-7.2881860733,-0.9276371002,1.7964040041,3.8683674335,0.3088566065,-0.8944557309,0.596784234,1.8587603569
115,34930,34912,0.039253559,-0.1250427514,1.0508850813,-1.2796038389,-7.1346507072,-0.9254171252,1.7964764833,3.8726732731,0.3087385595,-0.9822333455,0.5142017603,1.8271809816
116,34940,34922,0.013280496,-0.1002976671,1.062147975,-0.0430660807,-10.0148191452,-0.7874090672,1.8067564964,3.8799381256,0.3086816669,-0.8134794235,0.5243605971,1.8320190907
117,34950,34932,-0.0401135385,0.0733583868,1.0186742544,0.9827443361,-6.9192194939,-0.5912876725,1.8093857765,3.8808505535,0.3084711134,-0.63237077,0.5451793075,1.8374933004
118,34960,34942,-0.0238277391,-0.070248574,1.0726937056,2.0663816929,-8.8957843781,-0.7375605702,1.8075717688,3.8876261711,0.3128291667,-0.6883920431,0.5850932002,1.8178083897
119,34970,34952,0.0188383944,0.0076573961,1.0186623335,1.3384582996,-8.7574005127,-1.0033375025,1.8277090788,3.8987169266,0.3132208884,-0.5801246166,0.6330509782,1.8151060343
120,34980,34962,-0.0026244842,-0.0033123153,1.0318335295,-0.669097662,-7.3209013939,-0.6374724507,1.8322074413,3.9155647755,0.3134209514,-0.4003630877,0.6626213193,1.8176034689
121,34990,34972,-0.0285291914,-0.0611956641,1.0226693153,-1.196828723,-7.6658320427,-1.5804612637,1.8331770897,3.9153442383,0.3111552,-0.4678987861,0.6634991169,1.7915886641
122,35000,34982,0.0001486187,-0.0439221002,0.9462572336,-2.1909022331,-5.7740821838,-0.4847269058,1.8334436417,3.9153404236,0.3114665449,-0.3698472977,0.6476770043,1.7821848392
123,35010,34992,-0.0236834735,0.0619956516,0.9454540014,-2.0758392811,-8.1115951538,-0.6950538158,1.8359810114,3.9155297279,0.3115387559,-0.1314595193,0.6234496832,1.7959358692
124,35020,35002,-0.0512688681,0.1233227551,0.9734182358,-1.6856467724,-7.5895619392,-0.9115011692,1.8249331713,3.9090237617,0.3125446737,-0.1312175393,0.6696423888,1.7841336727
125,35030,35012,0.0050689345,0.0485065244,0.9725128412,-0.6279461384,-5.6564335823,-0.6294419765,1.8245315552,3.9091565609,0.3128792942,-0.194810763,0.5681949854,1.7533963919
126,35040,35022,-0.0025823731,0.1196605191,0.9843568802,-0.4344415069,-1.6932274103,-0.1985268593,1.8263133764,3.9086513519,0.3129767179,0.0337873437,0.5658208132,1.7670218945
127,35050,35032,0.0312015489,-0.0480419025,0.9377189875,0.9663649797,-5.5010929108,-0.2307445407,1.8288151026,3.9094414711,0.3119352162,-0.0924147293,0.5671949983,1.7429919243
128,35060,35042,0.0360550396,0.0632413328,0.9897045493,1.9108513594,-7.749171257,-0.1507186443,1.8355321884,3.9114089012,0.3121215403,0.0510019995,0.6574605703,1.7509211302
129,35070,35052,0.0225409102,0.0068219369,0.9823953509,1.1686995029,-7.2459187508,1.3580275774,1.838255167,3.9114897251,0.312004298,0.0653389767,0.6756125093,1.7425433397
130,35080,35062,-0.0607213899,0.0378616676,1.0240908861,-0.6324424148,-6.6314816475,2.3314380646,1.8385939598,3.9106957912,0.3120994568,0.1639169604,0.6064847112,1.7566794157
131,35090,35072,-0.0321875736,0.0795175061,0.94638592,-2.8261499405,-5.4848513603,2.1674821377,1.8403285742,3.9106311798,0.3112964928,0.3132062852,0.5932039618,1.7873518467
132,35100,35082,-0.0443779379,0.0540329628,0.9844861031,-4.967048645,-3.4079766273,1.3377840519,1.8413223028,3.911406517,0.3112613261,0.3416217268,0.6169629097,1.805932641
133,35110,35092,-0.0558056459,-0.0227941088,1.0852845907,-6.9366049767,1.6430952549,0.587716639,1.8416962624,3.9115383625,0.3112620711,0.3975695968,0.5218981504,1.8270673752
134,35120,35102,-0.0597673468,-0.1071004719,1.0677958727,-8.7013320923,7.8547897339,0.0969292596,1.857301116,3.9185569286,0.3128418922,0.3067249656,0.399605006,1.8292093277
135,35130,35112,-0.085174948,0.0438765436,1.0653330088,-8.8782720566,7.4159607887,-0.1864904761,1.8556032181,3.9305045605,0.312975049,0.1537275463,0.4090716541,1.8121165037
136,35140,35122,-0.0023939691,0.0173073821,0.9813037515,-5.2957296371,4.8654584885,-0.7483929396,1.8575030565,3.9311132431,0.313088268,0.0820734203,0.3403790295,1.8118646145
137,35150,35132,0.022164166,-0.0251337048,1.0485134125,-3.3910617828,2.7889225483,-1.1260560751,1.8595672846,3.9301729202,0.3096327484,0.1257454902,0.3089210391,1.8153636456
138,35160,35142,0.0461353362,-0.0965850428,0.9910709262,-1.0769500732,-1.4073984623,-0.7461205125,1.8607916832,3.929930687,0.3096231818,0.0649868548,0.3154240251,1.7986344099
139,35170,35152,0.0091334274,-0.0360406376,0.9445833564,0.4849546254,-6.7418875694,-0.2380384505,1.8610147238,3.9294900894,0.3097398877,0.0773274451,0.2784796357,1.7934167385
140,35180,35162,0.0112421373,0.0025714051,0.9225279689,0.1409930736,-9.9460954666,-0.5043113828,1.8670537472,3.9312918186,0.3096455038,0.1532748938,0.262294054,1.7928729057
141,35190,35172,0.0153635526,-0.070949696,1.004163146,-1.9082050323,-6.2804818153,0.5360409021,1.874211669,3.934492588,0.3107425869,0.1761484295,0.2374933213,1.7862175703
142,35200,35182,-0.0802045316,-0.111126475,1.0513371229,-5.1934585571,-1.641310215,1.4658355713,1.8791493177,3.9400875568,0.3107078373,0.3129526377,0.1822595596,1.7979964018
143,35210,35192,-0.0954286978,0.0521307215,1.0443114042,-5.6972208023,-0.9030860662,1.2548146248,1.8817219734,3.9367697239,0.310619086,0.3800973594,0.1672137827,1.8088854551
144,35220,35202,-0.0525294356,0.0607419088,1.0179432631,-4.7850389481,1.1740529537,1.3348623514,1.88428545,3.9418923855,0.3101223707,0.3407525718,0.212240383,1.8065776825
145,35230,35212,-0.0097396104,0.0103982184,1.1011390686,-4.5159645081,3.7325201035,1.3994293213,1.8857154846,3.9399960041,0.3101868033,0.2802914977,0.1029350236,1.8226774931
146,35240,35222,0.0288960245,-0.0786566213,1.0168391466,-4.4328370094,3.8982410431,1.5431876183,1.8889113665,3.9348537922,0.3102359474,0.2989230454,-0.038928207,1.8648775816
147,35250,35232,0.0260719471,-0.0118183503,1.0101549625,-4.4722409248,2.5727679729,1.4751479626,1.8918794394,3.9319593906,0.3112567663,0.2334343791,0.0678933561,1.8498932123
148,35260,35242,-0.0159878749,-0.0279684737,0.9872254133,-1.4564137459,-0.6388140917,1.7637212276,1.8932336569,3.9296987057,0.3115341365,0.3072122931,-0.0237108674,1.8760166168
149,35270,35252,-0.0156589057,-0.0006422382,1.0539792776,-1.8152674437,-3.3564379215,2.7392497063,1.8865301609,3.9313914776,0.3116723001,0.25848037,-0.0800612122,1.8964698315
150,35280,35262,-0.0319910794,-0.0186555013,0.9896352291,-0.7555530667,-1.9796813726,1.7977610826,1.8891242743,3.9318566322,0.3120539188,0.3226154745,-0.1134739816,1.9248058796
151,35290,35272,-0.0231463276,-0.0258487817,1.0745187998,-1.789353013,2.7655498981,1.8688765764,1.8884122372,3.9304738045,0.3129654527,0.4504784346,-0.069982484,1.9406769276
152,35300,35282,0.0258225109,-0.0338207893,1.002502203,-0.0569341406,2.2442719936,1.5777174234,1.8846647739,3.932192564,0.3133281171,0.452865839,-0.1116040275,1.9629759789
153,35310,35292,0.0114324344,-0.037442144,0.9692222476,-1.5557693243,8.1427774429,2.448277235,1.8865419626,3.9270765781,0.3137668371,0.4953220487,-0.1382939816,1.9835571051
154,35320,35302,-0.0170499086,0.0266093407,0.9708411098,-3.5114777088,7.509270668,2.5718894005,1.8918349743,3.9297523499,0.3124079704,0.3209382594,-0.1035654023,1.9970456362
155,35330,35312,0.0639848262,0.0465496145,0.9518921375,-6.4173116684,6.5609869957,3.497081995,1.8931683302,3.9280614853,0.3126532137,0.214676708,-0.1852357686,2.0267574787
156,35340,35322,0.0265218224,0.0013211217,0.9580372572,-7.6148056984,6.7641835213,1.9928164482,1.8959895372,3.926738739,0.312759161,0.1939810067,-0.2240304798,2.054612875
157,35350,35332,-0.0246291943,0.0014104181,1.0560940504,-6.1888737679,3.5205688477,1.2876942158,1.8989065886,3.925617218,0.3126206994,0.1880960166,-0.3595905304,2.0869739056
158,35360,35342,-0.0013423635,-0.0348380469,0.9913063645,-3.5645022392,2.4050471783,0.7808608413,1.8994249105,3.9253556728,0.3128071725,0.0621165372,-0.3888551593,2.0976192951
159,35370,35352,0.0138251288,-0.0037497669,0.9905649424,1.0596903563,-0.3052484095,0.4017769098,1.899808526,3.9258086681,0.313007921,-0.0360515676,-0.4483595788,2.1085326672
160,35380,35362,0.0349613689,0.0095438715,0.9340193272,4.1901655197,-1.9241853952,-0.197853744,1.9014412165,3.9254572392,0.3130695522,0.0604877323,-0.4378584027,2.1179590225
161,35390,35372,0.0455044918,-0.0032282313,0.9710347652,5.5262699127,-2.2005848885,-0.9193883538,1.9011825323,3.9302203655,0.3130464256,0.1037911102,-0.374868989,2.1138188839
162,35400,35382,0.0113858208,-0.0032033164,0.9813863039,4.6447939873,-1.6314632893,-1.8099492788,1.8986151218,3.9362473488,0.3131768107,0.1519501507,-0.2986862361,2.1039609909
163,35410,35392,-0.0044373726,-0.0089323279,1.0144381523,3.0029420853,-0.8015866876,-2.4207839966,1.8992272615,3.9359025955,0.3132320344,0.179911688,-0.2375614941,2.0881888866
164,35420,35402,0.0073801861,-0.0310753286,0.9850884676,-1.1035065651,2.9186503887,-2.9362499714,1.900164485,3.9346516132,0.3156885207,0.1882371008,-0.2874259055,2.0717816353
165,35430,35412,-0.0216095168,-0.0114588561,1.0141119957,-4.3550825119,3.3931348324,-3.2194552422,1.9009466171,3.9344308376,0.3158495426,0.2441236228,-0.3108747303,2.0438175201
166,35440,35422,-0.0832317322,-0.0688262582,1.0926055908,-5.6600599289,4.0122952461,-3.1362173557,1.9017291069,3.9351568222,0.3160272241,0.1155357286,-0.386222899,2.0192501545
167,35450,35432,-0.016555842,-0.0427921116,1.0283265114,-6.9842948914,4.0712819099,-2.4842905998,1.901881814,3.935300827,0.3142023683,0.0557419956,-0.406525135,1.9847388268
168,35460,35442,0.0200892333,0.0030735906,0.983697176,-5.8166675568,4.8080592155,-2.569237709,1.9057713747,3.9371945858,0.3142770231,0.0640294477,-0.4403903782,1.9528007507
169,35470,35452,0.017729139,0.0135722375,0.9925996065,-2.2871394157,2.0600104332,-2.1065409184,1.9070115089,3.9365265369,0.3143879771,0.0050526522,-0.5350931287,1.9304181337
170,35480,35462,-0.0342577323,0.0268142298,1.0304659605,3.2874283791,0.7878889441,-2.0415673256,1.908415556,3.9340591431,0.3144198954,-0.0256825928,-0.5583505034,1.9073060751
171,35490,35472,0.0068138358,-0.0069516925,1.0446035862,8.4841375351,-0.4242761731,-2.2839510441,1.9093555212,3.9344024658,0.3145548403,-0.031092396,-0.4949354827,1.8818011284
172,35500,35482,0.0096551692,-0.0588495322,0.9563865066,12.0388221741,-1.5507619381,-2.7438161373,1.9106721878,3.9330554008,0.3147250712,-0.0915866941,-0.349768728,1.857401967
173,35510,35492,-0.0058081811,0.0248597041,1.0112597942,10.8431940079,-1.8554147482,-2.8235976696,1.9114097357,3.9326627254,0.3149046004,0.0293102972,-0.240437448,1.8255062103
174,35520,35502,-0.002841007,-0.0313708931,0.994329989,7.6058802605,-0.2377054691,-2.64635396,1.9112641811,3.9355390072,0.3121268749,-0.0130982148,-0.0735344812,1.8000193834
175,35530,35512,0.013903725,-0.025066033,0.9527976513,4.81189394,3.5819191933,-3.2581222057,1.9110292196,3.9354586601,0.3121982813,0.0721363351,-0.0440875813,1.7724454403
176,35540,35522,-0.0067543508,-0.0158254113,1.0110108852,0.8344852924,6.4027748108,-2.6233592033,1.9151237011,3.9365317822,0.3120878339,-0.0567435063,0.0135582611,1.756680131
177,35550,35532,-0.0170170814,0.0244778432,0.9448667169,0.6217775345,9.7907447815,-3.4986512661,1.9151898623,3.9369375706,0.3120601475,-0.1661420166,0.0248548705,1.7324120998
178,35560,35542,-0.0141563676,-0.053375084,1.0467293262,3.5997638702,10.0910100937,-4.7620902061,1.9145927429,3.9424858093,0.3118981123,-0.2443552017,-0.0368011631,1.7002164125
179,35570,35552,0.0017293647,-0.046656996,1.0569555759,7.0672726631,3.1143722534,-5.2870721817,1.9160625935,3.9425039291,0.3117932975,-0.3891279697,0.0299906246,1.6537317038
180,35580,35562,0.0209762435,-0.0470021889,0.9826715589,7.2364311218,0.9100046754,-6.1121520996,1.9168326855,3.9431812763,0.313228935,-0.3729822934,0.0615061559,1.6008675098
181,35590,35572,-0.0175592527,0.0027008422,1.0235356092,6.1721663475,-4.480535984,-6.7831516266,1.918184042,3.9428224564,0.3132568896,-0.4431095719,0.2549962997,1.5390859842
182,35600,35582,-0.0087879766,-0.0310935881,0.999655664,4.0628991127,-6.5433158875,-7.2050890923,1.9151729345,3.9445738792,0.3134358525,-0.3729390204,0.2652329803,1.4732253551
183,35610,35592,0.0472778641,-0.0970539078,1.0374529362,-0.2077557296,-2.9359595776,-6.2781019211,1.9170502424,3.9413342476,0.3134632409,-0.2766939402,0.3108593822,1.4022403955
184,35620,35602,-0.0195654314,-0.0167491771,1.0464633703,-3.5403935909,-2.9274611473,-5.9865784645,1.9183584452,3.939286232,0.3145489693,-0.2102667391,0.2207905352,1.3381066322
185,35630,35612,-0.000057693,0.1243170723,0.9925596714,-6.3085594177,-2.8670470715,-5.5861477852,1.9191601276,3.9386024475,0.314776361,-0.3141389191,0.2356984019,1.2771043777
186,35640,35622,-0.0004826493,-0.0007308365,0.9813148379,-5.9464044571,-4.2360920906,-4.7288980484,1.9201574326,3.9392256737,0.3150421381,-0.3345805705,0.1311562359,1.2197284698
187,35650,35632,0.0177606996,-0.0030206535,0.9993757606,-4.4470901489,-3.8151111603,-3.2892751694,1.9225876331,3.9368953705,0.3190113902,-0.3362169862,0.0381606258,1.1686635017
188,35660,35642,0.0186770651,0.1117033064,0.9189316034,-0.2382354289,-5.4562530518,-2.7076056004,1.9240851402,3.9373867512,0.3193536997,-0.1659412384,0.0612292625,1.1327084303
189,35670,35652,0.0377171487,0.1338925809,0.9715376496,4.9259557724,-4.7302112579,-2.4349777699,1.9261082411,3.9354743958,0.3196601272,-0.1403355598,0.0697820708,1.1012116671
190,35680,35662,0.0625538975,-0.0145667456,1.0174680948,6.6322450638,-2.1248278618,-1.7533638477,1.9225723743,3.9327375889,0.3202230632,-0.124526374,0.1465697736,1.0752792358
191,35690,35672,0.0562288351,-0.0481117554,0.9636690617,5.2262067795,1.576403141,-1.5217933655,1.9211796522,3.9309020042,0.3205236495,-0.140810445,0.1703161299,1.0552483797
192,35700,35682,-0.0222914554,-0.0037729095,1.0073205233,2.2250201702,-0.3645382822,-1.1056033373,1.9192346334,3.9283974171,0.3207948208,-0.0318683162,0.2499406934,1.0423998833
193,35710,35692,0.0612558387,0.0165595543,0.9048442245,-1.2076973915,-1.3921331167,-0.8649081588,1.9188015461,3.9290983677,0.3213746846,-0.0756214261,0.2839923203,1.0286455154
194,35720,35702,-0.0064624343,0.0326617733,0.9936647415,-6.3309054375,-2.826682806,-0.7234557271,1.9167010784,3.925216198,0.3217155039,-0.0273221023,0.2509583533,1.020463109
195,35730,35712,-0.002200335,-0.0199249443,0.9901503921,-9.0239868164,-0.7548875213,-0.9159765244,1.9181592464,3.925157547,0.3218893707,0.1096423566,0.1458445042,1.0165792704
196,35740,35722,-0.0109569039,-0.0314864554,0.9788046479,-8.4025068283,-1.3501383066,-0.4128044546,1.916425705,3.9239327908,0.3221279383,-0.0717174336,0.0778704882,1.0046845675
197,35750,35732,0.0176907778,0.0639370829,0.9083803892,-6.3723335266,3.9589560032,-0.5246275067,1.9161498547,3.9244534969,0.3184249997,-0.0222701896,-0.0623463914,0.9900372624
198,35760,35742,-0.038322147,-0.0018857257,1.008839488,-1.9008740187,-0.2961758971,-0.1622110456,1.9191064835,3.9243228436,0.3181985915,-0.0964658633,-0.0024746361,0.9812473059
199,35770,35752,0.0212148838,-0.0210654363,0.914981246,0.4105405211,1.6550326347,0.3527810574,1.9196152687,3.9205641747,0.3179715574,-0.0828608572,-0.0438025407,0.9799839854
200,35780,35762,-0.0283999871,-0.0549113452,1.0034360886,1.0269602537,1.283826828,0.7105385065,1.9216909409,3.919529438,0.3153195977,-0.0775149092,-0.0478265695,0.9835864305
201,35790,35772,0.0075365501,-0.062891528,0.9836032391,-0.9597632885,1.7046086788,1.7444931269,1.9182684422,3.9205024242,0.3149580657,-0.1409762949,-0.0472022146,0.9894081354
202,35800,35782,-0.0141710555,-0.0029742524,0.9330360889,-2.2418920994,-1.2633024454,1.8587068319,1.9191323519,3.9204788208,0.3145854175,-0.1126613766,-0.0673811361,1.0036360025
203,35810,35792,0.0287810117,-0.0195473526,0.9367049336,-2.6824748516,-2.8309051991,2.0218863487,1.9216195345,3.9204640388,0.3142344654,0.0134810479,-0.1068453565,1.0225477219
204,35820,35802,0.0053088483,-0.0147607261,1.0051593781,-4.3835039139,-1.509267807,2.8123447895,1.9193123579,3.9212486744,0.3137779236,-0.1556715965,-0.0855494216,1.0405062437
205,35830,35812,0.0141663812,-0.1803838611,1.0014921427,-2.8830156326,-0.4970241189,3.0772321224,1.9191598892,3.921435833,0.3133987188,-0.0132027287,-0.0854312107,1.0667448044
206,35840,35822,0.0020840748,0.0286160279,1.0375144482,-2.445276022,-2.3499090672,2.9109978676,1.9170817137,3.9220328331,0.3127472103,-0.0460828356,-0.1484094411,1.0961811543
207,35850,35832,-0.016398048,0.1072660908,1.0386720896,-0.5455781817,-4.9034891129,2.7020659447,1.9170130491,3.9215056896,0.3128638268,0.0073172944,-0.1972577572,1.1254309416
208,35860,35842,-0.0177496988,0.02047351,1.0691561699,0.9096267223,-3.4516427517,2.8135259151,1.9184691906,3.921734333,0.3124362826,0.0814379677,-0.1464173645,1.1518486738
209,35870,35852,-0.0144550353,0.0220556892,1.0796662569,1.0884206295,-0.6487578154,3.3859717846,1.9191251993,3.9219226837,0.3121475875,0.087701723,-0.1459467411,1.180314064
210,35880,35862,-0.0183922127,0.0636412576,0.9856402278,1.6371109486,-1.7568790913,3.3911950588,1.9195309877,3.9210190773,0.3100860417,0.0020739334,-0.1289089471,1.2128565311
211,35890,35872,0.0541090295,-0.010318405,0.94659549,1.3578879833,-2.3896281719,2.8312122822,1.9207949638,3.9209470749,0.3096928596,0.0619228519,-0.0410135314,1.2447704077
212,35900,35882,0.0396921001,-0.1428036839,1.0502028465,-2.8514392376,0.3130278289,3.0338587761,1.9229605198,3.9208431244,0.3091931045,0.1163256764,-0.0584162623,1.2760967016
213,35910,35892,0.0044135856,-0.1704688072,1.0222330093,-6.2493138313,-2.6758804321,2.641793251,1.9236439466,3.919962883,0.3087718189,0.158066839,-0.1248926297,1.3060237169
214,35920,35902,-0.0060535213,-0.029353518,1.0226883888,-6.9632024765,-4.4357213974,1.4805848598,1.9242990017,3.9200885296,0.3084631264,0.2201681435,-0.2387409508,1.3347730637
215,35930,35912,-0.0085912794,-0.0214226171,1.0700484514,-7.9713869095,-0.2539307773,1.5251389742,1.924931407,3.9204602242,0.3081869781,0.3730455637,-0.2934013009,1.3352537155
216,35940,35922,-0.0385934375,0.0817245096,1.0584868193,-5.7391066551,1.302505374,1.9190113544,1.9252773523,3.917952776,0.3079254627,0.1820202619,-0.3497168422,1.3533818722
217,35950,35932,-0.0409893729,0.15018332,0.994284749,-2.3818602562,-0.0900134668,2.2448997498,1.9249264002,3.915487051,0.3100028634,0.1099520251,-0.3702203929,1.3717702627
218,35960,35942,0.0068590278,0.0130345877,1.0216772556,1.3138798475,3.7755162716,2.0186617374,1.928034544,3.9152650833,0.3098605275,0.1700401455,-0.4149343371,1.3909550905
219,35970,35952,0.0103086624,-0.143909052,1.0509004593,1.570358634,4.4896187782,2.4696805477,1.9298479557,3.9146511555,0.309746176,0.0610375963,-0.4071106315,1.4117527008
220,35980,35962,-0.0262384955,-0.0178924836,1.1157499552,-0.5709276795,0.3255055547,1.8115152121,1.9301759005,3.9146473408,0.3131082058,0.1360676587,-0.314615041,1.4278846979
221,35990,35972,0.0379893668,0.0142588196,0.9945474863,-1.5829548836,-6.8048009872,0.9394086003,1.9296547174,3.915715456,0.3132770061,0.1216451824,-0.3346673548,1.4428195953
222,36000,35982,0.0846834406,-0.0365192853,0.9767614603,-5.3804330826,-8.8153991699,1.5262553692,1.9300847054,3.9130394459,0.3136974275,0.2646995783,-0.3905166388,1.4558833838
223,36010,35992,0.0023128672,0.0020632562,1.0186234713,-7.3771691322,-11.8833236694,1.9522130489,1.9300136566,3.9133989811,0.3137225807,0.3644601405,-0.4933593273,1.4736323357
224,36020,36002,-0.0150691867,0.0544424653,0.9770975709,-6.0030088425,-12.668964386,2.1420087814,1.9294897318,3.9141755104,0.3140389919,0.4845238924,-0.6150099039,1.4943856001
225,36030,36012,-0.0179059841,0.0177014824,0.9854004383,-3.4352931976,-9.0432701111,1.6003570557,1.9302784204,3.9147064686,0.3143018782,0.5134382248,-0.7169094682,1.5220081806
226,36040,36022,-0.0657969192,0.0288164224,1.1249477863,-0.087229684,-2.9393196106,1.2672137022,1.9310282469,3.9152419567,0.3133146465,0.4940099418,-0.7714988589,1.5473387241
227,36050,36032,-0.0430422314,-0.0099674221,1.0375071764,3.9674823284,1.8910987377,2.3899641037,1.9327887297,3.9157319069,0.3135335147,0.4010945857,-0.7598661184,1.5695863962
228,36060,36042,-0.0684413239,0.048612725,1.0006318092,7.9393434525,4.2513442039,4.1314034462,1.9348338842,3.9159851074,0.3137730658,0.4647864997,-0.6755148768,1.5812282562
229,36070,36052,-0.0445932895,0.066966936,1.0008119345,10.113576889,6.4238986969,4.214196682,1.9372518063,3.9159312248,0.3139787018,0.4814296067,-0.5324907303,1.6060439348
230,36080,36062,0.0077944673,-0.029788943,0.9830347896,8.4011516571,5.3475646973,4.9333348274,1.937595129,3.9154555798,0.3168475926,0.464887619,-0.4484324157,1.6445469856
231,36090,36072,-0.0198119301,-0.0031406542,1.0397117138,6.197769165,8.4367933273,3.8455765247,1.9380047321,3.9147586823,0.3173663914,0.4299217463,-0.3922404647,1.6907205582
232,36100,36082,0.02018255,-0.0890021846,0.9890243411,3.9509994984,11.7160634995,3.4324531555,1.9384719133,3.9150149822,0.3178852499,0.3660080433,-0.3682661951,1.7333610058
233,36110,36092,0.0091978842,0.0082230335,0.9802466035,2.8225381374,11.0101575851,2.9369015694,1.9390538931,3.9153752327,0.3177284002,0.280505389,-0.3692469895,1.7705050707
234,36120,36102,0.0750243515,0.0584211089,0.9114299417,3.9866192341,6.8353972435,2.4065423012,1.9399578571,3.9149398804,0.3181596994,0.1326560825,-0.30066818,1.7959680557
235,36130,36112,0.1199626848,-0.0413715579,0.8850200176,6.5013494492,4.049369812,1.2623711824,1.9406125546,3.9155335426,0.3185093105,0.0308517255,-0.2217788845,1.8187574148
236,36140,36122,0.0372594483,-0.0460048169,0.9389541745,7.5379695892,3.5014846325,1.2617890835,1.9423851967,3.9135169983,0.3161721826,-0.1026852727,-0.2646990716,1.8459777832
237,36150,36132,-0.022143336,-0.0573202781,0.9723090529,7.4144887924,0.4520066381,0.837208271,1.9438055754,3.9123814106,0.3161903322,-0.0524496771,-0.2031632215,1.853187561
238,36160,36142,0.0353989825,-0.0907920524,0.8914777637,7.3587918282,-2.8225634098,0.3339792192,1.9456347227,3.9135320187,0.3160839379,-0.1282343864,-0.1410979778,1.8648662567
239,36170,36152,0.040247187,-0.1640666872,0.9636704326,5.5982580185,-0.0869117603,-0.2034282833,1.9457677603,3.913599968,0.3161027431,-0.0215678979,-0.0091788704,1.8542919159
240,36180,36162,0.0231134612,-0.2572606504,0.9802687168,4.0123448372,0.6332138777,0.2450679839,1.9473366737,3.9139361382,0.3140286207,-0.0162871554,0.0175400432,1.8544021845
241,36190,36172,-0.0236097705,-0.0589196533,1.0275655985,1.3385549784,1.9574369192,0.0526348613,1.9473432302,3.9120745659,0.3139130175,-0.1776769608,0.0184978433,1.8610525131
242,36200,36182,0.030708272,-0.0449220277,0.9441841245,1.1824434996,0.9173368812,-0.914898634,1.9481830597,3.9125666618,0.3136958182,-0.1216299459,0.0633936003,1.8564355373
243,36210,36192,0.0273016859,-0.1079630926,1.0132864714,2.382491827,2.2497284412,-0.793251574,1.9469884634,3.9137039185,0.3105918169,-0.0685807765,0.0245324895,1.8474441767
244,36220,36202,0.054176122,-0.1324491352,1.0364516973,3.3105437756,-0.3227867484,0.27439937,1.9472072124,3.9136698246,0.3102600873,-0.007771044,0.0850019827,1.8372251987
245,36230,36212,0.0772004724,-0.0468085818,0.9070187211,4.1381530762,1.6464657784,1.2039563656,1.9473596811,3.9143481255,0.3099273145,-0.1566531062,0.1629937589,1.8387480974
246,36240,36222,-0.0048177801,0.0202337503,0.9944976568,4.4363913536,0.2039063424,1.7588403225,1.947525382,3.9135754108,0.3113090992,-0.0679533407,0.2477780432,1.8487091064
247,36250,36232,0.0470639691,-0.0830585063,1.0021482706,2.3506147861,3.3840703964,2.0138177872,1.9500397444,3.9124186039,0.3108653426,-0.1288161874,0.250818491,1.8663361073
248,36260,36242,0.0187541656,-0.0396809243,1.0051945448,-0.5736262798,-1.557736516,2.3141720295,1.949999094,3.9121146202,0.3105954528,-0.1189714968,0.3030363321,1.8859436512
249,36270,36252,0.0110468324,0.0072744144,0.9969828725,-1.5243685246,-5.2193779945,2.0770812035,1.9514870644,3.9126784801,0.3101809025,-0.0859211013,0.3069209754,1.9089758396
250,36280,36262,-0.0271460209,-0.0613379665,1.0616559982,-4.3433055878,-2.7672798634,2.8120718002,1.9521912336,3.9126131535,0.310141325,-0.1009943187,0.2028448135,1.929295063
251,36290,36272,-0.0706542805,-0.0007233743,1.09416008,-4.3513774872,-4.2309703827,2.7681868076,1.9528068304,3.9127411842,0.3098781109,0.0453990102,0.0036659355,1.9570245743
252,36300,36282,-0.0332818292,0.0920483172,1.0090475082,-1.6559042931,-5.9671597481,2.7183551788,1.9541426897,3.9138000011,0.309630692,0.1925931275,-0.0284192041,1.9807652235
253,36310,36292,-0.0159541462,0.0511829704,1.0523320436,0.7039088011,-2.0694637299,3.3681807518,1.9539567232,3.9149646759,0.3103604317,0.0382698737,0.0482707359,2.0032436848
254,36320,36302,-0.0150450561,0.017077487,0.9993243814,1.4779669046,-0.2918206453,3.1808998585,1.9539567232,3.9135129452,0.3103285134,0.0940693095,0.080996871,2.033634901
255,36330,36312,-0.010675515,0.0265490357,0.9849156737,2.4461007118,-3.8403577805,3.0739817619,1.9568115473,3.9129223824,0.310243398,0.1111185178,0.1289986968,2.0671534538
256,36340,36322,-0.0006986645,-0.0124180783,1.0007870197,3.4455866814,-0.9281718731,2.4059002399,1.9549933672,3.9130222797,0.3086884916,0.0596626662,0.1869489849,2.0895047188
257,36350,36332,-0.0104876459,-0.0759811699,1.082380414,1.4647163153,2.793419838,2.6941843033,1.9557839632,3.9129145145,0.3085402846,0.1570937932,0.2457913607,2.1102945805
258,36360,36342,0.0295926072,-0.0393452793,0.9641063809,1.4424016476,-1.2867757082,2.5846853256,1.9575686455,3.9116091728,0.3083724678,0.006199473,0.1358845234,2.1235802174
259,36370,36352,0.0616684817,-0.0168162938,0.941932261,0.6192120314,-2.6989717484,2.4335188866,1.9581581354,3.9085254669,0.30751279,0.0511490479,0.1004242077,2.1514239311
260,36380,36362,0.0351945534,-0.1136758104,1.02940166,-0.2116079479,-2.6676132679,2.5573649406,1.9603676796,3.9099910259,0.3072319627,0.1863576472,0.1316425204,2.1811256409
261,36390,36372,0.0183583964,-0.1169066504,0.9905563593,1.3169554472,-1.1936312914,2.568672657,1.96073699,3.9112930298,0.307049334,0.0781021044,0.1594952792,2.2017371655
262,36400,36382,-0.0053929924,-0.0101576746,1.0102456808,3.8995764256,2.3091714382,2.3492436409,1.9605184793,3.9112892151,0.3069718778,0.1130254865,0.1323372126,2.2281360626
263,36410,36392,0.0186804216,-0.042206984,1.0404622555,3.8951191902,0.3965035379,2.1202926636,1.9627729654,3.9110181332,0.3078072369,0.1901862025,0.1385963559,2.256598711
264,36420,36402,0.01367597,0.0195786785,0.9821623564,4.8048372269,0.7032444477,1.7497444153,1.9635027647,3.9116163254,0.307712853,0.1124056205,0.2359738201,2.2757287025
265,36430,36412,0.0116135757,0.0390299372,0.9805255532,6.8128881454,1.2841767073,1.7137942314,1.9635004997,3.9120969772,0.3076824546,0.1173471287,0.1914855093,2.2947478294
266,36440,36422,0.0014905976,-0.0013046656,1.0032683611,5.5774931908,2.1206402779,1.7009425163,1.9638361931,3.9119215012,0.3086856902,0.1095140725,0.3256495595,2.3106591702
267,36450,36432,-0.0174464248,-0.0094602574,1.0092923641,2.7354338169,-1.351350069,1.2902032137,1.964621067,3.9130647182,0.3086332977,0.1150144711,0.4346266985,2.3282001019
268,36460,36442,-0.0207520276,0.0970543995,0.9855527282,-1.3169465065,-7.1959729195,0.2944838703,1.9655015469,3.9126684666,0.3086128235,0.1036829799,0.4947463274,2.3398139477
269,36470,36452,-0.0147923408,0.0835691616,0.9890073538,-6.1987056732,-9.2841472626,-0.5991567373,1.9662333727,3.9124748707,0.3080353737,0.2386325449,0.4781524837,2.3484053612
270,36480,36462,-0.0013647119,-0.0091924937,1.0184875727,-11.2293128967,-6.0762763023,-2.4764552116,1.9673331976,3.9124193192,0.3079232275,0.313026458,0.3733986914,2.344250679
271,36490,36472,-0.0170100927,-0.0533920601,1.0668215752,-12.8150377274,-1.2129660845,-3.8439962864,1.9676463604,3.911973238,0.3079021871,0.3422228992,0.2778430581,2.3204953671
272,36500,36482,-0.0018339417,-0.0503902696,1.053042531,-11.6232099533,3.1973121166,-4.8505468369,1.9685719013,3.9126741886,0.3078744113,0.4447042942,0.1639759243,2.2895312309
273,36510,36492,0.0159110352,-0.0073708352,1.0048443079,-10.7367486954,6.699473381,-5.9306201935,1.9699430466,3.9133431911,0.310364604,0.3905959129,0.0599264503,2.2404184341
274,36520,36502,-0.0188964289,-0.0366306789,1.0144598484,-8.7433357239,9.5492677689,-7.1640052795,1.970061779,3.9134027958,0.3105802238,0.2784453034,-0.1036186367,2.1826450825
275,36530,36512,-0.0068118363,-0.0215386301,1.0130181313,-4.0099110603,7.2059373856,-8.5350732803,1.9715541601,3.9131970406,0.3107560277,0.2019515634,-0.0642447323,2.1113016605
276,36540,36522,-0.0217556432,0.0096858349,1.0201631784,0.1938120425,10.3616809845,-9.0362358093,1.9729988575,3.9135336876,0.3137329817,0.1197883338,-0.1199238449,2.0294721127
277,36550,36532,-0.0040832716,-0.0754191205,1.0135122538,1.5613247156,12.259645462,-8.8048601151,1.9737812281,3.9124569893,0.3141623735,0.1018891111,-0.1125388592,1.957428813
278,36560,36542,-0.0027329766,-0.0376205519,0.9523637295,3.305385828,8.9191799164,-8.4052324295,1.9745090008,3.9120137691,0.3145427108,-0.138971284,-0.0676004067,1.8646928072
279,36570,36552,0.0044178437,0.0297190491,0.9078707695,5.6282582283,-2.3500592709,-7.4892411232,1.9745007753,3.9140455723,0.3164177835,-0.0765701607,-0.0761673972,1.7856514454
280,36580,36562,0.0610190146,-0.034357693,0.9029040933,7.1364703178,-10.1965274811,-7.2949461937,1.9765185118,3.9138708115,0.3166828752,0.0491724946,0.0271338373,1.7109521627
281,36590,36572,-0.0068161213,-0.0188714657,0.975861907,5.5117125511,-15.2906045914,-8.1889324188,1.9758486748,3.9142868519,0.3171028197,0.0632946715,-0.0091332588,1.6378452778
282,36600,36582,-0.0012141959,-0.0152160116,0.9725317359,2.2135236263,-15.5224809647,-7.2798395157,1.9753580093,3.9138250351,0.3174552619,0.3056325316,0.0848617926,1.5605639219
283,36610,36592,-0.0131213889,-0.0232106056,0.9917894602,-0.2092344761,-13.1790409088,-6.5808391571,1.9766613245,3.9149448872,0.3167900145,0.5413179398,0.1244691983,1.4870706797
284,36620,36602,-0.0024353494,0.0084621934,0.9804592133,-2.0357789993,-7.6152319908,-6.064517498,1.9763644934,3.9147343636,0.3169980943,0.5005246401,0.1270846277,1.4161150455
285,36630,36612,0.003956574,-0.0401562341,0.9633511901,-1.8427187204,0.5021080971,-5.6972913742,1.9761474133,3.9147157669,0.3171583712,0.6094121337,0.1079102308,1.3747115135
286,36640,36622,-0.0255943537,0.0003049084,1.0186340809,1.8772220612,6.3591852188,-5.9848065376,1.9784021378,3.9141051769,0.3175938725,0.593036294,0.0975963175,1.3163980246
287,36650,36632,-0.0096504772,0.0022752779,0.9750089049,7.7622671127,10.3544120789,-6.1702418327,1.9796030521,3.9171905518,0.3177020252,0.5530118346,0.149760887,1.2562942505
288,36660,36642,-0.0125441402,-0.0364391357,0.9681518078,11.966468811,12.2091150284,-5.9336090088,1.9805810452,3.9172332287,0.3178110421,0.4286628664,0.2915005684,1.1905891895
289,36670,36652,0.0089479201,0.0173026882,0.9665074348,8.961350441,9.4169540405,-6.321536541,1.9849557877,3.9176299572,0.316613555,0.367193073,0.3983371854,1.1343259811
290,36680,36662,-0.0114522586,-0.0057197576,0.959878087,1.7294026613,3.6884655952,-6.681989193,1.9858676195,3.9168810844,0.3165932596,0.2782390416,0.3787143826,1.0805146694
291,36690,36672,-0.0130055603,-0.0005509835,0.9882577658,-5.16837883,-0.5435143709,-7.5318593979,1.9858554602,3.91690135,0.3166023791,0.2749872804,0.405674845,1.017567277
292,36700,36682,0.0070721493,-0.0553050265,0.9475201964,-10.2030248642,-1.1203967333,-8.6259698868,1.9862598181,3.9181175232,0.3167402446,0.3310157955,0.3199393749,0.9491896033
293,36710,36692,-0.0366535261,0.0172068607,1.0271883011,-11.8076162338,-0.8661763072,-9.8640365601,1.9857933521,3.9181358814,0.316696316,0.3142209053,0.1612391472,0.8677679896
294,36720,36702,-0.0051733553,-0.0365615189,0.9318264723,-12.0952177048,1.2237141132,-10.642496109,1.984336257,3.9183626175,0.3166319132,0.208044529,0.1283436567,0.7553121448
295,36730,36712,-0.0340053812,-0.0014373034,0.9916915894,-7.5246639252,6.1405363083,-10.2086696625,1.9850373268,3.9191999435,0.3165230453,0.2954212129,-0.0463852659,0.6589900851
296,36740,36722,-0.0107324952,0.0221204516,0.9885687828,-3.2543625832,10.5184059143,-9.4474039078,1.9860600233,3.9174067974,0.3183093071,0.2307536304,-0.151194185,0.5555337071
297,36750,36732,0.0113128098,-0.0011928391,0.9749604464,3.9517633915,16.0951461792,-8.8561725616,1.98559165,3.9180877209,0.3183185458,0.0901760906,-0.1015305221,0.4527747035
298,36760,36742,-0.0116866427,-0.035188701,0.986119926,13.9708042145,18.8432922363,-8.7934217453,1.9861818552,3.9184389114,0.3182666004,0.0211487189,-0.0111327646,0.361605823
299,36770,36752,-0.0309994947,0.0006144206,1.0353972912,18.5501251221,19.409538269,-8.1612958908,1.9871703386,3.9176146984,0.320187211,-0.2477428764,0.0747916847,0.2729713321
300,36780,36762,-0.0063480833,0.0064532305,1.0087672472,14.7978448868,14.732219696,-8.5473909378,1.9868755341,3.9169039726,0.3203254342,-0.3547752202,0.2885610461,0.1914342344
301,36790,36772,-0.022004785,-0.0237870682,1.0080337524,6.3826065063,9.6010770798,-8.7323513031,1.9899632931,3.9175579548,0.320358634,-0.4912159145,0.3554930687,0.1083894968
302,36800,36782,-0.0779544115,-0.0057187499,1.0645225048,-4.8871965408,8.8906335831,-8.8551092148,1.9895956516,3.9172093868,0.3200678527,-0.4888443351,0.3584865332,0.0258779973
303,36810,36792,-0.0851368234,0.0151088526,1.0648772717,-10.5693244934,1.9528427124,-8.9050731659,1.9898828268,3.9176075459,0.3202367723,-0.5928189754,0.2895396948,-0.0630431697
304,36820,36802,-0.0249217693,0.0187399294,0.9927039146,-13.3323431015,1.8945832253,-8.6131410599,1.9890028238,3.9185295105,0.3205061257,-0.5576564074,0.2035892159,-0.1479225904
305,36830,36812,-0.023008706,0.0429066047,0.9799711108,-11.851650238,2.5745608807,-8.4620084763,1.9894621372,3.9191420078,0.3206649721,-0.5786215067,0.1554093361,-0.2325531989
306,36840,36822,0.0482069179,0.0669363961,0.9677858949,-8.3913526535,5.5091362,-8.3621587753,1.9889190197,3.9192452431,0.3217003345,-0.6787600517,-0.0218555573,-0.3144896328
307,36850,36832,0.033205498,-0.0013746093,0.9466891885,-1.2656590939,5.3136119843,-8.3338422775,1.989137888,3.9185340405,0.3219035566,-0.7220859528,-0.0519653894,-0.394207716
308,36860,36842,0.0400115438,-0.0320216045,0.9522166252,5.0664777756,7.8592925072,-8.1103630066,1.9884413481,3.9197506905,0.3219878078,-0.7794926167,-0.0546550937,-0.4820268154
309,36870,36852,0.0184575636,-0.0237729773,0.964312613,6.9643568993,7.6941890717,-8.4749069214,1.9887872934,3.9192221165,0.3217434883,-0.8555639386,0.022213418,-0.5671541095
310,36880,36862,-0.0200730283,-0.0107436804,0.9703305364,5.6040825844,7.4738702774,-7.5173192024,1.9893797636,3.9180197716,0.3217711747,-0.868252933,0.0539078638,-0.6600347757
311,36890,36872,-0.0271329377,-0.0238824207,0.9658038616,-0.382142067,6.9771952629,-7.2249035835,1.9901714325,3.9159710407,0.3217508793,-0.9591959715,0.0533062741,-0.7441227436
312,36900,36882,0.006183221,-0.0773185194,0.9417276978,-4.8624815941,6.2641916275,-6.8730273247,1.9898818731,3.9162931442,0.3183815777,-1.039831996,0.0478398427,-0.8195689321
313,36910,36892,0.0083842929,-0.0183354076,0.9690926671,-5.3860144615,6.1877331734,-6.3560042381,1.9907596111,3.9170646667,0.318094641,-1.1010074615,-0.0167058818,-0.8911919594
314,36920,36902,0.0168201644,-0.0079667997,0.9314098358,-3.2008626461,6.0154175758,-6.1433801651,1.9913551807,3.9173326492,0.3177649677,-1.1453578472,-0.0816329569,-0.9555528164
315,36930,36912,0.0586800054,0.0344462693,0.8742365241,0.7012280226,3.4356896877,-6.0238251686,1.9917157888,3.9177100658,0.3173707426,-1.1814739704,-0.109770149,-1.0138344765
316,36940,36922,0.0434856713,0.1342098117,0.9015216827,2.933049202,7.4476032257,-6.938688755,1.9919947386,3.9179611206,0.317101866,-1.20873487,-0.0790795758,-1.0679678917
317,36950,36932,-0.0066022505,0.0632328391,0.9582196474,4.6874146461,11.0040740967,-7.5878605843,1.9922481775,3.9180295467,0.3165539503,-1.2759296894,-0.0108990753,-1.1285923719
318,36960,36942,0.0396433435,-0.0398244783,0.9579196572,5.3126626015,9.2012386322,-9.0978364944,1.9925351143,3.9177992344,0.315969795,-1.4467543364,-0.0006796182,-1.2097285986
319,36970,36952,0.0495579578,-0.097450681,0.9731439352,4.447291851,4.4669332504,-9.7113389969,1.9930775166,3.9174723625,0.315338999,-1.5047761202,0.0881489813,-1.2894630432
320,36980,36962,0.0034023873,-0.1514317542,0.9837191105,0.1477464437,0.4272064567,-9.7573394775,1.9944052696,3.9178712368,0.3146336079,-1.5081778765,0.146634087,-1.3804006577
321,36990,36972,-0.0112007111,-0.0846276581,1.0085458755,-6.2080903053,0.1785220802,-10.230556488,1.9946672916,3.9175536633,0.3140049577,-1.5396363735,0.1299228072,-1.4825133085
322,37000,36982,-0.0584144555,-0.0211960077,1.0254099369,-7.7214803696,-0.270609647,-10.9556131363,1.9947570562,3.9174425602,0.3133484721,-1.5330930948,-0.0366595015,-1.6083140373
323,37010,36992,0.0029901953,-0.0161281638,0.9722620845,-5.5116930008,-3.1755945683,-10.7831459045,1.9957412481,3.917798996,0.3126929402,-1.4231225252,-0.1414723396,-1.7226256132
324,37020,37002,0.0276150089,0.0119014541,0.9569753408,-0.2556708157,-7.9327626228,-9.8765382767,1.9963005781,3.9190719128,0.3120375574,-1.575065136,-0.1267634779,-1.8107024431
325,37030,37012,0.0065479372,-0.025876781,0.9660933018,5.6344089508,-8.5095510483,-8.5396814346,1.9959257841,3.9195775986,0.3116036057,-1.3667213917,-0.1093804613,-1.9048057795
326,37040,37022,-0.0290618911,0.0268255323,1.1037395,12.7325725555,-10.2264928818,-6.9160141945,1.9985296726,3.9188821316,0.3108400404,-1.292276144,0.0079579726,-1.9729021788
327,37050,37032,-0.0354571976,-0.1466167867,1.0679993629,12.5721712112,-11.4406223297,-3.9732534885,1.9978448153,3.9186768532,0.3103599846,-1.2004913092,0.0522106215,-2.0594463348
328,37060,37042,-0.0945879072,-0.1837510169,1.0769255161,7.5624828339,-7.5268621445,-1.9854967594,1.9987871647,3.9171111584,0.3097978234,-1.1943137646,0.2448151708,-2.1045608521
329,37070,37052,-0.097468935,-0.0674733296,1.1506122351,2.4530696869,-0.5517187119,0.4858053923,1.9996429682,3.9177672863,0.3097356856,-0.8723608851,0.287332803,-2.1407392025
330,37080,37062,-0.0689026862,-0.0538625792,1.1200346947,0.9170709848,-0.1307723969,3.0719175339,2.0010437965,3.9146914482,0.3092971742,-1.155834794,0.1881981343,-2.1814086437
331,37090,37072,-0.0493644699,-0.0358124413,1.0481771231,-0.3027537763,-0.2684061825,5.9628143311,1.9994068146,3.9145898819,0.3093545437,-1.207121253,0.2151738852,-2.1598579884
332,37100,37082,-0.057753548,0.0274097882,1.0396100283,1.5811177492,-6.7744402885,8.061460495,2.0035517216,3.9146370888,0.3086634278,-1.0848946571,0.2378237844,-2.102227211
333,37110,37092,0.0075991792,0.0011580428,1.0383423567,3.304500103,-12.5798940659,8.1404151917,2.0052754879,3.9136583805,0.3084699214,-1.1088436842,0.2086355686,-2.0370857716
334,37120,37102,-0.0214636587,-0.1096882224,1.0842511654,5.6929278374,-15.9426136017,8.3806581497,2.0050506592,3.9136095047,0.3085436225,-0.9628450871,0.2111995667,-1.9622952938
335,37130,37112,-0.0222532246,-0.1377510875,1.1117078066,7.237303257,-16.3360786438,9.6713857651,2.0067229271,3.9141111374,0.3079327047,-0.8421080112,0.3252490163,-1.8657356501
336,37140,37122,-0.0893175751,0.0125461016,1.085395813,6.6875519753,-11.3192138672,11.1191053391,2.0073542595,3.9145524502,0.3080087006,-0.5021210313,0.3090281487,-1.7881269455
337,37150,37132,-0.0530301258,0.1030266061,0.9958947301,6.0691385269,-5.0369672775,12.052116394,2.0085964203,3.9140655994,0.308098942,-0.5452305675,0.4432850182,-1.6726077795
338,37160,37142,0.0039277291,0.2103856951,1.0230568647,4.9283146858,2.1475067139,11.5586490631,2.0077323914,3.9150993824,0.308437109,-0.5316752791,0.4131014943,-1.5734423399
339,37170,37152,0.0466423854,0.069947809,1.0014009476,3.639831543,4.6863107681,12.1095676422,2.0104563236,3.9145791531,0.3113319278,-0.4634557962,0.5178251863,-1.4482579231
340,37180,37162,0.0500851236,-0.0569215193,0.9903611541,1.0172190666,2.3537583351,10.8579292297,2.0120487213,3.91563797,0.3116196096,-0.4322172403,0.5903095007,-1.3229775429
341,37190,37172,0.0292361267,-0.0479544476,0.9911892414,-1.0584537983,2.9334559441,10.4668645859,2.0115685463,3.9157450199,0.3119798005,-0.5227246284,0.6211952567,-1.2126955986
