,timestamp_start,timestamp_end,acc.x,acc.y,acc.z,gyro.x,gyro.y,gyro.z,stateEstimate.x,stateEstimate.y,stateEstimate.z,stabilizer.pitch,stabilizer.roll,stabilizer.yaw
0,33084,33081,0.005287559702992439,0.035930387675762177,0.9600661396980286,-13.059746742248535,9.29559326171875,2.9957542419433594,1.8500580787658691,3.966205596923828,0.17132051289081573,0.9643188118934631,-0.582239031791687,3.686073064804077
1,33094,33091,-0.018824266269803047,0.1310322880744934,0.9900237917900085,-5.799624443054199,9.140118598937988,3.614598035812378,1.849904179573059,3.9673752784729004,0.17467749118804932,0.6887307167053223,-0.573362410068512,3.692742347717285
2,33104,33101,0.024135852232575417,-0.03717470169067383,1.0436550378799438,5.610342025756836,10.082137107849121,3.7367050647735596,1.849473476409912,3.9670114517211914,0.1753985732793808,0.6796254515647888,-0.35362669825553894,3.6758766174316406
3,33114,33111,0.030223503708839417,-0.09716445207595825,1.01490318775177,17.543977737426758,14.1956148147583,3.6312649250030518,1.8498743772506714,3.966942310333252,0.1777878850698471,0.3611952066421509,-0.014141597785055637,3.7295186519622803
4,33124,33121,-0.012812484055757523,-0.03792303428053856,1.0472882986068726,23.297143936157227,12.12456226348877,4.244565963745117,1.8501719236373901,3.968329429626465,0.17990849912166595,0.2831780016422272,0.05483168736100197,3.721694231033325
5,33134,33131,0.00405053049325943,-0.04931899160146713,1.0101795196533203,21.320833206176758,9.325071334838867,4.014232158660889,1.8496239185333252,3.9657042026519775,0.18030919134616852,0.027014417573809624,0.40591293573379517,3.7505686283111572
6,33144,33141,0.0015660130884498358,0.023158909752964973,1.0303281545639038,15.701123237609863,6.094473361968994,2.633152484893799,1.8484547138214111,3.9682300090789795,0.18247124552726746,0.05292677879333496,0.5678963661193848,3.801624059677124
7,33154,33151,0.03968316316604614,0.06695064902305603,1.0088328123092651,4.347956657409668,1.4412734508514404,2.772321939468384,1.8494441509246826,3.967041254043579,0.1844068020582199,-0.16333504021167755,0.9157900214195251,3.8228437900543213
8,33164,33161,-0.018538087606430054,-0.011648805812001228,1.0472811460494995,-4.32398796081543,-1.7557196617126465,1.496845006942749,1.8493010997772217,3.969768524169922,0.1866607964038849,-0.14039862155914307,0.9275075197219849,3.854811191558838
9,33174,33171,0.030729295685887337,-0.04094113036990166,0.9824385046958923,-11.380266189575195,-2.035712480545044,0.5479804873466492,1.8492416143417358,3.9714736938476562,0.18744394183158875,-0.23323267698287964,0.948941707611084,3.865739583969116
10,33184,33181,-0.006594219710677862,0.010784824378788471,1.0438801050186157,-11.624035835266113,-3.1078426837921143,-0.48858946561813354,1.8491514921188354,3.971512794494629,0.1894645094871521,-0.22321155667304993,0.868034839630127,3.871044158935547
11,33194,33191,-0.041623350232839584,0.1294536143541336,1.0059117078781128,-11.695389747619629,0.5493131279945374,-0.8614431023597717,1.8495534658432007,3.9715323448181152,0.19130630791187286,-0.28306159377098083,0.9739336967468262,3.8652114868164062
12,33204,33201,-0.03832700103521347,0.14137721061706543,1.0294404029846191,-7.025123119354248,0.36028799414634705,-1.113260269165039,1.8447335958480835,3.9704465866088867,0.1938636302947998,0.5296074748039246,0.7713355422019958,3.9601004123687744
13,33214,33211,0.006326310336589813,-0.03698932006955147,1.005691647529602,-2.037597894668579,4.600688457489014,-1.391127347946167,1.8447916507720947,3.970716714859009,0.19639639556407928,0.3885408937931061,0.7158858776092529,3.9335591793060303
14,33224,33221,0.001418613945133984,-0.013127841986715794,1.0153874158859253,2.156440258026123,7.247050762176514,-1.857303261756897,1.84496009349823,3.9714033603668213,0.19890877604484558,0.20050576329231262,0.732645571231842,3.899644136428833
15,33234,33231,-0.006467571947723627,0.060980308800935745,0.9726880788803101,0.4995580315589905,13.875951766967773,-2.115731954574585,1.8452441692352295,3.9711060523986816,0.19915902614593506,0.02529430203139782,0.7120015621185303,3.871464967727661
16,33244,33241,-0.03164724260568619,0.023913642391562462,0.9885707497596741,-2.3238868713378906,15.923979759216309,-1.8160309791564941,1.8452049493789673,3.9703707695007324,0.20112711191177368,-0.1258024126291275,0.8321508765220642,3.8511643409729004
17,33254,33251,0.013276331126689911,-0.028239663690328598,1.0095664262771606,-5.8517022132873535,13.927196502685547,-2.2977688312530518,1.8473516702651978,3.9679999351501465,0.2031850665807724,-0.44799256324768066,0.8159646391868591,3.81117582321167
18,33264,33261,0.021452805027365685,-0.029904264956712723,0.9734885096549988,-9.08707046508789,9.613604545593262,-2.543097496032715,1.846101999282837,3.9665229320526123,0.20533402264118195,-0.5586543679237366,0.6710801720619202,3.7923777103424072
19,33274,33271,0.022975994274020195,0.01625584438443184,1.01609468460083,-10.890791893005371,1.0350955724716187,-3.3324272632598877,1.846238613128662,3.965794324874878,0.20856070518493652,-0.7480440735816956,0.6351426243782043,3.7596826553344727
20,33284,33281,0.027679193764925003,-0.004125409293919802,1.0070879459381104,-11.998566627502441,-5.536229610443115,-3.3532652854919434,1.8433738946914673,3.9685750007629395,0.21063651144504547,-0.8127506971359253,0.48265087604522705,3.723853826522827
21,33294,33291,0.0006062930333428085,3.165050657116808e-05,0.9915682673454285,-11.556267738342285,-10.173083305358887,-3.6120193004608154,1.8429653644561768,3.969076633453369,0.21277400851249695,-0.7552679777145386,0.24725155532360077,3.680917263031006
22,33304,33301,-0.014603056944906712,-0.0723922848701477,1.0159863233566284,-8.292588233947754,-11.061033248901367,-4.152268886566162,1.8410873413085938,3.9682929515838623,0.21243825554847717,-0.6208873391151428,-0.035305365920066833,3.6352310180664062
23,33314,33311,0.03751899302005768,-0.12731172144412994,0.9446027874946594,-2.296333074569702,-11.921442985534668,-3.1426782608032227,1.8399702310562134,3.9672648906707764,0.21426694095134735,-0.5348412394523621,-0.23912832140922546,3.5809478759765625
24,33324,33321,-0.006457422394305468,-0.03259402886033058,0.9964289665222168,2.4846038818359375,-9.457219123840332,-3.19673490524292,1.845571517944336,3.9666898250579834,0.21615733206272125,-1.3468972444534302,-0.3483969569206238,3.4599192142486572
25,33334,33331,-0.020611125975847244,-0.004213574342429638,1.0177818536758423,6.693782806396484,-5.236227512359619,-3.143299102783203,1.83522367477417,3.9598207473754883,0.22541050612926483,0.3838436007499695,0.5293459296226501,3.648499011993408
26,33344,33341,0.025416938588023186,-0.030343927443027496,0.9814953207969666,8.601393699645996,-6.553477764129639,-4.047975540161133,1.833584189414978,3.9583492279052734,0.22784464061260223,0.3897204101085663,0.6239584684371948,3.6175880432128906
27,33354,33351,-0.030078165233135223,0.022282753139734268,1.0106834173202515,3.0046374797821045,2.6308233737945557,-3.970219135284424,1.8347492218017578,3.9569990634918213,0.2310771644115448,0.15056389570236206,0.6568486094474792,3.5534307956695557
28,33364,33361,-0.005270043853670359,-0.006887996569275856,0.9460734128952026,-6.714232444763184,10.360533714294434,-4.220732688903809,1.8307644128799438,3.952396869659424,0.23208117485046387,0.1350616067647934,0.6897081732749939,3.511749029159546
29,33374,33371,0.030708229169249535,-0.036163486540317535,0.9720261096954346,-15.508769989013672,15.462386131286621,-4.705470561981201,1.8307843208312988,3.9509685039520264,0.23496101796627045,-0.11189571022987366,0.4811969995498657,3.4428699016571045
30,33384,33381,-0.04577921703457832,0.03790532425045967,0.9360678195953369,-23.596492767333984,15.315120697021484,-4.714502811431885,1.8317389488220215,3.9498307704925537,0.23721258342266083,-0.41853034496307373,0.4326827824115753,3.393531084060669
31,33394,33391,0.015804342925548553,0.011965082958340645,0.9502716064453125,-26.500568389892578,13.396364212036133,-4.581390857696533,1.8305999040603638,3.9504036903381348,0.23967689275741577,-0.7060856819152832,-0.04106993228197098,3.3183538913726807
32,33404,33401,0.001718260464258492,0.09747041761875153,0.9889212846755981,-22.94089126586914,6.53855562210083,-3.8240315914154053,1.8311519622802734,3.949275493621826,0.2405485212802887,-0.9280576705932617,-0.30094221234321594,3.268432855606079
33,33414,33411,0.03467010706663132,-0.03791835904121399,0.9171042442321777,-14.296142578125,-2.341402769088745,-4.445889472961426,1.8301361799240112,3.9475040435791016,0.24280494451522827,-0.9500991106033325,-0.27158021926879883,3.2591240406036377
34,33424,33421,-0.014159463346004486,-0.00033500598510727286,0.9887380003929138,-6.400826454162598,-5.3518476486206055,-4.526834011077881,1.8285866975784302,3.9456958770751953,0.24497860670089722,-0.905651330947876,-0.5022323727607727,3.2116003036499023
35,33434,33431,0.009005514904856682,0.053190380334854126,0.9735540151596069,0.2717849016189575,-13.159980773925781,-5.129537582397461,1.829120397567749,3.9470555782318115,0.24597547948360443,-0.8984652161598206,-0.6608604788780212,3.1568336486816406
36,33444,33441,-0.006495983339846134,-0.0007251913193613291,0.963538646697998,5.849846839904785,-21.65940284729004,-4.453784465789795,1.8298039436340332,3.946244716644287,0.24786041676998138,-0.8585224747657776,-0.554770290851593,3.122385263442993
37,33454,33451,-0.021274685859680176,0.04676155745983124,0.9507142305374146,6.00485372543335,-18.366201400756836,-4.436248779296875,1.830492615699768,3.945404291152954,0.24972639977931976,-0.7225748896598816,-0.5347626209259033,3.0757715702056885
38,33464,33461,-0.01845550164580345,-0.004829996265470982,0.9587782025337219,2.504985809326172,-16.2210636138916,-4.948983192443848,1.8253002166748047,3.9389021396636963,0.2503524720668793,-0.3794824182987213,-0.36685502529144287,3.0446152687072754
39,33474,33471,-0.057616185396909714,0.028021670877933502,0.9505293369293213,-2.767509698867798,-11.422489166259766,-4.913717269897461,1.827165126800537,3.9394493103027344,0.25213056802749634,-0.40256980061531067,-0.41122257709503174,2.993016481399536
40,33484,33481,-0.00040718718082644045,-0.030623024329543114,0.9287384748458862,-8.372085571289062,-5.693540096282959,-4.727315902709961,1.8271054029464722,3.939380168914795,0.253856897354126,-0.33017492294311523,-0.5305150151252747,2.9338576793670654
41,33494,33491,0.03380783274769783,-0.008820814080536366,0.9322488903999329,-11.102783203125,-4.262607574462891,-5.083225250244141,1.8300178050994873,3.946596622467041,0.2554995119571686,-0.33428362011909485,-0.723201334476471,2.874558687210083
42,33504,33501,-0.0009550212998874485,-0.027127690613269806,0.9402374625205994,-12.042913436889648,-4.7127861976623535,-5.0088653564453125,1.8307323455810547,3.945096254348755,0.260012686252594,-0.28828704357147217,-0.7296205163002014,2.836186647415161
43,33514,33511,-0.06149909272789955,0.03225963935256004,0.9468134045600891,-9.295933723449707,-7.138998508453369,-4.966275215148926,1.8319761753082275,3.9479594230651855,0.2616885006427765,-0.307686984539032,-0.9707526564598083,2.7766177654266357
44,33524,33521,-0.025551628321409225,0.006349010393023491,0.9729905128479004,-3.975127696990967,-10.138313293457031,-5.052459239959717,1.831256628036499,3.9480180740356445,0.263447105884552,-0.13609926402568817,-1.0041707754135132,2.726928234100342
45,33534,33531,0.04717712476849556,-0.08033332973718643,0.956484317779541,2.3250176906585693,-13.392434120178223,-4.246827602386475,1.8313151597976685,3.9472787380218506,0.2622724771499634,-0.06463149935007095,-1.0301506519317627,2.6828396320343018
46,33544,33541,0.023004187270998955,-0.0558740571141243,0.9737339019775391,7.157476902008057,-14.389946937561035,-3.685948133468628,1.8300589323043823,3.948779821395874,0.2637733221054077,0.06482263654470444,-1.0207356214523315,2.6404964923858643
47,33554,33551,-0.01732821762561798,0.011414030566811562,0.9835455417633057,8.214545249938965,-10.716272354125977,-4.397505760192871,1.8322088718414307,3.9486682415008545,0.26509809494018555,-0.022545501589775085,-0.9438626170158386,2.6274940967559814
48,33564,33561,0.03185341879725456,0.030201934278011322,0.930385947227478,7.827463626861572,-8.940123558044434,-4.609435558319092,1.829185962677002,3.946906328201294,0.26571542024612427,0.17599105834960938,-0.8425736427307129,2.580613136291504
49,33574,33571,0.06573780626058578,-0.015388589352369308,0.9161162376403809,5.795471668243408,-8.257326126098633,-3.5773239135742188,1.828104853630066,3.9479782581329346,0.26693758368492126,0.33911991119384766,-0.7454662322998047,2.531822919845581
50,33584,33581,0.06062444671988487,-0.06767267733812332,0.9499939680099487,3.6794238090515137,-11.325459480285645,-3.628505229949951,1.8291000127792358,3.950371265411377,0.2681088149547577,0.34664270281791687,-0.7533940672874451,2.502964973449707
51,33594,33591,-0.013802804052829742,0.0444747693836689,0.995309054851532,-1.0860480070114136,-8.332530975341797,-3.0053751468658447,1.8301960229873657,3.9532113075256348,0.2692650854587555,0.4458869993686676,-0.7278479933738708,2.4688773155212402
52,33604,33601,-0.0307037103921175,0.04741482809185982,0.9912521839141846,-3.4443747997283936,-7.219606399536133,-2.9813649654388428,1.8293124437332153,3.954308271408081,0.2694980502128601,0.5148186683654785,-0.7611653208732605,2.441014289855957
53,33614,33611,0.009465731680393219,-0.03760926052927971,0.9238386154174805,-2.823333263397217,-9.822648048400879,-3.088932514190674,1.8288764953613281,3.954833507537842,0.2705226540565491,0.7057170271873474,-0.8284457921981812,2.3995554447174072
54,33624,33621,0.023145360872149467,-0.11431445926427841,0.9607033133506775,-1.3022335767745972,-5.153399467468262,-2.9971985816955566,1.8280808925628662,3.9545376300811768,0.27146443724632263,0.8854900598526001,-0.8847819566726685,2.359178304672241
55,33634,33631,-0.09150896966457367,-0.0741838663816452,1.013807773590088,2.5187978744506836,-5.055516719818115,-2.5495336055755615,1.8281532526016235,3.952773094177246,0.27288419008255005,0.9552977681159973,-0.7564424276351929,2.322448492050171
56,33644,33641,0.05296720191836357,-0.007873865775763988,0.9431610703468323,3.936702251434326,4.060859680175781,-2.1077466011047363,1.8312798738479614,3.9523987770080566,0.273877888917923,0.6850007772445679,-0.807691752910614,2.3359975814819336
57,33654,33651,0.10954442620277405,0.006351846270263195,0.9537049531936646,5.614490985870361,10.536720275878906,-2.276855230331421,1.8318169116973877,3.951826333999634,0.2747616171836853,0.6842451691627502,-0.7461764216423035,2.3082761764526367
58,33664,33661,-0.007694808300584555,0.08033302426338196,0.9597930908203125,5.468141078948975,15.680524826049805,-2.140726327896118,1.8313368558883667,3.9523661136627197,0.2778070569038391,0.5991522669792175,-0.735556423664093,2.287139892578125
59,33674,33671,-0.001767746638506651,-0.034577708691358566,0.978735089302063,4.797475814819336,16.669240951538086,-1.5238678455352783,1.8310950994491577,3.9520273208618164,0.27879613637924194,0.5741527676582336,-0.6538379788398743,2.250180244445801
60,33684,33681,0.003938790876418352,-0.16940490901470184,0.9921945333480835,4.007063865661621,13.57406997680664,-1.496044635772705,1.8329001665115356,3.953160524368286,0.2796441614627838,0.36569756269454956,-0.6586992740631104,2.2409603595733643
61,33694,33691,-0.015037341974675655,-0.12294065952301025,0.9847792387008667,2.7871384620666504,12.295567512512207,-1.0869641304016113,1.8330174684524536,3.9539794921875,0.28054675459861755,0.26859337091445923,-0.669640302658081,2.2232003211975098
62,33704,33701,0.008440583012998104,0.07021765410900116,0.9973419308662415,3.5812056064605713,7.836076259613037,-1.2048181295394897,1.8321350812911987,3.954141616821289,0.2841472923755646,0.2730279266834259,-0.6155400276184082,2.19549298286438
63,33714,33711,0.021440833806991577,0.021183142438530922,0.9919710755348206,6.142083168029785,2.258331060409546,-0.28875789046287537,1.8336162567138672,3.952965259552002,0.2851795256137848,0.18982023000717163,-0.541857898235321,2.1788856983184814
64,33724,33721,-0.011380241252481937,-0.0033097462728619576,0.9839354753494263,6.417012691497803,1.6423083543777466,-0.2802707552909851,1.8332270383834839,3.952810764312744,0.2862028479576111,0.18074342608451843,-0.512937605381012,2.1729238033294678
65,33734,33731,0.018380921334028244,-0.01834147796034813,0.9980555176734924,5.9206862449646,2.9062774181365967,-0.9313555955886841,1.833059549331665,3.952038049697876,0.28747451305389404,0.18240933120250702,-0.4026934802532196,2.1648147106170654
66,33744,33741,0.0351916141808033,-0.01820852980017662,0.9557370543479919,4.743144512176514,7.354525089263916,0.04661545902490616,1.8339736461639404,3.95139479637146,0.2884633243083954,0.07951121777296066,-0.377867728471756,2.1664609909057617
67,33754,33751,0.01634157821536064,0.018926026299595833,0.9545106291770935,5.606048107147217,7.20932149887085,1.3317854404449463,1.8335601091384888,3.950606346130371,0.28948116302490234,0.07799063622951508,-0.287985235452652,2.1593756675720215
68,33764,33761,0.0005820198566652834,-0.02708367072045803,0.9462479948997498,6.107767581939697,11.924288749694824,1.7482576370239258,1.8337305784225464,3.950770139694214,0.2937651574611664,-0.018818510696291924,-0.19163966178894043,2.168865203857422
69,33774,33771,0.019306162372231483,-0.060933422297239304,0.9569687843322754,6.74718713760376,11.51515007019043,2.9386098384857178,1.834645390510559,3.949943780899048,0.2948584258556366,-0.1430606245994568,-0.15725688636302948,2.187962055206299
70,33784,33781,0.011157221160829067,-0.12123123556375504,0.9904314279556274,6.605227470397949,7.367616653442383,3.0987186431884766,1.8350059986114502,3.9491541385650635,0.2959062159061432,-0.2609955072402954,-0.04141397774219513,2.2125918865203857
71,33794,33791,0.011273371987044811,-0.12212570011615753,0.9814123511314392,5.032927513122559,4.440487384796143,2.53594970703125,1.8356436491012573,3.949951410293579,0.29834792017936707,-0.33380353450775146,-0.08604174852371216,2.2438058853149414
72,33804,33801,0.023540975525975227,-0.05798961594700813,0.9369996786117554,3.872819185256958,4.583006858825684,2.17887282371521,1.835016131401062,3.950493097305298,0.2995359003543854,-0.3015659749507904,-0.14198142290115356,2.2675583362579346
73,33814,33811,-0.03901226818561554,0.015723641961812973,0.989418089389801,4.4644269943237305,0.6569727659225464,2.1471452713012695,1.8343298435211182,3.9505937099456787,0.3006923496723175,-0.33737167716026306,-0.05648240074515343,2.2899765968322754
74,33824,33821,0.03775007650256157,-0.016257965937256813,0.9295962452888489,4.541893005371094,0.44468599557876587,2.419330358505249,1.8314969539642334,3.951364517211914,0.30186909437179565,-0.1324780285358429,-0.047444552183151245,2.3036696910858154
75,33834,33831,0.08383218944072723,-0.07964175194501877,0.9341082572937012,6.198625087738037,1.5857609510421753,1.908134937286377,1.8322919607162476,3.951754331588745,0.2998083531856537,-0.2249588519334793,-0.024127980694174767,2.325468063354492
76,33844,33841,0.06298116594552994,-0.06315742433071136,0.9574384689331055,6.796472072601318,4.733811378479004,1.3885043859481812,1.8341907262802124,3.9524195194244385,0.3005940914154053,-0.32340458035469055,0.02259570173919201,2.345473527908325
77,33854,33851,-0.03222068026661873,-0.033396314829587936,0.9845793843269348,7.241467475891113,6.921867847442627,0.8141809105873108,1.8345451354980469,3.950986385345459,0.30133968591690063,-0.3745638132095337,0.15836557745933533,2.3617630004882812
78,33864,33861,-0.10120581090450287,-0.028366772457957268,0.9621689915657043,5.213196754455566,9.612754821777344,0.7952917218208313,1.8334745168685913,3.9525632858276367,0.2971113622188568,-0.45795801281929016,0.2876947820186615,2.374652862548828
79,33874,33871,-0.11810965836048126,0.0954032838344574,0.9416018724441528,1.478162169456482,9.587014198303223,1.5758295059204102,1.8349958658218384,3.952596664428711,0.2975291311740875,-0.5764959454536438,0.22812150418758392,2.379190444946289
80,33884,33881,-0.006706788204610348,-0.03157162293791771,0.9240449070930481,-3.0126490592956543,11.15335750579834,1.3853232860565186,1.834973931312561,3.9528403282165527,0.2978813350200653,-0.6284067034721375,0.2727225422859192,2.3944547176361084
81,33894,33891,0.013545365072786808,-0.0415138304233551,0.9215088486671448,-4.3717169761657715,7.467854022979736,2.2155890464782715,1.834729790687561,3.952406644821167,0.29911819100379944,-0.6780521869659424,0.2552400529384613,2.410365104675293
82,33904,33901,0.04577207192778587,-0.08433018624782562,0.9753742814064026,-2.5151379108428955,2.5343172550201416,1.8228709697723389,1.834506869316101,3.9517486095428467,0.29935967922210693,-0.7655152082443237,0.21407006680965424,2.427870988845825
83,33914,33911,0.043988414108753204,-0.06848995387554169,1.0028237104415894,0.3096383810043335,-0.8819436430931091,1.5030663013458252,1.8338578939437866,3.9516494274139404,0.2996198832988739,-0.7946828007698059,0.1934840828180313,2.4458887577056885
84,33924,33921,0.0389571487903595,-0.07082287967205048,0.9861092567443848,2.406812906265259,0.7829293608665466,1.2421101331710815,1.8326337337493896,3.9514591693878174,0.29985082149505615,-0.7853131294250488,0.21384026110172272,2.462026357650757
85,33934,33931,0.007836530916392803,-0.03567038103938103,0.9407755732536316,4.343449115753174,3.2158701419830322,0.9750727415084839,1.8324768543243408,3.9509506225585938,0.29766973853111267,-0.7855390906333923,0.27185511589050293,2.476963520050049
86,33944,33941,-0.016488924622535706,-0.02882622368633747,0.9761587381362915,3.947593927383423,6.610641956329346,1.1171503067016602,1.83208167552948,3.9512345790863037,0.29772433638572693,-0.8202467560768127,0.2749336063861847,2.482870101928711
87,33954,33951,0.01384657807648182,-0.1595117598772049,0.9748197197914124,3.3014044761657715,5.7821574211120605,1.3886760473251343,1.832473635673523,3.9517483711242676,0.2977142333984375,-0.8893402814865112,0.27930381894111633,2.488712787628174
88,33964,33961,-0.025294505059719086,-0.13934846222400665,1.0403143167495728,1.8791377544403076,8.395578384399414,0.7224075198173523,1.8321696519851685,3.9508965015411377,0.2991850972175598,-0.8907172083854675,0.3474261462688446,2.507915496826172
89,33974,33971,0.02208748459815979,-0.0714508667588234,0.9861224293708801,0.6495183110237122,8.822061538696289,0.3087490200996399,1.8318818807601929,3.950761318206787,0.29929789900779724,-0.9182341694831848,0.3893471360206604,2.5215604305267334
90,33984,33981,-0.04543718695640564,-0.009003765881061554,1.0352044105529785,-1.042941927909851,7.025068283081055,0.7317403554916382,1.8323408365249634,3.9507675170898438,0.29938650131225586,-1.030137538909912,0.40480154752731323,2.523977279663086
91,33994,33991,-0.004229413345456123,0.01526971161365509,1.0149272680282593,-3.3616952896118164,7.507906913757324,0.7493429780006409,1.8320435285568237,3.9509317874908447,0.30036547780036926,-1.0478123426437378,0.3887426257133484,2.5313286781311035
92,34004,34001,-0.014020043425261974,-0.09975778311491013,1.0044187307357788,-3.400927782058716,3.930925130844116,0.45453715324401855,1.8322356939315796,3.9517464637756348,0.300554484128952,-1.1253573894500732,0.3440783619880676,2.5369057655334473
93,34014,34011,0.01727496273815632,-0.027583902701735497,0.9904189109802246,-1.7722400426864624,-0.8264949917793274,0.8773789405822754,1.8321000337600708,3.9509942531585693,0.30075886845588684,-1.1635613441467285,0.2988241910934448,2.5406017303466797
94,34024,34021,-0.01696108840405941,-0.02031383290886879,0.9767867922782898,-3.052155017852783,2.007560968399048,0.6921349167823792,1.832424521446228,3.951301336288452,0.3009521961212158,-1.1588993072509766,0.2648642063140869,2.548704147338867
95,34034,34031,0.009440295398235321,-0.036903735250234604,0.988023042678833,-2.827704668045044,1.6777470111846924,0.8383725881576538,1.8318092823028564,3.9499735832214355,0.30220526456832886,-1.1559678316116333,0.3006415069103241,2.567857503890991
96,34044,34041,-0.0034472141414880753,-0.03415119647979736,1.017986536026001,-2.1942431926727295,2.449758768081665,0.3270965814590454,1.8331950902938843,3.950197458267212,0.3023526072502136,-1.3088412284851074,0.25841328501701355,2.56312894821167
97,34054,34051,-0.0007501455256715417,-0.05158176273107529,0.9976872205734253,-1.0801537036895752,1.9770822525024414,0.5389589071273804,1.833186388015747,3.950227975845337,0.30260780453681946,-1.3080165386199951,0.22659532725811005,2.5681955814361572
98,34064,34061,-0.006962345913052559,-0.06351391971111298,0.9682363271713257,-1.3611899614334106,2.247072458267212,1.0017139911651611,1.8336669206619263,3.950049638748169,0.3001782298088074,-1.314914584159851,0.2780764698982239,2.586820363998413
99,34074,34071,0.01841697469353676,-0.07995497435331345,0.9890769124031067,-2.0456511974334717,1.1719555854797363,0.9700836539268494,1.8347922563552856,3.9498329162597656,0.3002054691314697,-1.3991177082061768,0.24122431874275208,2.588210344314575
100,34084,34081,0.0010485127568244934,-0.10763434320688248,1.0612224340438843,-2.4318771362304688,-0.564667820930481,-0.3128022253513336,1.8346383571624756,3.9492268562316895,0.3002936542034149,-1.3825082778930664,0.27503708004951477,2.6066997051239014
101,34094,34091,0.019747238606214523,-0.1586669385433197,0.9653831720352173,-3.645399808883667,0.32945817708969116,-0.49527743458747864,1.835014820098877,3.9489521980285645,0.2977813482284546,-1.3414477109909058,0.21640662848949432,2.6029415130615234
102,34104,34101,-0.013462384231388569,-0.0009559871978126466,1.042445182800293,-3.3234384059906006,0.19156555831432343,-0.4424005150794983,1.8351556062698364,3.948540449142456,0.29770612716674805,-1.3640447854995728,0.15328969061374664,2.59011173248291
103,34114,34111,0.035726532340049744,-0.07461459189653397,1.0096849203109741,-3.8924448490142822,-1.6704624891281128,-0.2907252311706543,1.834756851196289,3.9486331939697266,0.2977035343647003,-1.2974162101745605,0.09583081305027008,2.584120035171509
104,34124,34121,0.028774164617061615,-0.1295364648103714,1.0597333908081055,-2.2043604850769043,-2.456502676010132,-0.9817996025085449,1.836027979850769,3.947969436645508,0.29874908924102783,-1.3681966066360474,0.11780833452939987,2.5842902660369873
105,34134,34131,0.02318497560918331,-0.053542908281087875,1.020531415939331,0.1452031284570694,-0.9150824546813965,-1.5778275728225708,1.8359259366989136,3.947749376296997,0.2988685071468353,-1.2733491659164429,0.07830513268709183,2.577153205871582
106,34144,34141,0.01893666386604309,0.010732227005064487,0.9790577292442322,1.2746193408966064,0.9803175926208496,-1.3983843326568604,1.837943434715271,3.947438955307007,0.29891809821128845,-1.3582584857940674,0.07275103777647018,2.55771803855896
107,34154,34151,0.006275688763707876,0.0005094195366837084,0.9844432473182678,1.526799201965332,2.02705979347229,-1.5727933645248413,1.8379578590393066,3.9471707344055176,0.2990741729736328,-1.3104177713394165,0.09051372855901718,2.5481808185577393
108,34164,34161,-0.010176604613661766,-0.042672403156757355,1.06789231300354,1.578157663345337,-0.7101832032203674,-1.536934494972229,1.839390754699707,3.9467737674713135,0.3015590310096741,-1.345205545425415,0.11163071542978287,2.5317320823669434
109,34174,34171,-0.01617496646940708,-0.0236394964158535,1.0600308179855347,0.702915370464325,-2.128462553024292,-1.6651848554611206,1.8392819166183472,3.9459574222564697,0.30187857151031494,-1.2692991495132446,0.12427505850791931,2.516152858734131
110,34184,34181,0.03597607836127281,0.08544005453586578,0.9749630689620972,-1.3058749437332153,-2.094326972961426,-1.7994152307510376,1.839780569076538,3.9453041553497314,0.30218929052352905,-1.245862364768982,0.12019387632608414,2.4980266094207764
111,34194,34191,-0.021082058548927307,0.16352832317352295,1.0411168336868286,-3.0353405475616455,-1.8597285747528076,-1.9506064653396606,1.8403395414352417,3.944422721862793,0.3026188611984253,-1.2966610193252563,0.08323486149311066,2.472954511642456
112,34204,34201,-0.034153930842876434,0.016205016523599625,1.0364792346954346,-3.118161678314209,-4.31941032409668,-1.575479507446289,1.840643048286438,3.9447827339172363,0.30299708247184753,-1.2573521137237549,0.027869228273630142,2.4501354694366455
113,34214,34211,-0.027521448209881783,-0.03206389397382736,1.0187010765075684,-1.937596321105957,-5.86608362197876,-1.5049771070480347,1.8410478830337524,3.9436991214752197,0.30341777205467224,-1.1858785152435303,0.04923706874251366,2.4442734718322754
114,34224,34221,-0.006020918022841215,-0.0300760418176651,1.023064374923706,-0.5873910784721375,-7.299168586730957,-1.7922437191009521,1.8382781744003296,3.9408440589904785,0.30688992142677307,-1.088066816329956,0.011255797930061817,2.4182016849517822
115,34234,34231,0.006408440414816141,-0.019721783697605133,0.992156445980072,1.839167594909668,-7.731094837188721,-1.348497986793518,1.839438557624817,3.9420971870422363,0.3075201213359833,-1.0441561937332153,-0.0006563692004419863,2.39967679977417
116,34244,34241,-0.0192192904651165,-0.008680760860443115,1.0321018695831299,3.345332622528076,-8.253141403198242,-1.8146023750305176,1.842185139656067,3.941648006439209,0.3080483376979828,-1.142464518547058,0.022270703688263893,2.381131172180176
117,34254,34251,0.008705690503120422,-0.005603227764368057,1.0048691034317017,3.411752700805664,-7.603806018829346,-1.9231679439544678,1.8423283100128174,3.9405369758605957,0.3086775243282318,-1.0673428773880005,0.07191977649927139,2.3676326274871826
118,34264,34261,0.059738077223300934,-0.10539061576128006,1.0019943714141846,0.9548950791358948,-5.869234561920166,-1.7134997844696045,1.8430596590042114,3.940802574157715,0.3066447079181671,-1.002225399017334,0.10888437181711197,2.3505585193634033
119,34274,34271,0.026206549257040024,-0.04840117320418358,1.0186742544174194,-2.245753765106201,-4.281867027282715,-2.6042630672454834,1.8418081998825073,3.9398410320281982,0.3073006570339203,-0.8109826445579529,0.1852065920829773,2.348501682281494
120,34284,34281,0.044195789843797684,-0.05915187671780586,0.9344838261604309,-4.866903305053711,-3.489205837249756,-3.1002354621887207,1.841562271118164,3.940659761428833,0.3078673779964447,-0.8007709383964539,0.04612608626484871,2.3036980628967285
121,34294,34291,0.028855646029114723,-0.03932539373636246,0.9713942408561707,-5.0350799560546875,-1.5276000499725342,-2.937669515609741,1.8432059288024902,3.94016170501709,0.3083631098270416,-0.8269147276878357,0.030385926365852356,2.2760276794433594
122,34304,34301,-0.0017260501626878977,-0.015318638645112514,0.9851722717285156,-2.2501471042633057,-2.6558773517608643,-2.26090669631958,1.8438224792480469,3.940453290939331,0.3088134229183197,-0.8582003712654114,-0.05124484375119209,2.242757797241211
123,34314,34311,0.026565933600068092,-0.14553482830524445,0.9706993103027344,1.04898202419281,-4.1308979988098145,-1.879667043685913,1.8463681936264038,3.9397900104522705,0.30914050340652466,-0.9430544972419739,-0.010372325778007507,2.2268946170806885
124,34324,34321,0.026280121877789497,-0.05268190801143646,1.00478994846344,3.5882697105407715,-6.6675124168396,-2.171661853790283,1.8484362363815308,3.9399406909942627,0.3106544017791748,-0.9797254800796509,0.001525490079075098,2.206780195236206
125,34334,34331,0.018071942031383514,-0.02297922968864441,0.9568264484405518,4.495392799377441,-8.361387252807617,-1.7641804218292236,1.8487671613693237,3.938939332962036,0.31120774149894714,-0.8201786875724792,0.1275019496679306,2.198974609375
126,34344,34341,-0.012306254357099533,-0.01062047854065895,0.9907469153404236,2.9503681659698486,-9.809268951416016,-1.8213974237442017,1.8501527309417725,3.9380154609680176,0.3117956221103668,-0.6516544818878174,0.1761210560798645,2.182863473892212
127,34354,34351,-0.009593875147402287,-0.03645603358745575,0.9621621966362,-1.2907108068466187,-9.519486427307129,-1.4741076231002808,1.8521488904953003,3.9387245178222656,0.3111058175563812,-0.6879225969314575,0.11766652762889862,2.1528239250183105
128,34364,34361,-0.009621242992579937,-0.026431569829583168,0.9767211675643921,-5.314715385437012,-8.135099411010742,-0.5696642398834229,1.8502260446548462,3.9405901432037354,0.3116104304790497,-0.41658714413642883,0.07301714271306992,2.1510605812072754
129,34374,34371,-0.012399829924106598,0.11240384727716446,0.9822321534156799,-6.334576606750488,-7.344141483306885,0.010271357372403145,1.8512431383132935,3.940380334854126,0.3119620382785797,-0.3320748209953308,0.044462334364652634,2.146526575088501
130,34384,34381,-0.013437635265290737,0.012952272780239582,0.9855230450630188,-5.780549049377441,-4.740802764892578,0.2449071854352951,1.853006362915039,3.9404561519622803,0.3122221827507019,-0.33566904067993164,-0.07433682680130005,2.1407246589660645
131,34394,34391,-0.0032825572416186333,0.01106191985309124,1.0001522302627563,-4.722973823547363,-2.6410224437713623,0.22325344383716583,1.8544596433639526,3.9391229152679443,0.3124365210533142,-0.3046298623085022,-0.024433119222521782,2.148315191268921
132,34404,34401,-0.014514290727674961,0.0062859803438186646,0.9769033789634705,-2.4065136909484863,-2.309978485107422,0.6132152676582336,1.8557395935058594,3.9398131370544434,0.31276535987854004,-0.2966420352458954,-0.18254487216472626,2.144441604614258
133,34414,34411,-0.030208231881260872,0.03012583777308464,0.9501926898956299,-1.9307044744491577,-1.5064148902893066,1.0243648290634155,1.8576595783233643,3.9399092197418213,0.3130231499671936,-0.29587769508361816,-0.22669242322444916,2.148421049118042
134,34424,34421,0.004809775855392218,-0.00048653632984496653,0.9339013695716858,-0.899092972278595,0.3702421188354492,1.676403522491455,1.8584836721420288,3.9397482872009277,0.31557998061180115,-0.23830240964889526,-0.25779396295547485,2.1588733196258545
135,34434,34431,0.009700796566903591,0.002874057274311781,0.9907400012016296,-0.22342343628406525,0.17347420752048492,0.8682788014411926,1.859288215637207,3.9393656253814697,0.31592467427253723,-0.20306897163391113,-0.27173587679862976,2.1747190952301025
136,34444,34441,0.01091376505792141,-0.014480815269052982,1.0206890106201172,2.334282398223877,-1.3260904550552368,0.682469367980957,1.860883355140686,3.9380736351013184,0.316216379404068,-0.2378900647163391,-0.1902775764465332,2.1849629878997803
137,34454,34451,0.010228659957647324,-0.0320533812046051,0.9800480008125305,2.8495025634765625,-2.8370344638824463,-0.0721563994884491,1.8622827529907227,3.9382681846618652,0.31830936670303345,-0.2437383234500885,-0.15761928260326385,2.192603349685669
138,34464,34461,0.04311051219701767,0.018421847373247147,0.9484009742736816,0.8260107040405273,-3.6519973278045654,-0.9187792539596558,1.8616726398468018,3.9383420944213867,0.31882649660110474,-0.08660519868135452,-0.12682105600833893,2.19193959236145
139,34474,34471,0.07329544425010681,-0.012316680513322353,0.9411157965660095,-3.070371150970459,-8.529335975646973,-1.7089688777923584,1.863258719444275,3.9389309883117676,0.31912675499916077,-0.22101135551929474,-0.21430015563964844,2.186441421508789
140,34484,34481,0.01610257849097252,-0.02908598631620407,1.009688138961792,-8.974059104919434,-7.836108684539795,-2.5185773372650146,1.8637902736663818,3.938900947570801,0.31956297159194946,-0.06060883402824402,-0.22657795250415802,2.1688783168792725
141,34494,34491,0.015046472661197186,-0.142933651804924,0.9931468367576599,-9.910808563232422,-7.600497722625732,-3.3094894886016846,1.8654881715774536,3.939080238342285,0.3179246783256531,-0.039649080485105515,-0.37945160269737244,2.1408209800720215
142,34504,34501,0.014038068242371082,-0.03959012031555176,0.9527894258499146,-6.761369228363037,-6.986431121826172,-3.2651236057281494,1.8664292097091675,3.938204765319824,0.31817156076431274,0.063155397772789,-0.378884494304657,2.106890916824341
143,34514,34511,0.011310265399515629,0.026904046535491943,0.9806374907493591,-1.6886236667633057,-3.2654266357421875,-3.645690679550171,1.8661842346191406,3.937901020050049,0.31849774718284607,0.27907902002334595,-0.47556784749031067,2.0642294883728027
144,34524,34521,0.07473931461572647,0.014764699153602123,0.9342764616012573,1.87478768825531,0.4964859187602997,-3.870069742202759,1.8676886558532715,3.937920570373535,0.31945937871932983,0.2667192220687866,-0.49547508358955383,2.029869794845581
145,34534,34531,0.07356017082929611,-0.029764708131551743,0.9605710506439209,4.854452610015869,2.5773770809173584,-4.670762538909912,1.869551420211792,3.937506914138794,0.31955602765083313,0.19783587753772736,-0.4566343128681183,1.9922358989715576
146,34544,34541,0.048637114465236664,-0.13056643307209015,0.9965949058532715,4.46811056137085,2.443389654159546,-4.542613983154297,1.8713840246200562,3.937303066253662,0.3196653425693512,0.18221504986286163,-0.3815516531467438,1.9444516897201538
147,34554,34551,-0.006348072085529566,-0.14240780472755432,1.0186922550201416,2.3099353313446045,1.4270905256271362,-5.143738746643066,1.8736412525177002,3.936762571334839,0.3179554343223572,-0.0437149703502655,-0.3160881996154785,1.9059324264526367
148,34564,34561,0.020130453631281853,-0.15792398154735565,0.9775904417037964,-0.762468695640564,2.2129311561584473,-5.716980934143066,1.874808669090271,3.9366230964660645,0.3179835081100464,-0.017985187470912933,-0.29139289259910583,1.852807641029358
149,34574,34571,0.001641492242924869,-0.024906467646360397,1.0048778057098389,-3.2528235912323,0.7949337363243103,-6.451397895812988,1.8749836683273315,3.9362826347351074,0.3181067705154419,0.07319820672273636,-0.30993854999542236,1.785523772239685
150,34584,34581,0.06431380659341812,0.010939649306237698,0.9374167919158936,-5.018398761749268,-2.42097544670105,-6.886214256286621,1.875695824623108,3.9360952377319336,0.31811320781707764,0.10486485064029694,-0.3691592216491699,1.7214120626449585
151,34594,34591,-0.0412290096282959,-0.011014662683010101,1.0206384658813477,-4.7367353439331055,-5.364620208740234,-6.8295087814331055,1.8754197359085083,3.936284303665161,0.319528728723526,0.25297051668167114,-0.4489865303039551,1.64390230178833
152,34604,34601,0.010237752459943295,-0.046699654310941696,0.9936761856079102,-3.4913790225982666,-5.377525329589844,-6.688941478729248,1.8758562803268433,3.936128616333008,0.3196187913417816,0.27938270568847656,-0.3728307783603668,1.5768277645111084
153,34614,34611,-0.02230084128677845,-0.0730903223156929,1.0224965810775757,-0.9947346448898315,-3.708512306213379,-7.02812385559082,1.8770174980163574,3.9356467723846436,0.3196198046207428,0.30650579929351807,-0.4285629093647003,1.5083197355270386
154,34624,34621,-0.047116946429014206,-0.06721539795398712,1.0187572240829468,2.1835272312164307,-0.4702344536781311,-7.268775463104248,1.8775049448013306,3.936476469039917,0.31770598888397217,0.3066018223762512,-0.510714054107666,1.448703408241272
155,34634,34631,-0.05635291710495949,0.0347556546330452,1.0171211957931519,4.514660835266113,3.3920204639434814,-7.372751712799072,1.878714919090271,3.9358527660369873,0.31759321689605713,0.25933030247688293,-0.4602047801017761,1.3769375085830688
156,34644,34641,-0.05380004644393921,0.13492150604724884,0.9829733371734619,5.036170959472656,6.914475917816162,-7.4996256828308105,1.8789583444595337,3.9363458156585693,0.31762734055519104,0.30489200353622437,-0.45850658416748047,1.3052868843078613
157,34654,34651,0.005557183176279068,0.1422051191329956,0.9722653031349182,5.042605876922607,9.705679893493652,-7.822937965393066,1.8794375658035278,3.9357216358184814,0.3167182207107544,0.28254935145378113,-0.3701285123825073,1.2237945795059204
158,34664,34661,0.02188192866742611,0.09974714368581772,0.9767717719078064,5.512504577636719,9.450114250183105,-8.454774856567383,1.880948781967163,3.935272693634033,0.31664928793907166,0.21379952132701874,-0.2805284261703491,1.1397411823272705
159,34674,34671,0.013278273865580559,-0.06967793405056,0.9715063571929932,7.043826103210449,4.527523994445801,-9.08495807647705,1.8811148405075073,3.935558319091797,0.3165484368801117,0.15525230765342712,-0.25803208351135254,1.0582586526870728
160,34684,34681,0.02459820918738842,-0.030512673780322075,0.9857050180435181,6.484823226928711,0.5824957489967346,-9.37723159790039,1.882073998451233,3.9347517490386963,0.3175966739654541,0.0979754701256752,-0.14045479893684387,0.9634132981300354
161,34694,34691,-0.03390765190124512,-0.004336595069617033,1.012868046760559,4.070387840270996,-2.6397457122802734,-8.859811782836914,1.8813151121139526,3.9349477291107178,0.31761932373046875,0.26282304525375366,-0.1188783124089241,0.8631678819656372
162,34704,34701,-0.010867182165384293,0.0077497889287769794,0.9927901029586792,0.4055197536945343,-3.228659152984619,-8.776402473449707,1.8835067749023438,3.9345014095306396,0.3174733817577362,-0.003940223716199398,-0.062610924243927,0.7837642431259155
163,34714,34711,-0.002197737107053399,0.021285511553287506,1.0126135349273682,-2.1341943740844727,-3.9924919605255127,-8.546859741210938,1.8844317197799683,3.934375047683716,0.3174164891242981,0.04877590760588646,-0.06886228173971176,0.6965386271476746
164,34724,34721,0.02828632853925228,-0.050191909074783325,0.9496271014213562,-1.026867389678955,-4.758225440979004,-7.194380760192871,1.8861724138259888,3.9349563121795654,0.319873183965683,-0.04926026985049248,-0.10430102795362473,0.6209016442298889
165,34734,34731,-0.02363876812160015,-0.0022563438396900892,1.0509461164474487,3.075535774230957,-8.097997665405273,-5.213480472564697,1.8865559101104736,3.9354658126831055,0.3200196623802185,0.0720537006855011,-0.17681916058063507,0.5538246035575867
166,34744,34741,-0.03149959444999695,-0.030047379434108734,1.035954236984253,6.9744791984558105,-5.959152698516846,-2.596076726913452,1.8859187364578247,3.9350380897521973,0.320275217294693,0.3105895519256592,-0.10108573734760284,0.48547622561454773
167,34754,34751,-0.023726796731352806,-0.0242594163864851,1.0242127180099487,8.570845603942871,-3.466876268386841,-0.4893127679824829,1.8869540691375732,3.9349310398101807,0.31812307238578796,0.281168669462204,-0.04844534397125244,0.46036943793296814
168,34764,34761,-0.014031250961124897,0.0009337260853499174,1.0182408094406128,9.240616798400879,-0.09331955015659332,0.40964174270629883,1.8864229917526245,3.9345264434814453,0.3182884454727173,0.5070481896400452,0.10525235533714294,0.4424915015697479
169,34774,34771,0.06794417649507523,-0.00325966184027493,0.9782904982566833,7.6285223960876465,3.0145838260650635,0.9140865802764893,1.8865476846694946,3.934755325317383,0.31840968132019043,0.5676442980766296,0.17711715400218964,0.451215922832489
170,34784,34781,0.06613697111606598,-0.05958257615566254,0.9799234867095947,4.196447849273682,5.228396415710449,1.1822072267532349,1.8868401050567627,3.9358887672424316,0.31629565358161926,0.5699540972709656,0.14355556666851044,0.47205114364624023
171,34794,34791,0.031030088663101196,-0.10990723967552185,1.0062543153762817,3.6663191318511963,3.702803134918213,2.171782970428467,1.8886537551879883,3.9353678226470947,0.3161645531654358,0.3882957696914673,0.2269488126039505,0.4798291325569153
172,34804,34801,-0.03514886647462845,-0.047022998332977295,1.01276433467865,4.216500282287598,4.215632915496826,3.563352108001709,1.890451431274414,3.9359042644500732,0.3159857392311096,0.23708182573318481,0.22151371836662292,0.504641592502594
173,34814,34811,-0.015024463646113873,-0.014384279027581215,1.0207690000534058,5.098550796508789,3.8288211822509766,5.224698066711426,1.8902026414871216,3.935678005218506,0.31602466106414795,0.32903414964675903,0.31008830666542053,0.5334801077842712
174,34824,34821,-0.04179135337471962,0.03631783276796341,1.0044349431991577,3.5292322635650635,2.434619426727295,5.946943759918213,1.8909029960632324,3.935673713684082,0.31592434644699097,0.27211493253707886,0.39846551418304443,0.5843459963798523
175,34834,34831,-0.009957010857760906,0.11837824434041977,1.037475824356079,1.362166404724121,2.573185920715332,6.882000923156738,1.8910714387893677,3.9348902702331543,0.3158803880214691,0.3038158118724823,0.45424512028694153,0.6337104439735413
176,34844,34841,0.0027183855418115854,0.08751115947961807,1.0588195323944092,-0.9306056499481201,0.18170124292373657,7.435506343841553,1.8938921689987183,3.9364328384399414,0.3157394826412201,0.029019340872764587,0.3163514733314514,0.7114832997322083
177,34854,34851,-0.005506447050720453,-0.017362941056489944,0.9805660247802734,-3.225593090057373,1.044199824333191,7.314541339874268,1.8934504985809326,3.9362151622772217,0.3165796101093292,0.10273503512144089,0.29803475737571716,0.7838441729545593
178,34864,34861,-0.045413680374622345,0.0692560225725174,0.9970059394836426,-2.3316822052001953,-1.4349089860916138,7.7933549880981445,1.893509030342102,3.936082124710083,0.31668519973754883,0.17320849001407623,0.2644237279891968,0.8599664568901062
179,34874,34871,0.0015363470884039998,0.027378519997000694,1.0092467069625854,-1.2169674634933472,-2.020771026611328,7.962959289550781,1.893761157989502,3.9364678859710693,0.31674039363861084,0.19855572283267975,0.24292618036270142,0.9363952875137329
180,34884,34881,-0.019780002534389496,0.06515086442232132,1.070595622062683,1.0567400455474854,-1.714672565460205,7.962627410888672,1.8947101831436157,3.936519145965576,0.31757211685180664,0.2230985015630722,0.24584975838661194,1.0154168605804443
181,34894,34891,-0.009515451267361641,0.03580040857195854,1.0724085569381714,4.636523723602295,-0.7816342711448669,7.565786838531494,1.8958261013031006,3.937295913696289,0.3176991045475006,0.17081700265407562,0.28456956148147583,1.0965546369552612
182,34904,34901,0.0025733557995408773,0.015936795622110367,1.0188244581222534,6.565176486968994,2.5307772159576416,7.263031959533691,1.8956217765808105,3.936110496520996,0.31795257329940796,0.25385141372680664,0.37319323420524597,1.173912525177002
183,34914,34911,-0.001584622892551124,0.040984321385622025,0.980461061000824,4.7452311515808105,5.435875415802002,7.706236362457275,1.895642638206482,3.9371864795684814,0.31824734807014465,0.27325111627578735,0.3261246979236603,1.2512129545211792
184,34924,34921,0.012901782989501953,-0.007050149142742157,0.97669517993927,3.733248710632324,6.54472541809082,7.658988952636719,1.896321415901184,3.936718463897705,0.31774044036865234,0.24814985692501068,0.41415077447891235,1.3233400583267212
185,34934,34931,-0.0032648835331201553,-0.01160487625747919,1.00920569896698,2.338940143585205,7.278139591217041,7.340976715087891,1.8966209888458252,3.9363420009613037,0.31792882084846497,0.1986246556043625,0.4788169860839844,1.3981395959854126
186,34944,34941,0.029507901519536972,-0.10061024874448776,1.0212419033050537,1.8210432529449463,9.36120319366455,6.704057693481445,1.8972469568252563,3.9374349117279053,0.3181205093860626,0.13145840167999268,0.4478178024291992,1.485567331314087
187,34954,34951,0.01897290162742138,-0.10081367194652557,0.9895612597465515,-0.07091598957777023,14.612177848815918,5.734607219696045,1.8981291055679321,3.9373629093170166,0.3175593316555023,0.02385854907333851,0.483442097902298,1.5507029294967651
188,34964,34961,-0.013556085526943207,-0.015632562339305878,0.9899178147315979,-2.0739779472351074,17.15913200378418,5.789243221282959,1.8974415063858032,3.935633897781372,0.31778061389923096,-0.08338064700365067,0.6348152160644531,1.5938061475753784
189,34974,34971,0.03876601159572601,-0.11179842054843903,0.954147458076477,-1.6468411684036255,16.13370132446289,5.951329708099365,1.898740291595459,3.9358463287353516,0.3178800046443939,-0.30374833941459656,0.5970135927200317,1.6488879919052124
190,34984,34981,-0.04245811700820923,0.0018749020528048277,1.0029903650283813,-2.3893518447875977,14.914807319641113,5.712090969085693,1.8969615697860718,3.9363462924957275,0.317170113325119,-0.2058541178703308,0.47832536697387695,1.7157073020935059
191,34994,34991,-0.07479064166545868,-0.001167726586572826,0.9122757911682129,-3.3212759494781494,11.596076965332031,6.275095462799072,1.897072672843933,3.9361040592193604,0.31724783778190613,-0.31724193692207336,0.4437503218650818,1.7846300601959229
192,35004,35001,-0.09137217700481415,0.10578324645757675,1.0023733377456665,-4.373459815979004,10.441069602966309,6.372975826263428,1.8977398872375488,3.936633825302124,0.3172658681869507,-0.46853873133659363,0.38890787959098816,1.845194697380066
193,35014,35011,0.04381546378135681,-0.04044568911194801,0.9710045456886292,-5.80900239944458,10.077341079711914,5.878511905670166,1.8984577655792236,3.9361791610717773,0.317211776971817,-0.6138073205947876,0.38716477155685425,1.9056521654129028
194,35024,35021,0.0047029959969222546,0.08602411299943924,0.9538988471031189,-6.125022888183594,11.323712348937988,5.80569314956665,1.8985261917114258,3.936347484588623,0.31422075629234314,-0.7450591325759888,0.2959769368171692,1.9590445756912231
195,35034,35031,0.0031671090982854366,0.08854749798774719,0.9440640807151794,-7.369373798370361,12.53222942352295,5.91152811050415,1.8987230062484741,3.936741828918457,0.3139791190624237,-0.8289347887039185,0.1857617348432541,2.025646924972534
196,35044,35041,0.009061639197170734,-0.018442213535308838,0.9845648407936096,-6.560439586639404,9.885880470275879,4.98478364944458,1.8995341062545776,3.9365100860595703,0.3136506676673889,-0.9956993460655212,0.14768525958061218,2.088304281234741
197,35054,35051,-0.01647423952817917,-0.0651329904794693,0.996770977973938,-5.017881393432617,5.183023929595947,4.305784225463867,1.898817539215088,3.935332775115967,0.31662148237228394,-1.028882622718811,0.194026380777359,2.145298719406128
198,35064,35061,-0.018627861514687538,-0.02466968446969986,1.001861572265625,-4.168131351470947,1.2143715620040894,4.379998683929443,1.8997416496276855,3.9356815814971924,0.31644144654273987,-1.1281684637069702,0.0989164337515831,2.1737349033355713
199,35074,35071,-0.011751887388527393,0.012070810422301292,1.0124963521957397,-2.7943334579467773,-2.465372323989868,5.274075984954834,1.9002403020858765,3.9354047775268555,0.31627848744392395,-1.1474921703338623,0.032226793467998505,2.2157506942749023
200,35084,35081,-0.013856093399226665,0.021431323140859604,1.0011790990829468,-2.9421675205230713,-5.701662063598633,4.675876140594482,1.9009674787521362,3.9355010986328125,0.31638094782829285,-1.1143425703048706,-0.017616653814911842,2.2565817832946777
201,35094,35091,-0.00487495306879282,0.01217858400195837,0.9353619813919067,-3.746408462524414,-8.671675682067871,5.707198143005371,1.9015378952026367,3.934650182723999,0.3162733018398285,-1.1086782217025757,0.07812019437551498,2.32145619392395
202,35104,35101,-0.030482217669487,0.033741649240255356,1.0264016389846802,-3.3223400115966797,-11.392457008361816,5.816669464111328,1.9026926755905151,3.9349098205566406,0.3160959780216217,-1.0430654287338257,5.373653402784839e-05,2.371852159500122
203,35114,35111,-0.020957769826054573,0.06922534853219986,0.998906135559082,-5.601235866546631,-9.691853523254395,6.46378755569458,1.9026293754577637,3.935842514038086,0.31207624077796936,-0.8666293621063232,-0.16321201622486115,2.4227607250213623
204,35124,35121,-0.005458303261548281,0.07018694281578064,0.9831843972206116,-4.409266471862793,-7.730486869812012,6.692193508148193,1.9022343158721924,3.935138702392578,0.3117760419845581,-0.7223333120346069,-0.16903184354305267,2.4933722019195557
205,35134,35131,0.003760966705158353,-0.01058261003345251,0.9834181666374207,-1.7307639122009277,-3.6875412464141846,7.002724647521973,1.901923656463623,3.9353384971618652,0.3113933205604553,-0.5575757622718811,-0.23574842512607574,2.559666156768799
206,35144,35141,-0.01637112908065319,-0.007217255886644125,1.0246524810791016,1.932218313217163,1.406511902809143,7.339401721954346,1.9017223119735718,3.9365460872650146,0.3110632598400116,-0.5450959801673889,-0.24174554646015167,2.653449535369873
207,35154,35151,0.011297370307147503,-0.021053073927760124,1.0212675333023071,4.929199695587158,4.8453497886657715,7.354564666748047,1.90277898311615,3.936339855194092,0.3095371127128601,-0.6186667084693909,-0.1913938969373703,2.729707956314087
208,35164,35161,0.07034049928188324,-0.029926203191280365,1.011445164680481,8.159421920776367,7.984289169311523,6.432669639587402,1.9032546281814575,3.9365041255950928,0.30912625789642334,-0.6773669719696045,-0.08979802578687668,2.8111016750335693
209,35174,35171,0.01210582535713911,-0.012067364528775215,1.0381851196289062,8.806092262268066,5.960440158843994,6.344837665557861,1.9037507772445679,3.937049388885498,0.3087230920791626,-0.736578106880188,-0.02667457051575184,2.880100965499878
210,35184,35181,0.0009472469100728631,-0.032661933451890945,1.020066261291504,6.014423370361328,3.4706945419311523,5.920819282531738,1.9057860374450684,3.9368462562561035,0.30906474590301514,-0.9209120273590088,0.10225924849510193,2.947793483734131
211,35194,35191,-0.05408642813563347,0.024820221588015556,1.0592769384384155,1.584271788597107,1.5283199548721313,6.015395164489746,1.90483558177948,3.9365484714508057,0.3088373839855194,-0.8797057867050171,0.173681378364563,3.008345603942871
212,35204,35201,-0.050727568566799164,0.021142033860087395,1.0745939016342163,-3.751417875289917,-1.8025200366973877,5.422067165374756,1.9048970937728882,3.9366276264190674,0.30866122245788574,-0.811403751373291,0.16046501696109772,3.091536045074463
213,35214,35211,0.02469959668815136,-0.032797422260046005,1.0085911750793457,-6.4482293128967285,-3.986984968185425,5.723697185516357,1.906110405921936,3.937638998031616,0.30968180298805237,-0.8656458854675293,0.15344487130641937,3.150273561477661
214,35224,35221,-0.010881919413805008,-0.0135469576343894,1.031725525856018,-8.673296928405762,-4.873721122741699,5.419168472290039,1.9069087505340576,3.9393458366394043,0.3095945715904236,-0.8784525990486145,0.016194885596632957,3.2292637825012207
215,35234,35231,-0.0572960264980793,-0.046662505716085434,1.0558110475540161,-9.531824111938477,-4.530982494354248,5.684237003326416,1.9074984788894653,3.9387240409851074,0.30952560901641846,-0.9463675022125244,-0.1453293412923813,3.2635672092437744
216,35244,35241,-0.07622071355581284,-0.049471255391836166,1.0226061344146729,-8.311665534973145,-4.242164134979248,6.037384033203125,1.909439206123352,3.939399242401123,0.3093748986721039,-0.8450889587402344,-0.2164100557565689,3.3217296600341797
217,35254,35251,-0.05921504274010658,-0.11417927592992783,1.0540392398834229,-4.554193496704102,-3.7296841144561768,5.583003520965576,1.9103131294250488,3.9393224716186523,0.30998867750167847,-0.8328340649604797,-0.33622288703918457,3.3768999576568604
218,35264,35261,0.013107274658977985,-0.06020788103342056,1.0114922523498535,-1.3730518817901611,-2.49052095413208,4.992703437805176,1.9115749597549438,3.939739465713501,0.3100115954875946,-0.9069312214851379,-0.3849748373031616,3.4269375801086426
219,35274,35271,-0.06731154769659042,0.06812875717878342,1.032641887664795,3.2227206230163574,-1.8356685638427734,4.545333385467529,1.9138481616973877,3.939553737640381,0.3099934160709381,-0.7537887692451477,-0.3640390932559967,3.475707530975342
220,35284,35281,-0.0218517929315567,0.007851215079426765,1.030426025390625,4.052894592285156,-1.1736193895339966,4.038907527923584,1.9126919507980347,3.938572406768799,0.311703622341156,-0.6320777535438538,-0.29763585329055786,3.5073349475860596
221,35294,35291,0.0193663127720356,0.023097533732652664,1.0146822929382324,2.0844082832336426,-1.000895380973816,2.895432472229004,1.9131437540054321,3.9385454654693604,0.3119564950466156,-0.7694385051727295,-0.24522875249385834,3.5501761436462402
222,35304,35301,-0.029543960466980934,0.03191937506198883,0.9956632852554321,-1.0902448892593384,-0.8778015375137329,2.3115663528442383,1.9157978296279907,3.937533140182495,0.31210851669311523,-0.8155224323272705,-0.2317894697189331,3.5463151931762695
223,35314,35311,0.010851644910871983,0.05244722589850426,0.962741494178772,-2.328812837600708,-2.3044843673706055,1.3678494691848755,1.9159964323043823,3.937386989593506,0.3143612742424011,-0.6817876100540161,-0.2526516616344452,3.5511395931243896
224,35324,35321,0.06107020750641823,-0.05034908279776573,1.0278514623641968,-4.12409782409668,-3.5258703231811523,1.1353635787963867,1.9182847738265991,3.9372718334198,0.3145397901535034,-0.8460441827774048,-0.3041280508041382,3.5670785903930664
225,35334,35331,0.039563972502946854,-0.05157060921192169,1.0355360507965088,-4.761114597320557,-4.567668914794922,0.20853307843208313,1.9192363023757935,3.9368860721588135,0.31487858295440674,-0.7391209602355957,-0.37543389201164246,3.5612988471984863
226,35344,35341,-6.360835686791688e-05,-0.005023788195103407,1.0015032291412354,-3.861070394515991,-5.905043601989746,-0.5926812887191772,1.9198944568634033,3.9376654624938965,0.315327912569046,-0.7788586020469666,-0.4407688081264496,3.5718154907226562
227,35354,35351,-0.0019204706186428666,-0.02909254841506481,1.0472910404205322,-2.1979892253875732,-5.139883995056152,-2.027815103530884,1.9200752973556519,3.937980890274048,0.3174264430999756,-0.5441507697105408,-0.49050354957580566,3.5636985301971436
228,35364,35361,0.11203683167695999,-0.11956696212291718,0.9295170903205872,-0.31167152523994446,-6.043066024780273,-2.4352707862854004,1.9210261106491089,3.9385154247283936,0.3179086148738861,-0.4979879856109619,-0.5136305689811707,3.5334630012512207
229,35374,35371,0.0409630611538887,-0.03523167222738266,0.961784303188324,2.451371192932129,-4.420629501342773,-3.2546229362487793,1.922071099281311,3.9381914138793945,0.3183387815952301,-0.4593223035335541,-0.49229684472084045,3.522197723388672
230,35384,35381,0.03857148438692093,-0.058790598064661026,1.0436934232711792,4.001979351043701,-0.8762392997741699,-4.0335283279418945,1.9229810237884521,3.9386441707611084,0.31795796751976013,-0.37428057193756104,-0.4367319941520691,3.5172386169433594
231,35394,35391,0.03018483705818653,-0.07995349168777466,0.9618773460388184,4.909412860870361,1.0249630212783813,-4.988148212432861,1.9227219820022583,3.9383232593536377,0.3183961808681488,-0.34100303053855896,-0.35739800333976746,3.484703779220581
232,35404,35401,-0.01369696855545044,-0.01766940765082836,0.9596346020698547,4.401242256164551,3.4279661178588867,-5.574494361877441,1.9234156608581543,3.9380264282226562,0.31878650188446045,-0.5001727938652039,-0.34884700179100037,3.432922124862671
233,35414,35411,-0.0652870312333107,0.050380293279886246,1.0115827322006226,1.0992381572723389,3.6884381771087646,-6.004725456237793,1.9255250692367554,3.938852548599243,0.31775641441345215,-0.4989640712738037,-0.2796655297279358,3.3673970699310303
234,35424,35421,0.019004523754119873,-0.025591136887669563,0.9588779211044312,-1.6697642803192139,2.5520946979522705,-6.047584533691406,1.9259364604949951,3.939208507537842,0.318119078874588,-0.4456677734851837,-0.3446962535381317,3.3121469020843506
235,35434,35431,0.03146803751587868,0.014936204999685287,0.9435408115386963,-2.4030203819274902,-2.264370918273926,-6.4994611740112305,1.927325963973999,3.9387311935424805,0.3182620108127594,-0.5866579413414001,-0.36318179965019226,3.245682716369629
236,35444,35441,0.03919149935245514,-0.01839567720890045,0.9879797697067261,-2.3662116527557373,-7.059942245483398,-6.419456481933594,1.9281014204025269,3.9395434856414795,0.32074519991874695,-0.48528698086738586,-0.39717862010002136,3.198225975036621
237,35454,35451,0.06076569855213165,-0.0037173775490373373,0.9583564400672913,-0.19197531044483185,-9.162032127380371,-6.715587615966797,1.9281740188598633,3.939230442047119,0.3211207389831543,-0.33381855487823486,-0.40742596983909607,3.1124019622802734
238,35464,35461,0.05746518075466156,0.005842183250933886,0.9475416541099548,2.236924648284912,-8.990641593933105,-7.169025421142578,1.929060697555542,3.939312696456909,0.32138243317604065,-0.3151090145111084,-0.3852066993713379,3.047750473022461
239,35474,35471,0.032443661242723465,-0.01840730756521225,0.9422957897186279,4.483641147613525,-8.021242141723633,-6.81211519241333,1.9309706687927246,3.9388492107391357,0.3215791583061218,-0.21334436535835266,-0.31738540530204773,2.9781227111816406
