,timestamp_start,timestamp_end,acc.x,acc.y,acc.z,gyro.x,gyro.y,gyro.z,stateEstimate.x,stateEstimate.y,stateEstimate.z,stabilizer.pitch,stabilizer.roll,stabilizer.yaw
0,33728,33723,0.003033003071323037,0.05907478183507919,0.9458024501800537,0.42512792348861694,7.433745861053467,2.8272011280059814,0.5676988363265991,0.47415903210639954,0.16767869889736176,0.8025345802307129,0.038135506212711334,1.9337880611419678
1,33738,33733,0.0023460614029318094,-0.0056366282515227795,0.9809251427650452,-5.006468772888184,0.34026023745536804,2.612017869949341,0.566884458065033,0.47647127509117126,0.17020519077777863,0.8530745506286621,-0.36757025122642517,2.0106430053710938
2,33748,33743,0.0014289828250184655,0.019651437178254128,1.0674463510513306,-7.791315078735352,-3.237264633178711,2.1312613487243652,0.5668975710868835,0.4735499322414398,0.17276549339294434,0.8291248083114624,0.116309754550457,1.9844434261322021
3,33758,33753,0.00909011997282505,-0.026651134714484215,1.032455325126648,-6.844815731048584,-3.112614393234253,2.134875535964966,0.5667884349822998,0.47390449047088623,0.17210330069065094,0.8752321600914001,-0.05794072523713112,2.0169904232025146
4,33768,33763,0.00951103214174509,0.00943666324019432,1.0016297101974487,-7.056033134460449,-3.151813507080078,1.5016738176345825,0.5666499733924866,0.47283411026000977,0.17371827363967896,0.9297837615013123,0.01231017429381609,2.0266904830932617
5,33778,33773,0.016495205461978912,-0.013039106503129005,1.03255033493042,-7.29911994934082,0.9161179661750793,1.6064492464065552,0.5656539797782898,0.4731524884700775,0.17552998661994934,1.1111981868743896,-0.16949695348739624,2.054898500442505
6,33788,33783,0.004770221188664436,-0.004791936371475458,1.055189609527588,-7.015721797943115,5.4347615242004395,1.6664836406707764,0.5671412944793701,0.47351565957069397,0.17622476816177368,0.8301402926445007,-0.3334362506866455,2.071230888366699
7,33798,33793,0.008735531009733677,-0.022180423140525818,1.0273414850234985,-5.735140323638916,10.165430068969727,1.2614434957504272,0.5669204592704773,0.475228875875473,0.17795884609222412,0.8163125514984131,-0.7054672837257385,2.1064188480377197
8,33808,33803,0.024653056636452675,-0.022318586707115173,1.0532646179199219,-3.6899898052215576,11.294228553771973,1.2926605939865112,0.5673547983169556,0.47639086842536926,0.17945827543735504,0.640954852104187,-0.9329781532287598,2.1284806728363037
9,33818,33813,0.04300444945693016,-0.17165517807006836,1.0760152339935303,2.667252540588379,10.929783821105957,0.9257256388664246,0.5678851008415222,0.47220081090927124,0.18316976726055145,0.4559468626976013,-0.25182145833969116,2.1099586486816406
10,33828,33823,-0.003763523418456316,0.06716360151767731,1.0683356523513794,5.402998447418213,8.288735389709473,1.355651617050171,0.5678986310958862,0.47344282269477844,0.18477272987365723,0.3495161533355713,-0.506131649017334,2.1278598308563232
11,33838,33833,0.03037787228822708,0.02802753448486328,0.9992310404777527,5.210824966430664,4.10387659072876,1.5524780750274658,0.566706657409668,0.47363603115081787,0.1869487762451172,0.43968358635902405,-0.5083215832710266,2.1355559825897217
12,33848,33843,0.022357938811182976,0.018769646063447,1.0953532457351685,5.434558868408203,-0.9519649744033813,1.6459490060806274,0.5647919178009033,0.4757840931415558,0.1888713389635086,0.6540132164955139,-0.8061991333961487,2.144709825515747
13,33858,33853,0.01369559857994318,-0.04011884704232216,1.0351698398590088,5.37082052230835,-1.3290446996688843,1.525084376335144,0.5646629929542542,0.4765421450138092,0.19093839824199677,0.602544903755188,-0.8280866742134094,2.1629130840301514
14,33868,33863,0.03787904977798462,-0.038338903337717056,0.960252046585083,7.37547492980957,0.17776809632778168,1.34197199344635,0.5636717677116394,0.4772174656391144,0.19290520250797272,0.7131778001785278,-0.8275821208953857,2.1757593154907227
15,33878,33873,0.00884583592414856,-0.04406430572271347,1.0124046802520752,9.979991912841797,3.1224732398986816,1.1905702352523804,0.5636987686157227,0.47832944989204407,0.19500719010829926,0.6281688213348389,-0.8619444370269775,2.1929495334625244
16,33888,33883,0.011353868059813976,-0.10027558356523514,1.0641045570373535,12.439323425292969,9.064308166503906,1.065641164779663,0.5633474588394165,0.4783182442188263,0.1972375065088272,0.5989286303520203,-0.688646674156189,2.205620050430298
17,33898,33893,-0.017804820090532303,-0.03148707374930382,1.0548105239868164,14.329651832580566,12.089186668395996,1.297650694847107,0.5632021427154541,0.48075148463249207,0.1991281807422638,0.4838747978210449,-0.8580021262168884,2.2161262035369873
18,33908,33903,0.014371738769114017,0.003387624863535166,1.029756784439087,14.604657173156738,13.409900665283203,1.3627899885177612,0.5627405643463135,0.48109742999076843,0.20149575173854828,0.3862013518810272,-0.6596131920814514,2.2270421981811523
19,33918,33913,0.04359414428472519,0.02584979683160782,1.0423078536987305,16.316787719726562,11.76251220703125,1.041796088218689,0.5633390545845032,0.481987863779068,0.20382560789585114,0.11128652095794678,-0.5338746309280396,2.2460503578186035
20,33928,33923,0.051873549818992615,-0.06443291902542114,1.0059360265731812,15.670839309692383,8.588805198669434,0.7310621738433838,0.5617020130157471,0.4822087287902832,0.20700405538082123,0.17493797838687897,-0.3090910315513611,2.2490546703338623
21,33938,33933,0.028667397797107697,-0.02185777761042118,1.0117591619491577,14.071022033691406,4.317817211151123,0.9306039810180664,0.5619449615478516,0.4841154217720032,0.20928846299648285,-0.0250460933893919,-0.31697919964790344,2.2536303997039795
22,33948,33943,0.0036631727125495672,-0.021782424300909042,0.9804262518882751,12.310115814208984,2.961808443069458,0.7155200839042664,0.5604925155639648,0.48499998450279236,0.21163766086101532,0.06513005495071411,-0.18010327219963074,2.255458116531372
23,33958,33953,0.012006056495010853,-0.08547763526439667,1.0608588457107544,11.590289115905762,-0.30488261580467224,0.4881237745285034,0.5595030784606934,0.48544350266456604,0.21349263191223145,0.10255225747823715,0.0006795343360863626,2.2637124061584473
24,33968,33963,0.005419477820396423,-0.06501664221286774,0.978574275970459,11.788558959960938,-0.7920705080032349,0.5904194116592407,0.5594611167907715,0.4859507977962494,0.21597406268119812,0.02405647188425064,0.15830503404140472,2.2738211154937744
25,33978,33973,-0.04061703756451607,0.023713797330856323,0.9484114646911621,10.682929992675781,1.0822616815567017,1.09334397315979,0.5594054460525513,0.48641669750213623,0.21844112873077393,-0.027627626433968544,0.315530925989151,2.283655881881714
26,33988,33983,-0.060262057930231094,0.06848598271608353,0.9885591864585876,9.921521186828613,1.7729144096374512,0.3986404240131378,0.5583364963531494,0.4869491457939148,0.2208503633737564,0.053929030895233154,0.4520244598388672,2.294543743133545
27,33998,33993,0.012847199104726315,-0.02909017913043499,0.9482448101043701,7.903759479522705,2.9028472900390625,0.2678040564060211,0.5584520101547241,0.48757675290107727,0.22324727475643158,-0.04543954133987427,0.5632845163345337,2.301940679550171
28,34008,34003,-0.032821014523506165,-0.03308697044849396,1.0385023355484009,5.456603527069092,6.1883625984191895,0.08882980793714523,0.5573642253875732,0.48880672454833984,0.22551152110099792,0.004263776354491711,0.5760377645492554,2.301285982131958
29,34018,34013,-0.005488426424562931,-0.0003895654808729887,1.015824556350708,5.559898376464844,6.507184028625488,0.09523643553256989,0.5577132105827332,0.48908865451812744,0.22793442010879517,-0.14387649297714233,0.7049444317817688,2.303359031677246
30,34028,34023,0.020385054871439934,-0.009721467271447182,0.9433267116546631,4.402129173278809,6.128911972045898,0.09815657138824463,0.5581121444702148,0.4899156391620636,0.22819267213344574,-0.30061301589012146,0.732930600643158,2.2949719429016113
31,34038,34033,0.012722974643111229,-0.014653540216386318,0.9314679503440857,3.9315264225006104,4.126659870147705,0.3080081641674042,0.5577664375305176,0.4913826584815979,0.23032623529434204,-0.36344489455223083,0.6782753467559814,2.285562753677368
32,34048,34043,0.015057230368256569,-0.03045600652694702,0.9507221579551697,4.140654563903809,0.3128022849559784,0.37390872836112976,0.556156575679779,0.4916713237762451,0.23252806067466736,-0.2508407533168793,0.7719436287879944,2.310499668121338
33,34058,34053,0.008897758089005947,-0.0598432794213295,0.9896978139877319,6.4731974601745605,-1.6633331775665283,-0.22767604887485504,0.5561361312866211,0.4913758933544159,0.23518268764019012,-0.31846883893013,0.9335404634475708,2.324345350265503
34,34068,34063,0.020946217700839043,-0.057685695588588715,0.9765623807907104,6.432536602020264,-1.6472392082214355,-0.428116112947464,0.5554201602935791,0.49213436245918274,0.23726467788219452,-0.2713475227355957,0.9646096229553223,2.324047088623047
35,34078,34073,0.04025162011384964,0.023125678300857544,0.9186471104621887,4.77813720703125,-0.3289531469345093,-0.3846670985221863,0.5548267364501953,0.4923917055130005,0.23933298885822296,-0.2339351624250412,1.0675710439682007,2.327208995819092
36,34088,34083,0.10690975934267044,0.0492468886077404,0.8581400513648987,3.329765796661377,2.2240359783172607,-0.300820529460907,0.5549585819244385,0.49272140860557556,0.24124696850776672,-0.295779287815094,1.1406852006912231,2.3175406455993652
37,34098,34093,0.03341597691178322,0.0035924562253057957,0.9358086585998535,0.9236173033714294,2.776813507080078,-0.3114563226699829,0.5550628900527954,0.49374711513519287,0.24319280683994293,-0.37008312344551086,1.1172114610671997,2.297196626663208
38,34108,34103,-0.017118049785494804,-0.011466017924249172,0.9771671891212463,-1.137619972229004,2.139176845550537,-0.16543401777744293,0.5551856160163879,0.49493592977523804,0.24502110481262207,-0.44472813606262207,1.0630520582199097,2.275357723236084
39,34118,34113,0.03572404757142067,-0.08767366409301758,0.9486933946609497,-1.2731482982635498,0.7667945623397827,-0.07294313609600067,0.5553364157676697,0.4955836236476898,0.24519217014312744,-0.5114270448684692,1.047283411026001,2.2653963565826416
40,34128,34123,0.03476284444332123,-0.0428273007273674,0.9655490517616272,-1.771942377090454,0.33259981870651245,-0.4761558175086975,0.5554060935974121,0.4962671995162964,0.24683089554309845,-0.5566191673278809,1.0210440158843994,2.257741928100586
41,34138,34133,0.031244883313775063,-0.014673355035483837,0.9323570132255554,0.8219126462936401,-2.0022315979003906,-0.2015661597251892,0.554082453250885,0.49688589572906494,0.2484673112630844,-0.4340802729129791,0.9955378770828247,2.274214029312134
42,34148,34143,0.023673420771956444,-0.024452002719044685,0.9404715299606323,3.330240488052368,-4.170404434204102,-0.11307964473962784,0.5540001392364502,0.4967651069164276,0.25006717443466187,-0.4369034171104431,1.0732356309890747,2.2796003818511963
43,34158,34153,0.004622888285666704,-0.01754201389849186,0.9579393863677979,2.4339230060577393,-3.8114395141601562,-0.309395432472229,0.5537693500518799,0.49660009145736694,0.25463786721229553,-0.4061625003814697,1.1709377765655518,2.2885470390319824
44,34168,34163,0.00143245083745569,-0.016686908900737762,0.9592570662498474,3.5174336433410645,-3.829085350036621,-0.03832878917455673,0.5535634756088257,0.49705249071121216,0.2562774121761322,-0.3711797297000885,1.1871265172958374,2.2837212085723877
45,34178,34173,0.018749400973320007,-0.04336320236325264,0.9397297501564026,2.6029627323150635,-3.8613712787628174,-0.09241688251495361,0.5526686310768127,0.49739497900009155,0.2578621506690979,-0.26313236355781555,1.2164456844329834,2.2951512336730957
46,34188,34183,0.05287101864814758,-0.07935430109500885,0.9546694159507751,0.4424629211425781,-2.0956835746765137,-0.17301161587238312,0.5532069206237793,0.49859774112701416,0.26171940565109253,-0.31519877910614014,1.1641302108764648,2.2628016471862793
47,34198,34193,0.0332280732691288,-0.06033504381775856,0.9114826321601868,-1.360376238822937,0.0316857285797596,-0.19091561436653137,0.5524290800094604,0.49855223298072815,0.2633712887763977,-0.23154222965240479,1.2225980758666992,2.2792651653289795
48,34208,34203,-0.05627322942018509,-0.0254357997328043,1.0141874551773071,-3.0455758571624756,2.1129302978515625,-0.10102590173482895,0.5523808002471924,0.4986293911933899,0.2649640440940857,-0.24246639013290405,1.2437387704849243,2.278115749359131
49,34218,34213,0.043869830667972565,-0.0415002703666687,0.9348224997520447,-4.941020965576172,2.0913901329040527,-0.12733981013298035,0.5525919795036316,0.49881964921951294,0.26297852396965027,-0.2945939600467682,1.2305129766464233,2.270576000213623
50,34228,34223,0.07902286946773529,-0.08190573006868362,0.9307922720909119,-5.6502909660339355,0.6134762167930603,-0.1814284771680832,0.5526896119117737,0.4990474581718445,0.264262318611145,-0.3507247567176819,1.192102313041687,2.2646782398223877
51,34238,34233,0.04115797206759453,-0.058632511645555496,0.9279866814613342,-5.03764533996582,-0.8850193023681641,-0.18383769690990448,0.5520290732383728,0.4986686408519745,0.2654792368412018,-0.3068629801273346,1.2064706087112427,2.282693862915039
52,34248,34243,0.01465942244976759,0.03364495187997818,0.8995107412338257,-5.5925211906433105,-3.0175044536590576,-0.16621406376361847,0.5519277453422546,0.49964639544487,0.26663684844970703,-0.318118691444397,1.0672492980957031,2.2662036418914795
53,34258,34253,0.018802423030138016,0.00573295634239912,0.9478735327720642,-4.510053634643555,-3.4986209869384766,-0.4847152531147003,0.5516926646232605,0.49996107816696167,0.26917964220046997,-0.29547974467277527,1.005173921585083,2.2617812156677246
54,34268,34263,-0.001509048161096871,0.02524123713374138,0.9939259886741638,-1.8080198764801025,-2.3578760623931885,-0.448636531829834,0.5514937043190002,0.49941641092300415,0.27024710178375244,-0.25779953598976135,1.0306501388549805,2.268476724624634
55,34278,34273,0.024702224880456924,-0.015570917166769505,0.9418440461158752,-2.2478902339935303,-1.2422993183135986,-0.6812308430671692,0.5514121651649475,0.49953216314315796,0.2712632417678833,-0.23662132024765015,1.0065207481384277,2.261103868484497
56,34288,34283,-0.03130531311035156,-0.043501123785972595,0.9902927875518799,-0.5318393707275391,-2.3726398944854736,-0.39431414008140564,0.5506266951560974,0.4995361864566803,0.2738529145717621,-0.15987591445446014,0.992017924785614,2.267287254333496
57,34298,34293,-0.013187862001359463,-0.0073515987023711205,0.9935769438743591,-3.6481564044952393,-0.21145009994506836,-0.4258663058280945,0.551203727722168,0.5003668665885925,0.27495136857032776,-0.225764662027359,0.9115191102027893,2.2376298904418945
58,34308,34303,-0.010401951149106026,0.054269082844257355,0.9057066440582275,-3.643315553665161,0.18571680784225464,-0.4161851108074188,0.550509512424469,0.5005941390991211,0.27599674463272095,-0.15852104127407074,0.8750537633895874,2.2426724433898926
59,34318,34313,-0.02817152440547943,0.07409444451332092,0.9410947561264038,-4.575168132781982,-1.0661725997924805,-0.25096994638442993,0.550567090511322,0.5001555681228638,0.2766557037830353,-0.18374192714691162,0.8947389125823975,2.24102783203125
60,34328,34323,0.02407166175544262,-0.046937741339206696,0.9305820465087891,-4.289116382598877,-0.42149895429611206,-0.3432236313819885,0.5505121946334839,0.5011284351348877,0.2775881588459015,-0.19654026627540588,0.7599495649337769,2.226431369781494
61,34338,34333,-0.02087295427918434,0.02518785186111927,1.0411235094070435,-3.8400371074676514,-0.008334696292877197,-0.4022129774093628,0.5505831837654114,0.49992120265960693,0.2785078287124634,-0.20711201429367065,0.8128523230552673,2.230938673019409
62,34348,34343,0.017756713554263115,-0.018605193123221397,0.9680169820785522,-3.130406618118286,-1.0300945043563843,-0.6235198378562927,0.5505829453468323,0.5008738040924072,0.27938568592071533,-0.2225683480501175,0.7173143029212952,2.2188968658447266
63,34358,34353,-0.02487335540354252,-0.029980048537254333,0.941744863986969,-4.539501667022705,-1.4652036428451538,-0.2700119912624359,0.549757719039917,0.5010423064231873,0.2815138101577759,-0.14944063127040863,0.6701471209526062,2.2222001552581787
64,34368,34363,-0.0018309048609808087,-0.03998405858874321,0.9615994691848755,-4.304708003997803,-2.4219441413879395,-0.2909451127052307,0.5496943593025208,0.5006024241447449,0.28239917755126953,-0.14311864972114563,0.6826431751251221,2.222310781478882
65,34378,34373,0.019307877868413925,-0.029212022200226784,0.9598067998886108,-4.402936935424805,-3.3713650703430176,-0.4701199233531952,0.5496952533721924,0.4972180128097534,0.2832326889038086,-0.10198147594928741,0.928977906703949,2.2454512119293213
66,34388,34383,0.01430431380867958,-0.14949482679367065,0.9961681962013245,-4.336822032928467,-3.779707908630371,-0.8457813262939453,0.5493476390838623,0.5003783702850342,0.2863490879535675,-0.09543465822935104,0.5779517889022827,2.215303659439087
67,34398,34393,0.0019038296304643154,-0.1888107806444168,1.0208414793014526,-4.563474178314209,-0.5545024275779724,-0.7074891924858093,0.5491911172866821,0.4991869628429413,0.2872996926307678,-0.02851933054625988,0.6072337031364441,2.2107186317443848
68,34408,34403,-0.015961291268467903,-0.030466744676232338,1.0283197164535522,-5.020617961883545,0.26023808121681213,-0.7590807676315308,0.5454999208450317,0.498608261346817,0.28814002871513367,0.3168449401855469,0.6405941247940063,2.250070571899414
69,34418,34413,0.028416596353054047,0.016180148348212242,0.948780357837677,-5.2582173347473145,2.277505397796631,-0.6910834908485413,0.548613429069519,0.4975264072418213,0.2876238226890564,-0.047904375940561295,0.6488677859306335,2.2062292098999023
70,34428,34423,0.06752902269363403,-0.024000383913517,0.9749642014503479,-7.80424165725708,3.103687047958374,-0.6855865716934204,0.5480740070343018,0.4986831545829773,0.28852930665016174,-0.01640973426401615,0.5050933957099915,2.200005292892456
71,34438,34433,0.054822493344545364,-0.06850001960992813,1.0240356922149658,-10.516504287719727,3.3185951709747314,-0.8478274345397949,0.5415785312652588,0.4991516172885895,0.2892075777053833,0.5591471791267395,0.3568485975265503,2.2443792819976807
72,34448,34443,0.018013060092926025,-0.011120050214231014,1.0072613954544067,-8.683616638183594,5.0006513595581055,-1.4271796941757202,0.5417697429656982,0.49982717633247375,0.29032212495803833,0.40528807044029236,0.17103442549705505,2.2244904041290283
73,34458,34453,0.012814912013709545,0.06301195174455643,0.926993727684021,-5.413054466247559,10.532119750976562,-1.0467767715454102,0.5430827736854553,0.5003648400306702,0.28831347823143005,0.15724997222423553,0.03542967513203621,2.195517063140869
74,34468,34463,0.013127864338457584,-0.005081288516521454,0.964747428894043,-3.0466670989990234,20.759326934814453,-0.6024024486541748,0.5426293015480042,0.49995535612106323,0.28895965218544006,0.05846409499645233,0.01952439732849598,2.1849496364593506
75,34478,34473,0.027015650644898415,0.08660328388214111,0.956437349319458,0.24991531670093536,29.535438537597656,-0.5337270498275757,0.5429131388664246,0.4992460310459137,0.28960418701171875,-0.20055650174617767,0.047322794795036316,2.1773598194122314
76,34488,34483,0.04800073802471161,0.03509094938635826,0.9245314598083496,2.3432843685150146,32.834381103515625,-0.4638700783252716,0.5428028702735901,0.4983592629432678,0.2903192639350891,-0.5431687831878662,0.12462665140628815,2.173388957977295
77,34498,34493,-0.024564525112509727,-0.020657677203416824,1.011694312095642,2.8562655448913574,30.352266311645508,-0.4206867516040802,0.5442922115325928,0.4982330799102783,0.2907301187515259,-1.0496801137924194,0.1473623365163803,2.1640872955322266
78,34508,34503,-0.00562729686498642,-0.015972984954714775,1.0076855421066284,1.3565924167633057,24.874065399169922,-0.9159757494926453,0.5446908473968506,0.4981461465358734,0.29111021757125854,-1.4166935682296753,0.16865940392017365,2.1587066650390625
79,34518,34513,-0.03226247802376747,0.04461795464158058,0.9393855333328247,-1.975137710571289,16.39990234375,-0.5093510746955872,0.5438389182090759,0.4973820149898529,0.29084348678588867,-1.6006333827972412,0.2412330061197281,2.1580965518951416
80,34528,34523,-0.009047799743711948,0.03205977752804756,0.9419320821762085,-3.952136278152466,5.828828811645508,-0.5437155365943909,0.543077290058136,0.4975975453853607,0.2912870943546295,-1.72268807888031,0.18181274831295013,2.1484479904174805
81,34538,34533,-0.02476508915424347,-0.05859910696744919,1.0594120025634766,-5.4552693367004395,-2.0534682273864746,-0.8708236217498779,0.543179452419281,0.49795815348625183,0.2915915250778198,-1.832181453704834,0.09092666953802109,2.1359851360321045
82,34548,34543,-0.013280532322824001,-0.18119049072265625,1.0222700834274292,-5.743516445159912,-4.555566787719727,-0.8523401021957397,0.5429241061210632,0.49681711196899414,0.29082927107810974,-1.8080297708511353,0.14080755412578583,2.145754098892212
83,34558,34553,-0.007067039143294096,-0.11631900072097778,0.9441786408424377,-5.608338832855225,-5.317443370819092,-0.8365175127983093,0.5433573722839355,0.4964551329612732,0.29106050729751587,-1.8154221773147583,0.1013149619102478,2.1387691497802734
84,34568,34563,0.016729924827814102,-0.09846838563680649,0.9508693814277649,-5.818955898284912,-3.0465056896209717,-0.7747913002967834,0.5431027412414551,0.4968835711479187,0.29134151339530945,-1.7479791641235352,-0.025414999574422836,2.117013931274414
85,34578,34573,0.02943904511630535,-0.12354397028684616,1.0596799850463867,-6.3830695152282715,-0.4356240928173065,-0.9864867925643921,0.5437651872634888,0.496610552072525,0.29150816798210144,-1.7853002548217773,-0.07488063722848892,2.114253044128418
86,34588,34583,0.020156370475888252,-0.13375860452651978,1.0638946294784546,-4.326498508453369,4.072612285614014,-1.1185173988342285,0.5438162684440613,0.4962575137615204,0.28969329595565796,-1.7736825942993164,-0.11933650821447372,2.109163999557495
87,34598,34593,-0.0161213930696249,-0.006833937484771013,1.0336174964904785,-2.2772216796875,6.687941551208496,-0.9273781776428223,0.5449521541595459,0.4965322017669678,0.2897757887840271,-1.9101084470748901,-0.21110506355762482,2.090080499649048
88,34608,34603,0.020582839846611023,0.09049789607524872,0.9629038572311401,-0.4278640151023865,7.746118068695068,-1.0007600784301758,0.5455281734466553,0.495868057012558,0.2899360954761505,-2.011615753173828,-0.18126428127288818,2.0943212509155273
89,34618,34613,0.036052484065294266,0.1502295583486557,0.9912899136543274,0.10461422801017761,4.671695709228516,-0.8405835628509521,0.5460872650146484,0.4958973228931427,0.29288172721862793,-2.1198387145996094,-0.2144567221403122,2.079235076904297
90,34628,34623,0.026373323053121567,0.041712675243616104,1.0041741132736206,0.4034688174724579,0.061015695333480835,-0.7571201920509338,0.5462351441383362,0.49587497115135193,0.293223112821579,-2.1553335189819336,-0.23103633522987366,2.066159963607788
91,34638,34633,-0.0017986426828429103,-0.006374218035489321,1.0045958757400513,-0.5835669636726379,-5.5121660232543945,-1.028778314590454,0.5467546582221985,0.4958803057670593,0.2935291826725006,-2.173687696456909,-0.24164386093616486,2.053877353668213
92,34648,34643,0.03562210872769356,0.00822242721915245,0.9487923979759216,-1.244854211807251,-8.925871849060059,-0.5713095664978027,0.5462605953216553,0.4951818883419037,0.2928609848022461,-2.034278154373169,-0.18965288996696472,2.0556282997131348
93,34658,34653,0.04868577793240547,-0.11844167113304138,0.9699469208717346,-1.558559536933899,-11.218233108520508,-0.4321119487285614,0.5463477373123169,0.4945518374443054,0.29311904311180115,-1.9259546995162964,-0.15773425996303558,2.061870574951172
94,34668,34663,0.025484953075647354,-0.16150051355361938,1.0484094619750977,-2.05057954788208,-10.798271179199219,-0.05873202532529831,0.5485866069793701,0.49400970339775085,0.29319125413894653,-2.006866931915283,-0.13267850875854492,2.080622673034668
95,34678,34673,-0.04697857424616814,-0.10741303116083145,1.0225409269332886,-2.892838716506958,-8.712985038757324,0.009889497421681881,0.5493481755256653,0.49418917298316956,0.2933961749076843,-1.9107656478881836,-0.19441020488739014,2.065680742263794
96,34688,34683,-0.0338713601231575,-0.0014574353117495775,1.056641936302185,-5.07356071472168,-7.965959548950195,-0.487079918384552,0.5503256320953369,0.4930053949356079,0.2941249907016754,-1.845271348953247,-0.11705632507801056,2.096663236618042
97,34698,34693,0.022020787000656128,-0.04097769781947136,0.9665558934211731,-6.262777328491211,-7.200011730194092,-1.1961971521377563,0.550593912601471,0.4919258654117584,0.2944515347480774,-1.7159018516540527,-0.08405979722738266,2.113271951675415
98,34708,34703,0.007067006081342697,0.00038408194086514413,1.037011742591858,-5.81778621673584,-5.629209041595459,-0.767076313495636,0.5508832335472107,0.4923535883426666,0.29485613107681274,-1.6049607992172241,-0.23258526623249054,2.0744740962982178
99,34718,34713,-0.005554322153329849,-0.017184942960739136,1.0157710313796997,-6.193543434143066,-5.0638651847839355,-0.7087081670761108,0.552817702293396,0.4921252429485321,0.2961578071117401,-1.6711595058441162,-0.2950471043586731,2.073233127593994
100,34728,34723,0.019700221717357635,-0.0930192843079567,1.0507311820983887,-5.378635883331299,-5.167542934417725,-0.8071962594985962,0.554023802280426,0.4926171898841858,0.29654353857040405,-1.6641820669174194,-0.4401499032974243,2.047588348388672
101,34738,34733,0.10558507591485977,-0.08640749007463455,0.978512167930603,-3.8492367267608643,-6.802452087402344,-0.49761727452278137,0.5536925792694092,0.49219295382499695,0.2971349060535431,-1.4950746297836304,-0.4822067320346832,2.0376482009887695
102,34748,34743,0.07454509288072586,-0.13912899792194366,1.0140478610992432,-1.0907930135726929,-9.356690406799316,-0.4007847309112549,0.5553349256515503,0.4917357265949249,0.2962442636489868,-1.5282236337661743,-0.49533015489578247,2.0477449893951416
103,34758,34753,-0.013504073023796082,-0.04796561226248741,1.0466352701187134,0.007256623823195696,-11.287649154663086,-0.5541961789131165,0.5545923113822937,0.4917357265949249,0.29678380489349365,-1.2662503719329834,-0.5448740124702454,2.0231244564056396
104,34768,34763,0.0034271031618118286,-0.0037572018336504698,0.9588683843612671,1.0224229097366333,-12.00028133392334,-0.14144060015678406,0.5561037659645081,0.4910005033016205,0.29715970158576965,-1.2346614599227905,-0.4837832450866699,2.04016375541687
105,34778,34773,-0.0048059686087071896,-0.016455307602882385,0.984459400177002,1.8068164587020874,-11.8364839553833,-0.1289229691028595,0.5590510964393616,0.4910070598125458,0.29738470911979675,-1.336678385734558,-0.4892318546772003,2.0540506839752197
106,34788,34783,-0.01685180701315403,-0.018051784485578537,1.0134998559951782,1.1526267528533936,-9.462494850158691,-0.2187895029783249,0.5598739981651306,0.4909525215625763,0.298328161239624,-1.1892974376678467,-0.48959290981292725,2.0476467609405518
107,34798,34793,-0.05481749773025513,0.0017978079849854112,1.0634267330169678,-0.0673176497220993,-9.088041305541992,-0.23152434825897217,1.4820019006729126,4.11572790145874,0.29888662695884705,-0.9650710821151733,-0.5685962438583374,2.0150461196899414
108,34808,34803,-0.06865587830543518,0.08028849959373474,0.9960503578186035,-1.4871512651443481,-7.886449813842773,0.13008679449558258,1.4831469058990479,4.1158270835876465,0.29923301935195923,-1.0002590417861938,-0.578984797000885,2.0239450931549072
109,34818,34813,-0.004170860163867474,0.030216030776500702,0.9852840304374695,-1.5027291774749756,-6.965090751647949,0.1443430632352829,1.653126835823059,3.8706300258636475,0.2999587953090668,-0.9016686081886292,-0.6090638637542725,2.0202133655548096
110,34828,34823,0.015177437104284763,-0.015421942807734013,1.0611628293991089,-0.624342679977417,-8.612361907958984,-0.0051413895562291145,1.6542352437973022,3.8706471920013428,0.300458163022995,-0.8084469437599182,-0.6479049324989319,2.0170605182647705
111,34838,34833,0.031202178448438644,-0.0504995658993721,0.9907972812652588,0.9409486055374146,-10.118566513061523,-0.1251058280467987,1.7048147916793823,3.8531599044799805,0.3009718656539917,-0.6977328658103943,-0.5842408537864685,2.0291130542755127
112,34848,34843,0.02437315136194229,-0.007966065779328346,0.9673082232475281,2.494668483734131,-9.607563972473145,-0.4315756857395172,1.737000584602356,3.8422203063964844,0.3022172152996063,-0.505654513835907,-0.5756787061691284,2.01838755607605
113,34858,34853,0.004126447718590498,-0.026520011946558952,0.9665069580078125,3.3089852333068848,-8.879024505615234,-0.39333125948905945,1.764556646347046,3.833320379257202,0.3026564419269562,-0.5377481579780579,-0.5376543402671814,2.0305755138397217
114,34868,34863,0.010786989703774452,-0.029279664158821106,0.9854618310928345,3.5095674991607666,-8.336560249328613,-0.8826026320457458,1.7643914222717285,3.8307149410247803,0.30326950550079346,-0.3353578448295593,-0.48490193486213684,2.0181920528411865
115,34878,34873,0.009949578903615475,0.025607191026210785,1.0221397876739502,2.5994679927825928,-7.406735420227051,-0.29883289337158203,1.792164921760559,3.8264520168304443,0.30211207270622253,-0.30903950333595276,-0.4352738857269287,2.0182769298553467
116,34888,34883,-0.02846069447696209,0.08340214937925339,0.9733507633209229,1.9797935485839844,-6.155638217926025,-0.4410971403121948,1.7782505750656128,3.8424601554870605,0.30251672863960266,-0.20863071084022522,-0.3986748456954956,2.012751817703247
117,34898,34893,-0.051426615566015244,0.07320824265480042,0.9610142111778259,0.22598035633563995,-4.910861492156982,-0.2779775559902191,1.7772327661514282,3.8214688301086426,0.30292657017707825,-0.14149820804595947,-0.45297497510910034,2.004411220550537
118,34908,34903,-0.02567221410572529,0.023756928741931915,0.9966589212417603,-1.9605025053024292,-4.319260120391846,-0.5257042050361633,1.778376579284668,3.821519613265991,0.30329182744026184,-0.0947023332118988,-0.45506298542022705,2.000983238220215
119,34918,34913,0.006470605731010437,-0.04335581883788109,0.9673488140106201,-1.1954734325408936,-4.234083652496338,-0.9269472360610962,1.780351161956787,3.8216769695281982,0.3034238815307617,-0.21206046640872955,-0.4851367771625519,2.010707378387451
120,34928,34923,0.014935251325368881,-0.015474151819944382,0.9998278021812439,1.1577147245407104,-5.1158671379089355,-1.21470046043396,1.7807097434997559,3.821680784225464,0.3039437234401703,-0.010719435289502144,-0.4975492060184479,1.9858249425888062
121,34938,34933,0.012706058099865913,0.004573316313326359,1.0019267797470093,3.1544559001922607,-5.737640380859375,-0.9958226084709167,1.7813783884048462,3.821625232696533,0.30434107780456543,0.1111125573515892,-0.47361862659454346,1.9672629833221436
122,34948,34943,0.005196798127144575,-0.038739338517189026,0.985603928565979,5.34358549118042,-5.826654434204102,-0.9117960929870605,1.7832986116409302,3.821929454803467,0.30757689476013184,0.08557736128568649,-0.4911711513996124,1.965744137763977
123,34958,34953,-0.01565834879875183,-0.017068812623620033,1.003906011581421,5.802424430847168,-4.651163101196289,-0.7865573763847351,1.7709903717041016,3.906978130340576,0.30817410349845886,0.22029046714305878,-0.39647987484931946,1.948567509651184
124,34968,34963,-0.01034820731729269,-0.017853375524282455,0.9844345450401306,6.397527694702148,-4.598773956298828,-1.17527437210083,1.789524793624878,3.9237546920776367,0.30858269333839417,0.18133142590522766,-0.29384490847587585,1.9479478597640991
125,34978,34973,0.012104709632694721,-0.027778666466474533,0.9841206669807434,5.451704025268555,-3.744550943374634,-1.3304575681686401,1.7905367612838745,3.9239578247070312,0.3114964962005615,0.29224497079849243,-0.2655475437641144,1.9332740306854248
126,34988,34983,0.002022653818130493,0.005069422535598278,1.0092018842697144,3.8236021995544434,-3.3884525299072266,-1.5025625228881836,1.7820724248886108,3.954784870147705,0.31208232045173645,0.3092389404773712,-0.1754094362258911,1.919385313987732
127,34998,34993,0.027222540229558945,-0.036611322313547134,0.9383305311203003,1.4471759796142578,-2.4998953342437744,-1.3637155294418335,1.7888224124908447,3.9235613346099854,0.3126838803291321,0.377899706363678,-0.1224164217710495,1.9007288217544556
128,35008,35003,0.054558008909225464,-0.13838090002536774,0.9449024796485901,-0.30728673934936523,-2.1275057792663574,-1.4744153022766113,1.7985525131225586,3.922105312347412,0.31321340799331665,0.35606202483177185,-0.1869785189628601,1.8969683647155762
129,35018,35013,0.00011373833694960922,-0.03231171518564224,0.9944610595703125,-0.905678391456604,-1.3285690546035767,-1.6996026039123535,1.8107584714889526,3.9071574211120605,0.3143421709537506,0.3407120704650879,-0.19376789033412933,1.8845961093902588
130,35028,35023,0.014047777280211449,-0.03838683292269707,0.9438285231590271,-0.5233874917030334,-1.2378242015838623,-1.9898723363876343,1.8197200298309326,3.8952674865722656,0.314922958612442,0.4671500027179718,-0.2846103608608246,1.8670638799667358
131,35038,35033,-0.005761344917118549,-0.004773491527885199,0.9880636930465698,0.4780147075653076,-1.1105248928070068,-2.056854248046875,1.821686863899231,3.8921210765838623,0.3154122233390808,0.43009641766548157,-0.28023549914360046,1.8493995666503906
132,35048,35043,-0.0011282035848125815,-0.0007590363384224474,0.9555640816688538,2.675485372543335,-0.44654232263565063,-2.0174570083618164,1.8192472457885742,3.8953707218170166,0.31642934679985046,0.46743836998939514,-0.24676047265529633,1.8241158723831177
133,35058,35053,0.00656916294246912,0.00849857460707426,0.9638230204582214,5.135638236999512,-0.41942185163497925,-1.8118304014205933,1.8162113428115845,3.9106175899505615,0.3168965280056,0.5002235770225525,-0.1780623495578766,1.7982089519500732
134,35068,35063,0.006576691288501024,-0.018026435747742653,0.9666122198104858,5.221675872802734,-0.4882681965827942,-1.716064691543579,1.8135522603988647,3.9265027046203613,0.31725722551345825,0.4587203860282898,-0.07235422730445862,1.7758322954177856
135,35078,35073,0.00151534634642303,-0.02538784220814705,0.9528261423110962,4.341241359710693,0.6815052628517151,-2.0148932933807373,1.8122578859329224,3.9388983249664307,0.3195449709892273,0.41041862964630127,-0.1267526000738144,1.776025414466858
136,35088,35083,-0.010898380540311337,-0.09971923381090164,1.0170197486877441,3.4624106884002686,1.4720933437347412,-2.5531508922576904,1.8108105659484863,3.9463424682617188,0.32001885771751404,0.4182285964488983,-0.042230311781167984,1.7499154806137085
137,35098,35093,-0.004863649606704712,0.050188612192869186,0.9470832943916321,3.1026947498321533,1.27957284450531,-2.9381277561187744,1.815122127532959,3.940746784210205,0.32050663232803345,0.4171333611011505,-0.12193354219198227,1.7403727769851685
138,35108,35103,-0.0030650212429463863,0.024840598925948143,0.9505923986434937,4.4816789627075195,-0.5500920414924622,-3.260427474975586,1.8233263492584229,3.9344935417175293,0.3220212161540985,0.4200087785720825,-0.04161236062645912,1.7015964984893799
139,35118,35113,0.03227052465081215,0.0628201812505722,0.9636185169219971,3.377328872680664,-0.5124571323394775,-3.1210644245147705,1.82486891746521,3.934997797012329,0.32248368859291077,0.36134767532348633,-0.028372494503855705,1.6774187088012695
140,35128,35123,0.008683785796165466,0.0747205838561058,0.9821297526359558,2.474574327468872,-1.5043151378631592,-3.694244861602783,1.8248958587646484,3.934840679168701,0.3230583667755127,0.4671921133995056,0.04767122119665146,1.6379138231277466
141,35138,35133,-0.0010479330085217953,0.007529914379119873,0.9740329384803772,2.554990768432617,-3.302142381668091,-4.082790374755859,1.8237792253494263,3.9421446323394775,0.3235086500644684,0.5196033120155334,0.03625880926847458,1.606336236000061
142,35148,35143,-0.005136460997164249,-0.014384889043867588,0.9778865575790405,5.033854007720947,-5.64354944229126,-4.215147495269775,1.8219414949417114,3.943532705307007,0.3216096758842468,0.5843947529792786,0.10891347378492355,1.5597556829452515
143,35158,35153,-0.04141504317522049,0.001860294840298593,1.0144102573394775,4.251391410827637,-1.9818960428237915,-4.597722053527832,1.8233190774917603,3.9440362453460693,0.32185572385787964,0.5737486481666565,0.12401255965232849,1.523730993270874
144,35168,35163,0.013123827986419201,0.10425791889429092,0.9483411312103271,3.4519455432891846,0.33943408727645874,-4.649780750274658,1.8245466947555542,3.9407382011413574,0.3221362233161926,0.6032627820968628,0.21209338307380676,1.471874713897705
145,35178,35173,0.022171294316649437,-0.05749622732400894,0.9714916944503784,4.767052173614502,1.7013778686523438,-4.677456378936768,1.8268321752548218,3.9411706924438477,0.32440200448036194,0.5890204310417175,0.2870052456855774,1.4196401834487915
146,35188,35183,0.020994527265429497,-0.08649085462093353,0.962104856967926,4.1148762702941895,2.5109732151031494,-4.9259257316589355,1.8270529508590698,3.941579580307007,0.32473915815353394,0.6308895349502563,0.29315733909606934,1.379738211631775
147,35198,35193,0.0288503710180521,0.0011934603098779917,0.9917965531349182,1.7430250644683838,3.0438432693481445,-4.860898494720459,1.8272753953933716,3.941365957260132,0.32502543926239014,0.6584280133247375,0.3700074255466461,1.3270231485366821
148,35208,35203,0.028523927554488182,-0.031149081885814667,0.9707204103469849,-0.7195211052894592,2.6538431644439697,-5.021838665008545,1.8274859189987183,3.9412734508514404,0.3237682282924652,0.6840506792068481,0.40641966462135315,1.2775144577026367
149,35218,35213,0.003946276381611824,-0.031454842537641525,0.9709839820861816,-1.6345161199569702,3.4711594581604004,-5.104593276977539,1.8284633159637451,3.941403388977051,0.3238973021507263,0.6281914710998535,0.4009110629558563,1.22657310962677
150,35228,35223,-0.0009950092062354088,0.023354096338152885,0.970976710319519,-2.8581583499908447,4.825628757476807,-4.7096991539001465,1.8339579105377197,3.930779218673706,0.3240106701850891,0.6298373937606812,0.3772329092025757,1.1781089305877686
151,35238,35233,0.04318990185856819,0.0495307594537735,0.9202142357826233,-4.433338642120361,7.426578044891357,-4.225611209869385,1.8368816375732422,3.9314253330230713,0.3240469992160797,0.4406566321849823,0.3292122781276703,1.1297931671142578
152,35248,35243,0.08063388615846634,0.059673991054296494,0.9040178656578064,-2.795681953430176,8.221301078796387,-4.033633232116699,1.8368865251541138,3.9317054748535156,0.3190610110759735,0.4407232999801636,0.2610427439212799,1.0935064554214478
153,35258,35253,0.11232509464025497,0.02116851508617401,0.895176887512207,-1.7879736423492432,7.693014144897461,-3.0946667194366455,1.8376133441925049,3.9318854808807373,0.31869199872016907,0.3413736820220947,0.22318322956562042,1.0545212030410767
154,35268,35263,0.0467173270881176,-0.05953949689865112,0.92156583070755,1.083482027053833,6.869804859161377,-2.3743488788604736,1.8441836833953857,3.9271252155303955,0.3182162642478943,0.2702036499977112,0.2141716033220291,1.0226248502731323
155,35278,35273,-0.0041449288837611675,-0.018862180411815643,0.9896092414855957,1.817117691040039,4.409124851226807,-2.063053607940674,1.8459359407424927,3.932100772857666,0.31865331530570984,0.22236481308937073,0.24459068477153778,0.9953926801681519
156,35288,35283,0.0364181324839592,-0.08727415651082993,0.9754234552383423,1.3122726678848267,3.928892135620117,-1.8551051616668701,1.8476165533065796,3.9309914112091064,0.3181828558444977,0.19885475933551788,0.28538772463798523,0.9712796211242676
157,35298,35293,0.003775871591642499,-0.049958307296037674,0.9713382720947266,0.54642254114151,4.323275566101074,-2.0054409503936768,1.8540890216827393,3.9261512756347656,0.3176494240760803,0.17531365156173706,0.315236896276474,0.949630081653595
158,35308,35303,0.03412028029561043,0.015004806220531464,0.9023151397705078,-1.7623348236083984,5.998114109039307,-2.3146674633026123,1.8546525239944458,3.923945188522339,0.31849154829978943,0.13363808393478394,0.3224119246006012,0.9283385276794434
159,35318,35313,0.006407961715012789,0.08613790571689606,0.942924439907074,-3.1920316219329834,7.812291622161865,-2.5255796909332275,1.8552494049072266,3.9241275787353516,0.31796929240226746,0.0607500821352005,0.29277804493904114,0.906694769859314
160,35328,35323,0.013896776363253593,0.008168751373887062,0.9726096987724304,-4.036934852600098,8.664167404174805,-2.4726920127868652,1.855855941772461,3.9243950843811035,0.31738996505737305,-0.025988994166254997,0.2393871545791626,0.885046124458313
161,35338,35333,-0.05236660689115524,-0.014701063744723797,1.1051462888717651,-3.3522000312805176,8.124733924865723,-2.172806978225708,1.85648775100708,3.920715570449829,0.3168086111545563,-0.10410750657320023,0.26021990180015564,0.8561795949935913
162,35348,35343,0.00805735681205988,-0.056714486330747604,0.9764014482498169,-3.781961679458618,7.029262065887451,-1.852028489112854,1.8577632904052734,3.9210026264190674,0.3155444860458374,-0.2504153251647949,0.20210014283657074,0.8337598443031311
163,35358,35353,0.025152884423732758,0.0014167961198836565,0.9900946617126465,-4.115440368652344,6.431701183319092,-1.1707302331924438,1.85825514793396,3.9212794303894043,0.3149792551994324,-0.3080248534679413,0.13612283766269684,0.8184253573417664
164,35368,35363,0.023689744994044304,-0.036918990314006805,1.0073111057281494,-4.316404342651367,4.984623432159424,-0.694311797618866,1.8588752746582031,3.9182822704315186,0.3144091069698334,-0.35851985216140747,0.06626133620738983,0.809201717376709
165,35378,35373,0.029879126697778702,-0.05810471251606941,1.0620841979980469,-2.4485795497894287,3.4260430335998535,-0.5644934773445129,1.859122395515442,3.9178130626678467,0.31301000714302063,-0.37898287177085876,0.07756132632493973,0.8011960387229919
166,35388,35383,-0.01061341818422079,-0.012016053311526775,1.08245050907135,1.069132685661316,2.035946846008301,-0.17352870106697083,1.8593934774398804,3.914414644241333,0.31241723895072937,-0.35897907614707947,0.049655843526124954,0.7976574897766113
167,35398,35393,-0.04215795919299126,0.09360027313232422,1.0393973588943481,2.0306191444396973,2.359238862991333,0.06866182386875153,1.8605448007583618,3.914668321609497,0.31195205450057983,-0.33194243907928467,0.07348267734050751,0.7965123653411865
168,35408,35403,0.0033747872803360224,0.1594860851764679,1.0126285552978516,2.1014668941497803,4.157503604888916,0.273193895816803,1.860217809677124,3.9193341732025146,0.3154033422470093,-0.34124982357025146,0.10201329737901688,0.7979899644851685
169,35418,35413,0.0734056681394577,-0.031202148646116257,0.9609062671661377,0.7690964341163635,6.1422224044799805,0.8071140646934509,1.8681004047393799,3.9148499965667725,0.31518059968948364,-0.391171395778656,0.11820310354232788,0.8011640310287476
170,35428,35423,0.056545440107584,-0.12422655522823334,1.0399128198623657,0.6575440764427185,6.4846577644348145,0.6899991035461426,1.8700146675109863,3.914863348007202,0.31487318873405457,-0.6017731428146362,0.12841108441352844,0.8036689758300781
171,35438,35433,-0.003196124918758869,-0.09581554681062698,0.9873499274253845,0.059257060289382935,6.885946273803711,0.8749585151672363,1.8704856634140015,3.9147894382476807,0.31468749046325684,-0.648279070854187,0.14289399981498718,0.8095575571060181
172,35448,35443,-0.05293915793299675,0.03200437128543854,1.0072252750396729,-1.7822418212890625,4.949618339538574,0.4837874174118042,1.8710136413574219,3.9131550788879395,0.3119601607322693,-0.702287495136261,0.13315995037555695,0.8158609867095947
173,35458,35453,-0.0029025182593613863,0.014753864146769047,1.053610920906067,-2.559603214263916,2.8318634033203125,-0.24878178536891937,1.8712279796600342,3.9112443923950195,0.3116722106933594,-0.7021769881248474,0.09737911820411682,0.823665201663971
174,35468,35463,-0.011652649380266666,-0.0997379869222641,1.119888186454773,-2.272145986557007,-0.10257954895496368,-0.7185536026954651,1.8721237182617188,3.9099724292755127,0.3113776445388794,-0.7196418046951294,0.05440095439553261,0.8222877383232117
175,35478,35473,-0.0123584670946002,-0.026047253981232643,1.100798487663269,-1.766752004623413,-0.8895066976547241,-1.4921478033065796,1.8752952814102173,3.913828134536743,0.3139156103134155,-0.7182429432868958,0.017807302996516228,0.8135741353034973
176,35488,35483,0.011015375144779682,-0.0401175320148468,1.0102620124816895,-0.9506856203079224,-0.6999162435531616,-1.603398323059082,1.8754206895828247,3.911893129348755,0.3139537572860718,-0.7418498396873474,0.05907418951392174,0.8020687699317932
177,35498,35493,0.04433219134807587,0.02004009112715721,1.0428345203399658,0.27831682562828064,-2.113334894180298,-2.0693612098693848,1.8762434720993042,3.911965847015381,0.3140322268009186,-0.7645414471626282,0.031184691935777664,0.7851400971412659
178,35508,35503,0.016803141683340073,0.01629711128771305,1.0408011674880981,0.8645617365837097,-3.9485514163970947,-2.6117265224456787,1.8768136501312256,3.9119021892547607,0.3169806897640228,-0.7337611317634583,0.036312878131866455,0.7648727297782898
179,35518,35513,-0.00826294720172882,0.061320625245571136,0.9787559509277344,0.13603191077709198,-4.387324810028076,-2.5732316970825195,1.8765723705291748,3.911130666732788,0.31737104058265686,-0.5938707590103149,0.12738347053527832,0.7449181079864502
180,35528,35523,-0.02871832065284252,0.033166687935590744,1.0131926536560059,0.7492793202400208,-2.374594211578369,-2.107224941253662,1.8770875930786133,3.911113739013672,0.31771475076675415,-0.5400274991989136,0.11975535750389099,0.7187718749046326
181,35538,35533,0.02661176584661007,-0.0915539562702179,0.9888651371002197,0.678026556968689,0.566709041595459,-1.8912898302078247,1.8777660131454468,3.9110822677612305,0.3166004717350006,-0.5223431587219238,0.11618103086948395,0.6979684829711914
182,35548,35543,-0.0014955715741962194,-0.1742703765630722,1.0325440168380737,2.1734514236450195,4.301197528839111,-1.3931922912597656,1.8793774843215942,3.9110310077667236,0.31677916646003723,-0.6280677914619446,0.11994682997465134,0.6792205572128296
183,35558,35553,0.008429458364844322,-0.2312188446521759,1.0110749006271362,2.567039728164673,6.060927391052246,-1.088631510734558,1.8796958923339844,3.910846710205078,0.31705135107040405,-0.6168234348297119,0.1485065072774887,0.6665716767311096
184,35568,35563,-0.03729651868343353,-0.14702683687210083,0.9752739071846008,-0.4510948061943054,5.060524940490723,-1.812378168106079,1.882718563079834,3.902425527572632,0.31731098890304565,-0.6359149217605591,0.17851139605045319,0.6553099155426025
185,35578,35573,-0.03834133222699165,0.0018980359891429543,0.9825316071510315,-3.644343376159668,3.4181599617004395,-2.280574321746826,1.8816155195236206,3.903899908065796,0.3171139359474182,-0.6539255976676941,0.07536940276622772,0.6313926577568054
186,35588,35583,-0.01888277195394039,-0.03449888899922371,0.9651602506637573,-4.2705559730529785,1.802660584449768,-3.0667166709899902,1.883231520652771,3.9042105674743652,0.31724971532821655,-0.7928051948547363,0.009457601234316826,0.6056036949157715
187,35598,35593,-0.01986277662217617,-0.01468130387365818,0.9906368255615234,-2.143540620803833,0.9772945046424866,-2.854586124420166,1.8832944631576538,3.9036688804626465,0.31750962138175964,-0.7317571640014648,0.027365844696760178,0.5816767811775208
188,35608,35603,0.03482550382614136,0.026375027373433113,0.9572606682777405,0.31790462136268616,-0.24179372191429138,-2.5996310710906982,1.884795069694519,3.9030511379241943,0.31814536452293396,-0.8175892233848572,0.06767932325601578,0.556643009185791
189,35618,35613,0.006489419844001532,0.0010627616429701447,0.9613751173019409,2.815798044204712,-0.9721035957336426,-2.2917046546936035,1.8848527669906616,3.9003381729125977,0.31824201345443726,-0.8857201933860779,-0.009293392300605774,0.5236778855323792
190,35628,35623,0.005404007621109486,-0.0024554699193686247,0.9836285710334778,3.9933245182037354,-1.8502744436264038,-1.971321702003479,1.882996678352356,3.8958144187927246,0.31844136118888855,-0.7805398106575012,0.033669859170913696,0.5039843916893005
191,35638,35633,0.01636122725903988,-0.04224023222923279,0.9521347880363464,4.023576259613037,-6.413419723510742,-0.9906112551689148,1.8834675550460815,3.8956048488616943,0.31696152687072754,-0.7277721166610718,0.09396786242723465,0.4877322018146515
192,35648,35643,-0.005392401944845915,-0.0041170609183609486,0.9855943918228149,3.3164117336273193,-8.746452331542969,-0.05212371423840523,1.8836926221847534,3.8953495025634766,0.31697434186935425,-0.6067565083503723,0.15403178334236145,0.4793432354927063
193,35658,35653,-0.008626452647149563,-0.09810230880975723,1.0135332345962524,1.3389852046966553,-7.513801097869873,1.0039567947387695,1.8845393657684326,3.8959474563598633,0.3169424831867218,-0.5294008255004883,0.11304663866758347,0.47117096185684204
194,35668,35663,-0.053124334663152695,-0.08267661929130554,1.0155450105667114,-1.4043234586715698,-1.8097589015960693,1.7945185899734497,1.884871244430542,3.895942211151123,0.31692779064178467,-0.40105417370796204,0.12576229870319366,0.47951969504356384
195,35678,35673,-0.018853694200515747,0.019779643043875694,0.9528707265853882,-2.329563617706299,5.174681663513184,2.3705713748931885,1.8872987031936646,3.8960182666778564,0.3189484179019928,-0.5466707348823547,0.10082384198904037,0.49306508898735046
196,35688,35683,-0.004346255678683519,0.03307373449206352,0.9443532824516296,-3.039414644241333,11.702150344848633,3.6180920600891113,1.8886306285858154,3.8962299823760986,0.31891849637031555,-0.6375106573104858,0.05544725060462952,0.514603853225708
197,35698,35693,-0.03783189132809639,0.012104923836886883,1.0299046039581299,-2.8168022632598877,14.93285846710205,4.886760234832764,1.897469162940979,3.898068428039551,0.3188945949077606,-0.7330846786499023,0.08379822224378586,0.5546370148658752
198,35708,35703,-0.045260969549417496,0.014594793319702148,1.0397075414657593,-1.0493053197860718,13.087075233459473,5.693528175354004,1.8976974487304688,3.8962082862854004,0.3203565180301666,-0.7780653834342957,0.041031625121831894,0.6017231345176697
199,35718,35713,-0.054961081594228745,0.052851006388664246,0.9624262452125549,1.2079659700393677,8.25430965423584,6.3088274002075195,1.9007837772369385,3.8947808742523193,0.32045629620552063,-0.8735170364379883,0.10635915398597717,0.664099931716919
200,35728,35723,0.015491540543735027,0.026402151212096214,0.9385290741920471,4.251333236694336,0.770125687122345,7.4127092361450195,1.9011679887771606,3.8930163383483887,0.32056447863578796,-0.8968935608863831,0.1242905855178833,0.7283422946929932
201,35738,35733,0.006317986641079187,-0.07139704376459122,1.0238924026489258,8.895733833312988,-6.3327412605285645,8.817976951599121,1.901681661605835,3.892655611038208,0.32005420327186584,-0.8713887333869934,0.18992304801940918,0.804253101348877
202,35748,35743,-0.003570537082850933,-0.004642300773411989,1.0339854955673218,12.024378776550293,-9.051727294921875,10.501371383666992,1.903401494026184,3.8926868438720703,0.31995582580566406,-0.909700870513916,0.25893542170524597,0.8890618085861206
203,35758,35753,0.019456733018159866,-0.03785452991724014,0.9159232378005981,11.084362983703613,-9.912713050842285,12.124134063720703,1.902862310409546,3.8926150798797607,0.3200921416282654,-0.6670728921890259,0.3707263469696045,0.9938772916793823
204,35768,35763,-0.0017663800390437245,-0.0034368294291198254,0.9562072157859802,5.826000690460205,-10.96076774597168,14.416037559509277,1.9037574529647827,3.8927764892578125,0.32070639729499817,-0.5807517170906067,0.4485583007335663,1.11042058467865
205,35778,35773,0.002766082528978586,-0.10170096158981323,1.0234066247940063,-1.7968024015426636,-8.788418769836426,14.991682052612305,1.904995083808899,3.8997976779937744,0.3205994665622711,-0.6383174657821655,0.36756861209869385,1.2435640096664429
206,35788,35783,0.05511239543557167,-0.020164700224995613,0.9157819151878357,-9.00487995147705,-8.641423225402832,15.077484130859375,1.9031039476394653,3.8951897621154785,0.32058149576187134,-0.4886685311794281,0.3295731842517853,1.3833580017089844
207,35798,35793,0.08624611794948578,-0.001988515956327319,0.9473608136177063,-13.105895042419434,-10.784333229064941,14.512112617492676,1.9026877880096436,3.89599609375,0.32061412930488586,-0.2765795886516571,0.15676230192184448,1.5312944650650024
208,35808,35803,0.005321664270013571,-0.007115947548300028,1.0184352397918701,-16.571367263793945,-14.037854194641113,13.268380165100098,1.9071357250213623,3.8954174518585205,0.31815120577812195,-0.40915000438690186,0.16498960554599762,1.6787216663360596
209,35818,35813,0.045848045498132706,-0.03863997012376785,0.901316225528717,-17.65814971923828,-14.423145294189453,11.889784812927246,1.9061546325683594,3.89579701423645,0.31792891025543213,-0.17579451203346252,-0.12158115953207016,1.8079477548599243
210,35828,35823,0.04555649310350418,-0.0901099368929863,0.9814944863319397,-14.330236434936523,-12.771673202514648,10.928495407104492,1.9061695337295532,3.8955562114715576,0.317696213722229,0.05314967781305313,-0.2636930048465729,1.933240532875061
211,35838,35833,-0.007165960036218166,0.024223459884524345,0.9542117118835449,-11.150796890258789,-9.345911026000977,10.713679313659668,1.9091384410858154,3.895036458969116,0.3177635669708252,-0.04343175143003464,-0.3432445228099823,2.042771577835083
212,35848,35843,0.009160132147371769,0.017451923340559006,0.9627674221992493,-5.331483840942383,-3.7088353633880615,10.304640769958496,1.910860300064087,3.8956503868103027,0.3173193633556366,-0.01960391364991665,-0.5146812200546265,2.1468942165374756
213,35858,35853,0.04029519855976105,0.011906465515494347,0.9327525496482849,-2.084402561187744,4.304022789001465,9.0228853225708,1.9119011163711548,3.894446849822998,0.31699034571647644,0.024548910558223724,-0.4382632374763489,2.2520360946655273
214,35868,35863,0.01693197712302208,-0.02174338512122631,0.9700825214385986,1.2161473035812378,9.434134483337402,7.855632305145264,1.9123095273971558,3.8944754600524902,0.3146837055683136,0.049884602427482605,-0.4670126736164093,2.3408725261688232
215,35878,35873,0.004302090499550104,-0.01899462752044201,1.0180866718292236,4.388584136962891,13.06756591796875,6.553014755249023,1.9130300283432007,3.894273519515991,0.31413528323173523,-0.004398925695568323,-0.43312063813209534,2.417142629623413
216,35888,35883,0.014989983290433884,-0.028837023302912712,0.982416033744812,6.4250946044921875,13.114109992980957,5.918777942657471,1.9139927625656128,3.894716262817383,0.3135528862476349,-0.1332264095544815,-0.43778306245803833,2.482179880142212
217,35898,35893,0.009468967095017433,0.021956082433462143,1.043318271636963,2.8267934322357178,8.201071739196777,5.681728363037109,1.9151383638381958,3.8944714069366455,0.3129640519618988,-0.2933351695537567,-0.3526264727115631,2.5410046577453613
218,35908,35903,0.006735342089086771,0.04361705854535103,0.9976624846458435,-4.356067657470703,5.011838912963867,5.164357662200928,1.9158000946044922,3.894507646560669,0.3127981424331665,-0.3586581349372864,-0.33072489500045776,2.592973232269287
219,35918,35913,-0.005475048907101154,-0.0106861162930727,1.0871399641036987,-6.66683292388916,-3.908318519592285,3.0645434856414795,1.9166736602783203,3.8942294120788574,0.31230515241622925,-0.39695003628730774,-0.343325138092041,2.6401686668395996
220,35928,35923,-0.0280475951731205,-0.050362929701805115,1.1243630647659302,-6.858212471008301,-13.045710563659668,1.688868522644043,1.9177055358886719,3.8948421478271484,0.3118458688259125,-0.371267169713974,-0.477047324180603,2.672975540161133
221,35938,35933,-0.0036511539947241545,-0.020562022924423218,1.0952000617980957,-4.978713512420654,-22.117738723754883,2.1108696460723877,1.9170538187026978,3.895164966583252,0.30754682421684265,-0.08084437251091003,-0.5769312977790833,2.684391975402832
222,35948,35943,-0.03290776535868645,0.10124038904905319,1.0245482921600342,-3.7436883449554443,-26.632171630859375,3.3796775341033936,1.920000672340393,3.895516872406006,0.30697575211524963,-0.07869517058134079,-0.6386548280715942,2.7192139625549316
223,35958,35953,0.004105567466467619,-0.04868949204683304,1.0355528593063354,-1.8197171688079834,-18.859848022460938,3.3442351818084717,1.9193109273910522,3.8946661949157715,0.3067024052143097,0.3440600335597992,-0.6860926151275635,2.7442033290863037
224,35968,35963,-0.017032964155077934,-0.06596077233552933,1.12352454662323,-0.3518073260784149,-4.611513614654541,2.1441850662231445,1.921088457107544,3.8948216438293457,0.3053782284259796,0.43892791867256165,-0.702814519405365,2.7847025394439697
225,35978,35973,-0.026478925719857216,0.026539988815784454,1.0927703380584717,4.024581432342529,2.1027657985687256,2.357788324356079,1.921433925628662,3.8945746421813965,0.30506688356399536,0.5805065035820007,-0.6566905975341797,2.8013339042663574
226,35988,35983,-0.02641488052904606,-0.09060841798782349,1.091930866241455,7.0288190841674805,5.2287397384643555,2.245771884918213,1.9225974082946777,3.894221782684326,0.3048282861709595,0.5370122790336609,-0.5591980814933777,2.8229405879974365
227,35998,35993,-0.025942914187908173,-0.06659646332263947,1.1385878324508667,0.7153390645980835,13.143481254577637,1.9675873517990112,1.9233248233795166,3.8940017223358154,0.30470767617225647,0.4826900362968445,-0.46960413455963135,2.84201717376709
228,36008,36003,0.0003610331623349339,-0.13987484574317932,1.0863198041915894,-6.005229949951172,13.505276679992676,-0.028475604951381683,1.923902988433838,3.8941519260406494,0.3051656484603882,0.39856675267219543,-0.47216796875,2.8585638999938965
229,36018,36013,0.01670861802995205,-0.03463567793369293,1.0077404975891113,-9.6512451171875,11.179839134216309,-2.3042526245117188,1.9253445863723755,3.895451068878174,0.3051941394805908,0.20994260907173157,-0.6465078592300415,2.8742825984954834
230,36028,36023,-0.004743024241179228,-0.017501525580883026,1.0158770084381104,-6.346482276916504,4.437973499298096,-4.812032699584961,1.925260305404663,3.8952815532684326,0.30543437600135803,0.20171621441841125,-0.7034240961074829,2.838679313659668
231,36038,36033,-0.037034135311841965,-0.009807666763663292,1.0430469512939453,0.15122361481189728,-2.400376796722412,-6.166090488433838,1.9260553121566772,3.8955564498901367,0.3039642870426178,0.15045024454593658,-0.7745949029922485,2.7883572578430176
232,36048,36043,0.004141582176089287,-0.0013135633198544383,1.0504584312438965,9.99407958984375,-9.402688026428223,-7.67429780960083,1.9242396354675293,3.8919098377227783,0.3041245937347412,0.30118003487586975,-0.7018157839775085,2.6991379261016846
233,36058,36053,0.013117559254169464,-0.009296867996454239,1.00848388671875,14.921429634094238,-13.906723022460938,-8.449003219604492,1.9237301349639893,3.8891234397888184,0.30422288179397583,0.3879086673259735,-0.5773656368255615,2.621767520904541
234,36068,36063,-0.02981354296207428,0.005019429139792919,1.0762736797332764,13.1798095703125,-16.353206634521484,-8.078764915466309,1.9256354570388794,3.8896989822387695,0.30530235171318054,0.39187923073768616,-0.4725355803966522,2.556973695755005
235,36078,36073,-0.0296280849725008,0.02546055242419243,1.0353561639785767,6.27960205078125,-15.122149467468262,-9.971435546875,1.92543625831604,3.8889739513397217,0.30561134219169617,0.6591913104057312,-0.2513294517993927,2.4532225131988525
236,36088,36083,0.005441300570964813,-0.023619331419467926,0.9730918407440186,-1.4173604249954224,-11.801223754882812,-11.80717658996582,1.9261287450790405,3.8889520168304443,0.30589568614959717,0.8009083867073059,-0.18069611489772797,2.351123809814453
237,36098,36093,-0.020641300827264786,-0.06027520075440407,1.0741188526153564,-5.831564426422119,-3.861593008041382,-14.60017204284668,1.9187006950378418,3.8899877071380615,0.3064827024936676,0.8592672944068909,-0.3759118318557739,2.256118059158325
238,36108,36103,-0.007929462008178234,-0.11882741749286652,1.00924813747406,-6.561320781707764,1.2799590826034546,-16.491003036499023,1.9194023609161377,3.889946699142456,0.30682867765426636,0.8904642462730408,-0.45158806443214417,2.1130106449127197
