,timestamp_start,timestamp_end,acc.x,acc.y,acc.z,gyro.x,gyro.y,gyro.z,stateEstimate.x,stateEstimate.y,stateEstimate.z,stabilizer.pitch,stabilizer.roll,stabilizer.yaw
0,43769,43767,0.029105136170983315,-0.02771611697971821,0.9938953518867493,-0.36108458042144775,-1.2489323616027832,1.3322793245315552,0.5134692192077637,0.48453837633132935,0.19459782540798187,-0.5821594595909119,-0.14022386074066162,2.1615188121795654
1,43779,43777,0.0742708221077919,0.019201382994651794,0.9237631559371948,-1.072769284248352,-2.0644490718841553,1.2517238855361938,0.5134197473526001,0.4852832555770874,0.19631850719451904,-0.6092477440834045,-0.3216511011123657,2.1639816761016846
2,43789,43787,0.015627039596438408,0.006080301944166422,0.9685102105140686,-2.798234224319458,-3.4864442348480225,1.1554734706878662,0.5134161710739136,0.48374074697494507,0.1977444887161255,-0.6142817735671997,-0.21051353216171265,2.1843433380126953
3,43799,43797,0.006863668095320463,-0.005575242917984724,0.9936875104904175,-5.463287353515625,-4.1515302658081055,1.0094460248947144,0.5134368538856506,0.48411083221435547,0.19678746163845062,-0.5987436175346375,-0.3625679314136505,2.187610626220703
4,43809,43807,-0.009486674331128597,0.028226742520928383,0.9853391051292419,-7.958563804626465,-3.632371425628662,1.1171784400939941,0.513325035572052,0.48338454961776733,0.19805467128753662,-0.571384847164154,-0.39765089750289917,2.201004981994629
5,43819,43817,0.0031359822023659945,0.10669048130512238,0.9262590408325195,-8.700398445129395,-3.422762870788574,0.6791210174560547,0.51323002576828,0.48275747895240784,0.19929632544517517,-0.5483081340789795,-0.4670683741569519,2.2121307849884033
6,43829,43827,-0.021198827773332596,0.060265351086854935,1.0096869468688965,-7.6663498878479,-2.265483856201172,0.5546551942825317,0.5131163001060486,0.48276063799858093,0.2005366086959839,-0.5255764722824097,-0.6158413290977478,2.2128818035125732
7,43839,43837,0.04541656747460365,-0.0753745287656784,0.9994400143623352,-5.702437400817871,-1.5739527940750122,0.4689430296421051,0.5131170153617859,0.4826927185058594,0.20119713246822357,-0.5252870917320251,-0.733524739742279,2.2157819271087646
8,43849,43847,0.02482730709016323,-0.0883660838007927,0.9963352084159851,-2.482564926147461,-1.9523564577102661,0.442010760307312,0.5137090086936951,0.4818890690803528,0.20237649977207184,-0.5950329899787903,-0.7341023683547974,2.22918963432312
9,43859,43857,-0.0026917769573628902,-0.1444825381040573,1.0308387279510498,0.5589979887008667,-1.3088383674621582,0.5848328471183777,0.5142922401428223,0.4808945059776306,0.20351913571357727,-0.6498339772224426,-0.6828771233558655,2.244753122329712
10,43869,43867,0.0302274189889431,0.009529409930109978,1.0156528949737549,1.7749078273773193,-2.2069225311279297,1.0990920066833496,0.5142834186553955,0.4803158640861511,0.20361831784248352,-0.6207402944564819,-0.6648961305618286,2.2517518997192383
11,43879,43877,0.028683656826615334,0.0404118187725544,0.9972861409187317,2.0015618801116943,-6.132099628448486,0.8588052988052368,0.515973687171936,0.47981294989585876,0.20467008650302887,-0.7688168287277222,-0.6326359510421753,2.2742793560028076
12,43889,43887,-0.0026603704318404198,0.03175628185272217,1.0582462549209595,0.24676871299743652,-8.315133094787598,0.7338179349899292,0.515562891960144,0.4798525869846344,0.20599859952926636,-0.6249961853027344,-0.6822647452354431,2.2708981037139893
13,43899,43897,-0.0038352455012500286,-0.0009484427864663303,1.0532658100128174,-1.4760934114456177,-11.067368507385254,0.19210174679756165,0.5156208872795105,0.4799834191799164,0.2086176872253418,-0.5170740485191345,-0.7497525215148926,2.2686607837677
14,43909,43907,0.026413552463054657,-0.029535114765167236,0.9734206199645996,-2.84297513961792,-10.428364753723145,0.1715562790632248,0.5149638056755066,0.48015397787094116,0.2100130319595337,-0.30680182576179504,-0.828170657157898,2.2588353157043457
15,43919,43917,0.011867813766002655,-0.015293637290596962,1.0228606462478638,-1.5318387746810913,-13.306407928466797,0.5118218660354614,0.5143162608146667,0.4803619980812073,0.2113284021615982,-0.10185761004686356,-0.9062737226486206,2.250492572784424
16,43929,43927,-0.06360644102096558,-0.010331659577786922,1.0960813760757446,-0.04695119708776474,-9.56460189819336,0.16483524441719055,0.5137326717376709,0.4785847067832947,0.21274502575397491,0.08470965921878815,-0.7455006241798401,2.2669618129730225
17,43939,43937,0.03553737699985504,-0.0091193662956357,1.034407138824463,1.421385645866394,-4.713856220245361,0.5015283226966858,0.513292133808136,0.4786508083343506,0.21387453377246857,0.1994059681892395,-0.7893251180648804,2.263523817062378
18,43949,43947,-0.023949455469846725,0.025501390919089317,1.0135403871536255,1.387818694114685,-0.6767902374267578,0.5781468152999878,0.5143276453018188,0.47870537638664246,0.2154775708913803,0.11228501051664352,-0.8049381375312805,2.279670238494873
19,43959,43957,0.07094870507717133,0.041875772178173065,1.0170477628707886,1.408966064453125,3.090085506439209,0.15313352644443512,0.5144081711769104,0.47744056582450867,0.21695904433727264,0.10132884979248047,-0.6797702312469482,2.292367458343506
20,43969,43967,0.0723814144730568,-0.06011800095438957,1.021342396736145,1.1253869533538818,3.390634059906006,-0.11036957055330276,0.515218198299408,0.4775070548057556,0.21850624680519104,-0.019994977861642838,-0.7075450420379639,2.300107002258301
21,43979,43977,0.0069017126224935055,-0.020272009074687958,1.0497080087661743,0.29475757479667664,1.0616413354873657,-0.3839690089225769,0.5153763890266418,0.4769102931022644,0.2200227975845337,-0.047821205109357834,-0.6651706099510193,2.300321578979492
22,43989,43987,0.0025190510787069798,0.05537036433815956,0.9569016098976135,0.05572161823511124,-1.3570135831832886,-0.30934083461761475,0.5154171586036682,0.47699737548828125,0.22160190343856812,-0.04901040345430374,-0.7071189284324646,2.2930428981781006
23,43999,43997,-0.010707305744290352,0.026596125215291977,0.9817091226577759,-0.38870418071746826,-5.009914398193359,-0.601779580116272,0.5158957839012146,0.47713032364845276,0.22256654500961304,-0.0648302510380745,-0.7500000596046448,2.2916629314422607
24,44009,44007,-0.013385227881371975,0.047043927013874054,1.063786268234253,-0.21915733814239502,-7.396726608276367,-0.9126092791557312,0.5155378580093384,0.47721314430236816,0.2240815907716751,0.046035170555114746,-0.7871671319007874,2.278904438018799
25,44019,44017,0.0014907013392075896,-0.15350060164928436,1.0239382982254028,1.4728368520736694,-8.583540916442871,-0.6371482014656067,0.5157041549682617,0.4759550094604492,0.22563357651233673,0.13019432127475739,-0.6633687615394592,2.2754130363464355
26,44029,44027,-0.03102717734873295,-0.028729166835546494,1.0693212747573853,1.7789372205734253,-6.994210720062256,-0.7604931592941284,0.5165213346481323,0.47598084807395935,0.22722768783569336,0.13079339265823364,-0.6746570467948914,2.2756950855255127
27,44039,44037,0.02606443129479885,0.07292570918798447,0.982293426990509,2.1583359241485596,-5.623741626739502,-0.7046027183532715,0.5160604119300842,0.4759184718132019,0.22763001918792725,0.26676076650619507,-0.6764010190963745,2.2622625827789307
28,44049,44047,0.0008875080966390669,-0.009805193170905113,0.9849784970283508,2.5422024726867676,-6.16241979598999,-0.7246670722961426,0.5157012343406677,0.4758490025997162,0.22917252779006958,0.378630667924881,-0.6693119406700134,2.2514395713806152
29,44059,44057,-0.04795992001891136,0.019182421267032623,1.053612232208252,1.5854648351669312,-4.087031841278076,-0.7914540767669678,0.5147081017494202,0.47640764713287354,0.23068134486675262,0.5422874093055725,-0.731558620929718,2.2356576919555664
30,44069,44067,-0.006978909019380808,0.011640757322311401,1.0102391242980957,1.1587896347045898,-1.8184818029403687,-0.6108692288398743,0.5138714909553528,0.47566768527030945,0.23303420841693878,0.6605086326599121,-0.6496672034263611,2.2201802730560303
31,44079,44077,0.00042664140346460044,0.047377608716487885,0.9151554107666016,1.71931791305542,1.4793963432312012,-0.3992554843425751,0.5132441520690918,0.47289884090423584,0.23455825448036194,0.7268410921096802,-0.3513369560241699,2.2004430294036865
32,44089,44087,0.005553044844418764,0.05292101204395294,0.9507122039794922,-0.158833846449852,5.119818687438965,-0.1661832630634308,0.516764223575592,0.4737620949745178,0.2367754578590393,0.2822180688381195,-0.45897263288497925,2.2348480224609375
33,44099,44097,0.04466286674141884,-0.12099683284759521,0.9494718909263611,-1.985198736190796,6.32996940612793,-0.3136540353298187,0.514365553855896,0.47514238953590393,0.23823770880699158,0.49743780493736267,-0.6604508757591248,2.2207119464874268
34,44109,44107,-0.010977494530379772,-0.01779705099761486,1.009484887123108,-2.4146714210510254,5.325083255767822,-0.8468615412712097,0.5126981139183044,0.47525426745414734,0.239632248878479,0.6038352251052856,-0.712878942489624,2.2046356201171875
35,44119,44117,0.011621898040175438,-0.15070495009422302,0.9890651702880859,-0.13233451545238495,4.691986083984375,-0.8248288631439209,0.5079242587089539,0.48623785376548767,0.24016156792640686,0.9984332919120789,-1.9371390342712402,2.2374467849731445
36,44129,44127,-0.018663471564650536,-0.030096299946308136,1.033940076828003,6.901260852813721,6.9820380210876465,-1.1349105834960938,0.5005107522010803,0.4940313696861267,0.23787279427051544,1.6313138008117676,-2.6665666103363037,2.2279412746429443
37,44139,44137,-0.007941818796098232,-0.017302781343460083,0.9645543694496155,23.205543518066406,12.732396125793457,-1.2833374738693237,0.5012291669845581,0.4937989115715027,0.24156500399112701,1.303619384765625,-2.2922024726867676,2.213632345199585
38,44149,44147,0.009661084972321987,-0.03501955792307854,0.9955304265022278,41.803524017333984,21.144798278808594,-0.7329458594322205,0.5023437738418579,0.49186792969703674,0.24585086107254028,0.8931498527526855,-1.576597809791565,2.1859166622161865
39,44159,44157,0.016035787761211395,0.13597217202186584,0.9779427647590637,54.1932487487793,27.514318466186523,-0.602713406085968,0.5025153756141663,0.49235019087791443,0.24798889458179474,0.5208250284194946,-1.0092872381210327,2.18402361869812
40,44169,44167,0.08223304897546768,0.06240511313080788,0.8859485387802124,56.46274185180664,30.097640991210938,-0.7985388040542603,0.5037846565246582,0.4908420443534851,0.24950040876865387,0.0013265858869999647,-0.14676427841186523,2.178334951400757
41,44179,44177,0.030158545821905136,-0.05804388225078583,0.9848217964172363,49.78470230102539,28.37139129638672,-1.332763433456421,0.5044072866439819,0.49003100395202637,0.25103604793548584,-0.43846750259399414,0.6032469272613525,2.1736042499542236
42,44189,44187,0.03200232982635498,-0.14798016846179962,0.962224006652832,35.40873336791992,22.637685775756836,-2.210474729537964,0.5047467947006226,0.49124255776405334,0.2524113059043884,-0.8031072020530701,1.02156662940979,2.1765294075012207
43,44199,44197,0.027876049280166626,-0.05761760100722313,0.9423350095748901,16.48925018310547,13.006502151489258,-2.7974672317504883,0.503974974155426,0.4919956624507904,0.25362491607666016,-0.9640989899635315,1.3160698413848877,2.152662515640259
44,44209,44207,0.06598904728889465,-0.022547177970409393,0.9249473214149475,0.24622581899166107,2.4566099643707275,-3.0796704292297363,0.5047566294670105,0.49185875058174133,0.2547491192817688,-1.1986216306686401,1.5267611742019653,2.1340153217315674
45,44219,44217,0.10125188529491425,-0.08475436270236969,0.9443575143814087,-11.2113676071167,-8.312454223632812,-3.6342930793762207,0.5047479867935181,0.4919596314430237,0.25587356090545654,-1.220041275024414,1.5469447374343872,2.102595329284668
46,44229,44227,0.035768792033195496,-0.0779036432504654,0.9611876010894775,-16.0019474029541,-16.926334381103516,-4.1407294273376465,0.5041226148605347,0.49108847975730896,0.25457796454429626,-1.0591120719909668,1.5537095069885254,2.063997268676758
47,44239,44237,0.047832999378442764,0.02778373286128044,0.8799356818199158,-15.928130149841309,-19.31521224975586,-3.7655563354492188,0.5044147372245789,0.4920520782470703,0.25556880235671997,-0.9462307691574097,1.3377978801727295,2.01322603225708
48,44249,44247,0.035800643265247345,0.11729191988706589,0.9131677150726318,-10.92063045501709,-18.07120704650879,-3.489589214324951,0.5061339735984802,0.49076932668685913,0.25622737407684326,-0.9517055153846741,1.3735976219177246,1.9692217111587524
49,44259,44257,0.02349037677049637,0.056465256959199905,0.8930335640907288,-4.996416091918945,-14.071850776672363,-3.0613045692443848,0.5049894452095032,0.49054908752441406,0.2570817470550537,-0.6702784895896912,1.3277539014816284,1.9462848901748657
50,44269,44267,0.02146473154425621,-0.019472725689411163,0.9668720960617065,-0.7006715536117554,-9.415895462036133,-2.4794535636901855,0.5064021348953247,0.4900451898574829,0.2576462924480438,-0.6970342397689819,1.3686802387237549,1.9023774862289429
51,44279,44277,-0.01071881502866745,0.047709252685308456,1.0503954887390137,1.0246570110321045,-4.3152360916137695,-2.294670820236206,0.506702184677124,0.48851490020751953,0.2581806480884552,-0.6441249847412109,1.5310291051864624,1.8897838592529297
52,44289,44287,-0.024138467386364937,-0.1582212597131729,1.00226891040802,-0.2400890439748764,-0.8441479802131653,-1.7928234338760376,0.5065131187438965,0.48764774203300476,0.2587645947933197,-0.5774115920066833,1.616235375404358,1.880305528640747
53,44299,44297,-0.04696997255086899,-0.11664959788322449,1.0973949432373047,-4.3905348777771,1.7229262590408325,-1.6957716941833496,0.5087871551513672,0.4878058135509491,0.2612802982330322,-0.7956939339637756,1.5747345685958862,1.8223763704299927
54,44309,44307,-0.018152114003896713,-0.08002407848834991,0.9737070798873901,-9.749357223510742,1.144963264465332,-1.3138986825942993,0.5073768496513367,0.4888656735420227,0.2624567449092865,-0.6401326656341553,1.3831199407577515,1.8241323232650757
55,44319,44317,-0.01711001619696617,0.025825785472989082,1.0213627815246582,-14.260414123535156,-3.747412919998169,-1.3981592655181885,0.5073962807655334,0.4888128638267517,0.26336780190467834,-0.6234602928161621,1.2645326852798462,1.8124051094055176
56,44329,44327,-0.005065349396318197,-0.0382218100130558,1.0262866020202637,-14.91565227508545,-8.78664493560791,-1.6007294654846191,0.5071846842765808,0.4859938621520996,0.26507702469825745,-0.5275163650512695,1.3859156370162964,1.8334709405899048
57,44339,44337,-0.043807342648506165,-0.029903654009103775,1.0604116916656494,-14.602640151977539,-12.008492469787598,-1.532832145690918,0.506554365158081,0.4862556755542755,0.2661319673061371,-0.3476078510284424,1.1685274839401245,1.8217488527297974
58,44349,44347,-0.07473244518041611,0.07031118869781494,1.0892246961593628,-15.256184577941895,-5.20501184463501,-0.830258309841156,0.5058090090751648,0.487244576215744,0.26724979281425476,-0.16215795278549194,0.8851796984672546,1.8087797164916992
59,44359,44357,-0.02700943313539028,-0.018925009295344353,0.9945222735404968,-14.184639930725098,4.670143127441406,-0.6379947066307068,0.5063599348068237,0.4882873296737671,0.2685045599937439,-0.21177098155021667,0.5939620733261108,1.776502251625061
60,44369,44367,0.007566654123365879,0.006413692142814398,1.0119774341583252,-10.756455421447754,15.477438926696777,-0.4467199444770813,0.5117968320846558,0.48177775740623474,0.2675369083881378,-0.8911610841751099,1.2002580165863037,1.723004937171936
61,44379,44377,-0.0125513207167387,0.00459476700052619,0.9936637282371521,-10.102860450744629,18.53515625,0.11912113428115845,0.5127903819084167,0.4810923933982849,0.2685792148113251,-1.1162556409835815,1.0695405006408691,1.7154351472854614
62,44389,44387,0.06044559180736542,-0.07993749529123306,0.9479597806930542,-12.205052375793457,15.878369331359863,0.11730805039405823,0.5132896304130554,0.4803197979927063,0.2698388993740082,-1.2649238109588623,0.9355999827384949,1.7249804735183716
63,44399,44397,0.06248752400279045,-0.15034416317939758,0.9392118453979492,-15.50555419921875,7.643584251403809,-0.4369138181209564,0.5141350626945496,0.4804922044277191,0.2713288366794586,-1.4001022577285767,0.6826225519180298,1.7083195447921753
64,44409,44407,-0.019955484196543694,-0.04206155240535736,1.0016639232635498,-18.724769592285156,-2.9167320728302,-0.037424083799123764,0.5143809914588928,0.4801758825778961,0.27248522639274597,-1.3657715320587158,0.4581011235713959,1.7107661962509155
65,44419,44417,0.023299606516957283,-0.008206123486161232,0.975004255771637,-19.76478385925293,-10.464056015014648,0.22589407861232758,0.5147876143455505,0.479316771030426,0.2735395133495331,-1.26250422000885,0.276919424533844,1.7191591262817383
66,44429,44427,-0.008113991469144821,0.0033994412515312433,0.962995171546936,-18.911643981933594,-16.137163162231445,-0.0015596764860674739,0.5160919427871704,0.47855424880981445,0.2735980451107025,-1.1917418241500854,0.08609836548566818,1.7095990180969238
67,44439,44437,0.015964172780513763,-0.040197040885686874,0.9665713906288147,-17.730361938476562,-17.177915573120117,-0.0387059785425663,0.515782356262207,0.4776420295238495,0.2746420204639435,-0.9058080315589905,-0.08591810613870621,1.7298333644866943
68,44449,44447,-0.04931126907467842,-0.058730095624923706,1.0469672679901123,-14.980175018310547,-14.908759117126465,-0.39276641607284546,0.5175622701644897,0.4774363934993744,0.27546006441116333,-0.8630019426345825,-0.3092115521430969,1.7036046981811523
69,44459,44457,0.008188633248209953,-0.06746700406074524,0.920576274394989,-12.281644821166992,-9.349193572998047,-0.009985903277993202,0.5181486010551453,0.4776724874973297,0.2772286832332611,-0.7185555696487427,-0.5534440875053406,1.6898554563522339
70,44469,44467,-0.022017909213900566,-0.09482764452695847,1.0471608638763428,-8.864874839782715,-5.836824893951416,0.2440366894006729,0.5176359415054321,0.4769937992095947,0.2782406210899353,-0.49405935406684875,-0.6567479968070984,1.7069385051727295
71,44479,44477,-0.04410925507545471,0.005339083727449179,1.0767762660980225,-5.5334553718566895,2.0521562099456787,0.15409524738788605,0.5196568369865417,0.4740068316459656,0.2791249752044678,-0.6150273680686951,-0.47191646695137024,1.732287883758545
72,44489,44487,0.0379607267677784,0.011407027021050453,0.9355940818786621,-4.279455184936523,5.700113773345947,-0.12281627207994461,0.521216094493866,0.47441956400871277,0.2800806760787964,-0.7303510308265686,-0.6530147194862366,1.7106761932373047
73,44499,44497,0.015900421887636185,0.03776281327009201,0.9666984677314758,-4.7948150634765625,5.091721534729004,-0.10966318100690842,0.5215854048728943,0.47325971722602844,0.2817572057247162,-0.7220137119293213,-0.6526572704315186,1.7162336111068726
74,44509,44507,0.05215081572532654,0.011649765074253082,0.9617537260055542,-6.322132587432861,2.2119932174682617,0.1123189777135849,0.5225827693939209,0.4722156226634979,0.28271064162254333,-0.7748205661773682,-0.6771126985549927,1.719913125038147
75,44519,44517,0.0009444297756999731,0.0053887637332081795,0.9863672256469727,-8.416301727294922,-3.927058458328247,-0.33634576201438904,0.5225910544395447,0.4712393581867218,0.2837480902671814,-0.6685373783111572,-0.7302613854408264,1.7219473123550415
76,44529,44527,-0.031226061284542084,0.06278368085622787,1.0024170875549316,-10.779294967651367,-7.650052070617676,-0.35491806268692017,0.5230199098587036,0.4718441367149353,0.2861920893192291,-0.5655501484870911,-0.9783218502998352,1.7021820545196533
77,44539,44537,-0.01072617620229721,0.028929414227604866,0.9731679558753967,-12.023212432861328,-9.018627166748047,-0.4978139400482178,0.5246745347976685,0.4712209701538086,0.28714749217033386,-0.5734491944313049,-1.091951847076416,1.7012927532196045
78,44549,44547,0.00208920962177217,0.11103915423154831,0.9639896154403687,-10.50477409362793,-8.175973892211914,-0.2101978063583374,0.5255072712898254,0.4720544219017029,0.2881392538547516,-0.48676449060440063,-1.357698917388916,1.684085488319397
79,44559,44557,-0.024901678785681725,0.06764954328536987,0.9911195635795593,-6.551574230194092,-6.023369312286377,-0.02967485785484314,0.5249287486076355,0.47051194310188293,0.2872147262096405,-0.2696618437767029,-1.3242543935775757,1.688740611076355
80,44569,44567,0.06715939939022064,0.00037626383709721267,0.8960573673248291,-1.6877955198287964,-3.7714922428131104,-0.29392439126968384,0.5267843008041382,0.46946844458580017,0.2879922688007355,-0.33738741278648376,-1.3072705268859863,1.7005858421325684
81,44579,44577,0.06506865471601486,-0.023794082924723625,0.9359340667724609,2.338176727294922,-1.2759076356887817,-0.39339837431907654,0.5272579193115234,0.46952491998672485,0.2887830138206482,-0.273499071598053,-1.3643381595611572,1.6883906126022339
82,44589,44587,-0.006673814263194799,0.02228046953678131,1.000110387802124,4.809978008270264,0.33094292879104614,-0.508730411529541,0.5286810398101807,0.4686436951160431,0.28944167494773865,-0.328572541475296,-1.2819137573242188,1.6911637783050537
83,44599,44597,0.009950605221092701,-0.03341291472315788,0.9372541308403015,5.157170295715332,1.582208275794983,-0.5386878848075867,0.5303452610969543,0.46759331226348877,0.29310786724090576,-0.40230342745780945,-1.178155779838562,1.6967564821243286
84,44609,44607,-0.010686378926038742,-0.10211846232414246,0.9740241765975952,2.686739206314087,-0.389544814825058,-0.8747406601905823,0.5303829312324524,0.4673265814781189,0.29398801922798157,-0.31146159768104553,-1.1722530126571655,1.6756950616836548
85,44619,44617,-0.0035826244857162237,-0.03411931172013283,0.9414057731628418,-0.16650621592998505,-1.9780505895614624,-1.218876838684082,0.5325120687484741,0.46804267168045044,0.294668048620224,-0.4289354085922241,-1.2786529064178467,1.6756079196929932
86,44629,44627,0.017414815723896027,0.012242878787219524,0.9953584671020508,-2.6147611141204834,-4.530515193939209,-1.1941111087799072,0.5323513150215149,0.46810173988342285,0.2969885766506195,-0.26799261569976807,-1.3422781229019165,1.6448291540145874
87,44639,44637,0.011989773251116276,-0.01984448730945587,0.9391157627105713,-2.1948325634002686,-4.683403491973877,-1.2467314004898071,0.5327845215797424,0.4675585627555847,0.2977961301803589,-0.17708347737789154,-1.3422845602035522,1.6283832788467407
88,44649,44647,0.007581209763884544,-0.06002793461084366,0.9208629131317139,-1.1106997728347778,-5.157814025878906,-1.223740577697754,0.5323819518089294,0.46770843863487244,0.29861462116241455,0.00497360760346055,-1.4093223810195923,1.5976134538650513
89,44659,44657,-0.011310660280287266,0.01025337539613247,0.9946044087409973,1.6284523010253906,-3.146763801574707,-1.0094224214553833,0.5343217849731445,0.4678107500076294,0.29946592450141907,-0.07067366689443588,-1.4331680536270142,1.6060402393341064
90,44669,44667,0.0031946145463734865,0.007242947351187468,0.9622398614883423,4.533243656158447,0.004514336585998535,-0.918157160282135,0.5341766476631165,0.4668893814086914,0.3002009689807892,0.04805515706539154,-1.3300338983535767,1.5808420181274414
91,44679,44677,0.015548516064882278,-0.02521287091076374,0.957617461681366,6.549229145050049,-0.35665109753608704,-0.6052325963973999,0.5342273116111755,0.4665307402610779,0.3008672893047333,0.11064500361680984,-1.260290503501892,1.5619124174118042
92,44689,44687,0.027517247945070267,0.056838542222976685,1.003359317779541,8.483799934387207,4.879519939422607,-0.36435237526893616,0.5366469025611877,0.46614348888397217,0.3014151155948639,-0.0921323373913765,-1.1598401069641113,1.5865771770477295
93,44699,44697,-0.023266496136784554,-0.0026454648468643427,0.9798707962036133,7.96890115737915,6.348840236663818,-0.26082882285118103,0.5369302034378052,0.4655722677707672,0.29993659257888794,-0.10346627235412598,-1.04367995262146,1.572279453277588
94,44709,44707,0.003224271349608898,-0.016825532540678978,0.9599195122718811,5.657362461090088,5.260183811187744,-0.06444129347801208,0.5373218655586243,0.4658527076244354,0.3004019856452942,-0.12762756645679474,-1.027253270149231,1.5634064674377441
95,44719,44717,0.02650965191423893,0.0033465095330029726,0.9496449828147888,2.8078882694244385,3.4587209224700928,0.015373283065855503,0.5399373769760132,0.4663890600204468,0.30067482590675354,-0.35875535011291504,-1.047213077545166,1.5947883129119873
96,44729,44727,0.004874891601502895,-0.01361739169806242,0.9633173942565918,0.8605002760887146,0.03662100434303284,-0.08813264220952988,0.5400576591491699,0.467019647359848,0.301390141248703,-0.2972759008407593,-1.10288405418396,1.5791476964950562
97,44739,44737,-0.005983369890600443,-0.004440385848283768,0.96522456407547,0.38489407300949097,-3.4940927028656006,-0.10505830496549606,0.5399250388145447,0.4669724106788635,0.3018004596233368,-0.18016625940799713,-1.0961521863937378,1.5624874830245972
98,44749,44747,0.01839732564985752,-0.011127214878797531,0.9760106801986694,1.0210407972335815,-3.4041597843170166,-0.5466280579566956,0.5411370396614075,0.46695321798324585,0.3020715117454529,-0.1806515008211136,-1.0808000564575195,1.5670616626739502
99,44759,44757,-0.01695365272462368,0.06179908663034439,0.9567742943763733,4.982266902923584,-6.200155735015869,0.12428639084100723,0.5423727631568909,0.4676210582256317,0.3028186857700348,-0.17507538199424744,-1.108579158782959,1.572277307510376
100,44769,44767,0.00030587470973841846,-0.1179603561758995,0.9514304399490356,6.670053958892822,-3.088360071182251,-0.3719351887702942,0.5419872403144836,0.46721193194389343,0.3031812608242035,-0.011806642636656761,-1.0022697448730469,1.5499686002731323
101,44779,44777,-0.01897071674466133,0.0403892807662487,1.0535094738006592,8.244967460632324,0.5590137839317322,-0.4519444704055786,0.5417119264602661,0.4682171046733856,0.3034478425979614,0.10253500938415527,-1.016038417816162,1.532077670097351
102,44789,44787,0.009207312949001789,0.11087135970592499,0.9647281169891357,10.045670509338379,2.820046901702881,-0.07056912034749985,0.5425311923027039,0.46760860085487366,0.3037072718143463,0.07357719540596008,-0.8438163995742798,1.5313711166381836
103,44799,44797,0.02769407257437706,-0.0305479709059,0.9472025036811829,10.906577110290527,6.327198505401611,0.1516624242067337,0.5442684888839722,0.4676787257194519,0.3019549548625946,-0.08029953390359879,-0.7302679419517517,1.546966791152954
104,44809,44807,-0.021734995767474174,-0.005782132036983967,1.0200927257537842,10.338122367858887,8.589192390441895,0.02810070663690567,0.545487105846405,0.4677264988422394,0.3019995093345642,-0.19721956551074982,-0.612180769443512,1.5523078441619873
105,44819,44817,0.004876560531556606,-0.03191818669438362,0.9865598678588867,8.813124656677246,8.042317390441895,0.14029723405838013,0.5460572838783264,0.46703800559043884,0.30209028720855713,-0.2556800842285156,-0.4375957250595093,1.5461117029190063
106,44829,44827,0.01124550774693489,0.007511531934142113,0.984204888343811,5.796568393707275,5.59144926071167,0.45821940898895264,0.5465880632400513,0.4665094316005707,0.3034707307815552,-0.2952899932861328,-0.3058794140815735,1.5437017679214478
107,44839,44837,-0.005232090130448341,-0.014264504425227642,0.9886326789855957,2.354555368423462,3.329108953475952,0.5793508291244507,0.546846330165863,0.4669569432735443,0.3036452829837799,-0.28766512870788574,-0.30857810378074646,1.5443979501724243
108,44849,44847,0.03444783762097359,-0.040286269038915634,0.95322185754776,-0.09406767785549164,-0.9896426200866699,0.4473205804824829,0.5484232902526855,0.46844714879989624,0.3037198781967163,-0.37621188163757324,-0.43220260739326477,1.560633897781372
109,44859,44857,0.01085329707711935,-0.02996715158224106,0.9770035743713379,-0.9771061539649963,-2.441783905029297,0.44312477111816406,0.5482447743415833,0.4692271649837494,0.303264856338501,-0.2850261926651001,-0.48993420600891113,1.5531620979309082
110,44869,44867,-0.004431251436471939,-0.14916476607322693,1.040070652961731,1.9456663131713867,-4.160711288452148,0.4077492356300354,0.5481600165367126,0.469229519367218,0.3033449351787567,-0.17861127853393555,-0.4704926908016205,1.5509802103042603
111,44879,44877,0.029392937198281288,-0.05021066591143608,0.9692234992980957,5.596368312835693,-5.699040412902832,0.4394571781158447,0.5501869916915894,0.4690901041030884,0.30330464243888855,-0.27857184410095215,-0.4190295934677124,1.5653613805770874
112,44889,44887,-0.050628673285245895,0.03522254526615143,1.032578706741333,8.016393661499023,-1.2810819149017334,0.6918073892593384,0.5522251129150391,0.46867847442626953,0.30314120650291443,-0.35195544362068176,-0.31499364972114563,1.5783498287200928
113,44899,44897,0.007254462223500013,-0.015130860731005669,1.0138355493545532,9.290804862976074,1.17936110496521,0.8123440742492676,0.5521456003189087,0.46882757544517517,0.3032408356666565,-0.2344139963388443,-0.2440168410539627,1.5791610479354858
114,44909,44907,0.0005032031331211329,-0.0022870490793138742,0.9952008724212646,8.353050231933594,1.4921534061431885,1.1143378019332886,0.5522029399871826,0.46893957257270813,0.30334189534187317,-0.16809053719043732,-0.1494128406047821,1.5828763246536255
115,44919,44917,0.029904302209615707,-0.07091512531042099,1.0472136735916138,6.281269073486328,3.110089063644409,0.8070092797279358,0.5530806183815002,0.46919888257980347,0.3033827245235443,-0.19817909598350525,-0.0677075982093811,1.5927006006240845
116,44929,44927,0.028787804767489433,-0.07848765701055527,0.9564374685287476,4.10357666015625,3.108283519744873,0.5527104735374451,0.5531854033470154,0.4687632620334625,0.3012995421886444,-0.16764713823795319,0.05483853444457054,1.597583532333374
117,44939,44937,-0.01555434986948967,0.018761252984404564,1.0502327680587769,1.8412632942199707,3.239830732345581,0.40651175379753113,0.554080069065094,0.4700939655303955,0.3012649416923523,-0.21905218064785004,-0.012220426462590694,1.6058192253112793
118,44949,44947,0.0003431493241805583,-0.009568185545504093,1.025916337966919,0.47336339950561523,2.6472136974334717,0.5163173079490662,0.554274320602417,0.4700010418891907,0.30126717686653137,-0.19511720538139343,0.044817276298999786,1.6093600988388062
119,44959,44957,-8.718480239622295e-05,-0.03356961905956268,0.9905408620834351,0.06672803312540054,2.017944574356079,0.7599216103553772,0.5551910400390625,0.47001534700393677,0.3011544942855835,-0.24343140423297882,0.07364843040704727,1.6144558191299438
120,44969,44967,0.019223343580961227,0.030729899182915688,1.0356992483139038,0.43750327825546265,0.7845961451530457,0.7945042848587036,0.5568268895149231,0.4700525403022766,0.3010854721069336,-0.35358941555023193,0.09083561599254608,1.620675802230835
121,44979,44977,-0.025820322334766388,-0.0540480762720108,1.0201959609985352,1.6968214511871338,0.27914562821388245,0.5382737517356873,1.6430236101150513,0.192660391330719,0.3011623024940491,-0.29042309522628784,0.038264889270067215,1.6309106349945068
122,44989,44987,-0.009116108529269695,-0.019787874072790146,1.0272207260131836,1.8338689804077148,0.8692869544029236,1.0066864490509033,1.6440315246582031,0.19327521324157715,0.30145856738090515,-0.2975223958492279,0.0056231520138680935,1.637738585472107
123,44999,44997,0.038589589297771454,-0.08278140425682068,0.9751223921775818,3.4530091285705566,-0.16925904154777527,0.9628137350082397,1.6446917057037354,0.19315597414970398,0.30153629183769226,-0.30361372232437134,0.06219187751412392,1.646845817565918
124,45009,45007,-0.027975894510746002,0.011896439827978611,1.0724515914916992,4.244536876678467,-0.24349911510944366,0.7872341871261597,1.6452528238296509,0.19349455833435059,0.30166780948638916,-0.22877362370491028,0.06316589564085007,1.6589345932006836
125,45019,45017,0.03379338979721069,-0.016730085015296936,0.9943898916244507,5.18265962600708,1.0054290294647217,0.5999432802200317,1.6461317539215088,0.1933814138174057,0.3017256259918213,-0.30595964193344116,0.1566089391708374,1.663697600364685
126,45029,45027,0.0032649484928697348,-0.03534925356507301,0.9832333326339722,5.1349639892578125,4.867229461669922,0.4189087450504303,1.8288449048995972,4.6048970222473145,0.3022134006023407,-0.3860865831375122,0.18575343489646912,1.6674860715866089
127,45039,45037,-0.004389158915728331,0.040339864790439606,1.0366578102111816,4.549787521362305,1.1786901950836182,0.2721332609653473,1.6348005533218384,3.849304437637329,0.30242106318473816,-0.3418249785900116,0.21973967552185059,1.6755086183547974
128,45049,45047,0.03691789135336876,-0.02389596402645111,0.9903448820114136,3.4214630126953125,0.571036159992218,0.21606388688087463,1.6419758796691895,3.9301979541778564,0.3025655448436737,-0.36060431599617004,0.24463583528995514,1.678646445274353
129,45059,45057,0.048409637063741684,-0.018987838178873062,0.9760748744010925,1.4920721054077148,1.7877591848373413,0.3197585344314575,1.6666265726089478,3.899127960205078,0.30206266045570374,-0.4405718445777893,0.2515716552734375,1.6762882471084595
130,45069,45067,0.02432950772345066,0.009277621284127235,1.0067106485366821,2.0116355419158936,-2.307831048965454,0.08571001142263412,1.6672974824905396,3.8994827270507812,0.30225202441215515,-0.3707069158554077,0.23176901042461395,1.685080885887146
131,45079,45077,-0.0005427175783552229,-0.027743268758058548,1.0284589529037476,1.338603138923645,-2.076725959777832,0.5379285216331482,1.6680195331573486,3.8996851444244385,0.30238857865333557,-0.3439539670944214,0.28803569078445435,1.6877135038375854
132,45089,45087,0.000661826110444963,-0.05111292377114296,1.0469335317611694,1.5902167558670044,-2.025247573852539,0.4563034474849701,1.6678345203399658,3.9014716148376465,0.3036184310913086,-0.4558018147945404,0.41035428643226624,1.6844314336776733
133,45099,45097,0.03396887704730034,-0.021274009719491005,0.9745444059371948,1.7382527589797974,-1.5844186544418335,0.32627415657043457,1.6715281009674072,3.9128336906433105,0.30387330055236816,-0.40537208318710327,0.4484454393386841,1.6922770738601685
134,45109,45107,-0.021074850112199783,-0.0036541589070111513,1.0231128931045532,1.364274024963379,-1.7148984670639038,0.37115657329559326,1.6737922430038452,3.919966697692871,0.3042239546775818,-0.28680089116096497,0.41276001930236816,1.7038146257400513
135,45119,45117,-0.015260949730873108,-0.005826198495924473,1.076352834701538,0.6391928195953369,-1.8993555307388306,0.09641663730144501,1.6742491722106934,3.919851303100586,0.30403226613998413,-0.17642268538475037,0.5272139310836792,1.7168656587600708
136,45129,45127,0.049215950071811676,-0.040365882217884064,0.939985454082489,-0.49737051129341125,2.5918045043945312,-0.2688100039958954,1.6748906373977661,3.9205119609832764,0.3043326735496521,-0.15331365168094635,0.3949265480041504,1.7185701131820679
137,45139,45137,-0.016194015741348267,0.030355360358953476,1.031997561454773,-1.1754359006881714,-1.0663480758666992,-0.06628492474555969,1.675650954246521,3.9206366539001465,0.3046065866947174,-0.16972100734710693,0.40875598788261414,1.7154262065887451
138,45149,45147,0.0021397406235337257,0.025598589330911636,0.9948732256889343,-2.5004372596740723,2.145920515060425,0.03269457817077637,1.6764144897460938,3.9207801818847656,0.30486735701560974,-0.1684301346540451,0.40625008940696716,1.713300108909607
139,45159,45157,0.059080757200717926,-0.006485444959253073,0.9997983574867249,-2.640456199645996,4.165942668914795,0.23411162197589874,1.6876355409622192,3.8916807174682617,0.30293741822242737,-0.2793240249156952,0.38385432958602905,1.7037575244903564
140,45169,45167,0.08603906631469727,-0.08310212939977646,0.9876646399497986,-1.5035383701324463,3.2775421142578125,0.20031163096427917,1.6880850791931152,3.891841411590576,0.3031221628189087,-0.2598901391029358,0.35556861758232117,1.711427092552185
141,45179,45177,-0.007606658153235912,-0.039870038628578186,1.0385836362838745,-0.440278023481369,2.476170063018799,-0.026826193556189537,1.6894645690917969,3.8919894695281982,0.30318671464920044,-0.38749608397483826,0.34189847111701965,1.7051090002059937
142,45189,45187,0.03491101413965225,0.02689816989004612,0.9147312641143799,0.5678694248199463,0.8405038118362427,-0.11557453870773315,1.712863802909851,3.8631105422973633,0.3015424907207489,-0.40944546461105347,0.34636160731315613,1.7052526473999023
143,45199,45197,0.0011170664802193642,0.040379952639341354,0.9273695349693298,1.496734380722046,-1.576919436454773,0.16954848170280457,1.713847041130066,3.8626480102539062,0.301510751247406,-0.4806382656097412,0.3668183982372284,1.6990069150924683
144,45209,45207,-0.025932306423783302,0.02612055279314518,1.0788758993148804,1.7886390686035156,-4.766317367553711,0.7225887775421143,1.7282538414001465,3.879504919052124,0.30148783326148987,-0.43120625615119934,0.4739740192890167,1.7048753499984741
145,45219,45217,-0.025739919394254684,-0.163394495844841,1.0131839513778687,0.7846366167068481,-7.218876838684082,0.4531470239162445,1.7277339696884155,3.8757548332214355,0.3029335141181946,-0.33913248777389526,0.4983598589897156,1.7156851291656494
146,45229,45227,-0.053130146116018295,-0.036973726004362106,1.0908563137054443,-2.738924026489258,-5.312957763671875,0.47348248958587646,1.7208023071289062,3.881734609603882,0.3029858469963074,-0.2941240668296814,0.5027459859848022,1.7175674438476562
147,45239,45237,0.04949602857232094,0.011472918093204498,0.9809014797210693,-6.108401298522949,-3.1120681762695312,0.7327316999435425,1.7099727392196655,3.8900740146636963,0.3032073378562927,-0.1185620054602623,0.4570533037185669,1.7345365285873413
148,45249,45247,0.06461825221776962,-0.04007690027356148,1.0249828100204468,-7.180715084075928,-0.9595072865486145,0.46370822191238403,1.7110724449157715,3.8904199600219727,0.30334609746932983,-0.1351332813501358,0.35983842611312866,1.7346500158309937
149,45259,45257,0.07580263912677765,-0.11023645102977753,0.9818373918533325,-5.939774990081787,1.083044409751892,-0.04152914136648178,1.712303876876831,3.890796422958374,0.30301275849342346,-0.18327434360980988,0.2444501668214798,1.7325806617736816
150,45269,45267,-0.029527122154831886,-0.005065633449703455,1.0589230060577393,-3.135382652282715,2.156583309173584,0.07233636826276779,1.7126405239105225,3.8904902935028076,0.3032313585281372,-0.10561645776033401,0.22723573446273804,1.7423967123031616
151,45279,45277,0.01632021553814411,0.00022980103676673025,1.0168267488479614,0.01698368601500988,2.995896577835083,0.14447812736034393,1.7196260690689087,3.8999156951904297,0.3033437728881836,-0.20705333352088928,0.24780434370040894,1.735189437866211
152,45289,45287,0.010426239110529423,-0.041406575590372086,0.967339277267456,2.2582767009735107,4.737987518310547,-0.06471196562051773,1.7220821380615234,3.9034531116485596,0.3047841787338257,-0.1635669469833374,0.23725156486034393,1.743390440940857
153,45299,45297,-0.005868333857506514,0.055371448397636414,1.031624674797058,4.087420463562012,2.61896014213562,-0.15703316032886505,1.7251899242401123,3.898052930831909,0.3049924969673157,-0.29015377163887024,0.26765456795692444,1.7361613512039185
154,45309,45307,-0.03237977623939514,-0.028917327523231506,1.0431592464447021,4.701516151428223,-2.0594050884246826,-0.16483984887599945,1.7255759239196777,3.8978700637817383,0.30533066391944885,-0.24352942407131195,0.3246156573295593,1.742397665977478
155,45319,45317,0.03292451426386833,-0.051033277064561844,0.9814406633377075,1.2512104511260986,2.9051120281219482,0.29763150215148926,1.7263628244400024,3.897784948348999,0.3100949823856354,-0.2473198026418686,0.3835080564022064,1.7410612106323242
156,45329,45327,0.030493084341287613,-0.006703039165586233,0.9953762888908386,-2.8024559020996094,-0.5383893847465515,1.2180322408676147,1.7271908521652222,3.8977551460266113,0.310696542263031,-0.266200453042984,0.39685407280921936,1.7425885200500488
157,45339,45337,0.04422730207443237,0.019288400188088417,0.9487572312355042,-6.950006008148193,-1.1174006462097168,-0.2822532057762146,1.7283294200897217,3.893923044204712,0.31129997968673706,-0.2579994797706604,0.34654128551483154,1.7500897645950317
158,45349,45347,-0.026076115667819977,0.03750066086649895,0.9622663855552673,-10.280253410339355,-3.1894164085388184,-0.4133870005607605,1.7382550239562988,3.9052281379699707,0.31188082695007324,-0.22825640439987183,0.3024645447731018,1.7543671131134033
159,45359,45357,0.03076240047812462,0.03143392875790596,0.8987237811088562,-10.2344388961792,-1.6447679996490479,0.07671286910772324,1.7543869018554688,3.904353618621826,0.31558874249458313,-0.17098216712474823,0.27636775374412537,1.7532581090927124
160,45369,45367,0.040245845913887024,0.059153951704502106,0.8921788334846497,-8.420219421386719,-0.3032742738723755,0.4336015582084656,1.756188154220581,3.9048283100128174,0.31619545817375183,-0.27980220317840576,0.08927937597036362,1.7414215803146362
161,45379,45377,-0.053207822144031525,-0.025119302794337273,1.0238118171691895,-5.050200462341309,-2.3365776538848877,0.5588784217834473,1.7563538551330566,3.905162811279297,0.31686675548553467,-0.17584145069122314,-0.059816110879182816,1.7519371509552002
162,45389,45387,-0.06125442683696747,-0.02318611368536949,1.011264443397522,-1.709242343902588,2.8425207138061523,1.213206171989441,1.757189154624939,3.90541410446167,0.317950040102005,-0.14674805104732513,-0.1507871299982071,1.7584893703460693
163,45399,45397,0.008332227356731892,-0.007944735698401928,0.9865970611572266,-0.7815337181091309,2.9930739402770996,0.7106060981750488,1.7699464559555054,3.920381546020508,0.31847792863845825,-0.17753536999225616,-0.18758277595043182,1.7668322324752808
164,45409,45407,0.022056907415390015,-0.0007710100035183132,0.9588286876678467,-1.2511787414550781,1.1211644411087036,0.5153381824493408,1.763368010520935,3.9407753944396973,0.3190773129463196,-0.22274325788021088,-0.12674233317375183,1.7759407758712769
165,45419,45417,-0.024670526385307312,0.041530318558216095,0.9637091755867004,-3.9215729236602783,-3.456174373626709,0.5131519436836243,1.7641748189926147,3.9408442974090576,0.31906506419181824,-0.23530133068561554,-0.15579254925251007,1.7830512523651123
166,45429,45427,-0.028744474053382874,0.013317365199327469,0.9889073967933655,-6.276151180267334,-8.204336166381836,-0.13291089236736298,1.7648239135742188,3.9404966831207275,0.3196064829826355,-0.1709732711315155,-0.15103588998317719,1.791381597518921
167,45439,45437,-0.05934692174196243,-0.016589520499110222,1.0357544422149658,-5.962540626525879,-9.77017879486084,-1.2569499015808105,1.7658499479293823,3.940883159637451,0.32008984684944153,-0.11031049489974976,-0.2667751610279083,1.7890589237213135
168,45449,45447,0.012111914344131947,-0.08427939563989639,1.0007025003433228,-4.12274169921875,-8.279420852661133,-2.3892695903778076,1.7682743072509766,3.9407613277435303,0.3226323127746582,-0.17615196108818054,-0.2947556972503662,1.7728358507156372
169,45459,45457,0.0013063654769212008,0.005341353360563517,1.0237139463424683,-1.5432870388031006,-4.67011022567749,-3.130072832107544,1.7676055431365967,3.9302639961242676,0.3232957124710083,-0.02328248880803585,-0.2936895787715912,1.7518948316574097
170,45469,45467,0.04510616883635521,0.0042898990213871,0.9217283129692078,0.5291816592216492,-1.7123470306396484,-3.8173422813415527,1.7673205137252808,3.9284119606018066,0.3238997161388397,0.0695597305893898,-0.3295382857322693,1.722739577293396
171,45479,45477,0.09350220859050751,-0.014469650574028492,0.8682186007499695,2.327688455581665,-0.12373366951942444,-4.5627264976501465,1.7770758867263794,3.9312803745269775,0.324422687292099,0.03790323808789253,-0.3211665749549866,1.684659719467163
172,45489,45487,0.0860285758972168,-0.025582484900951385,0.8799798488616943,2.8077714443206787,-0.883141040802002,-5.0781073570251465,1.7777355909347534,3.929156541824341,0.32413527369499207,0.14181843400001526,-0.2879411280155182,1.6403018236160278
173,45499,45497,0.09676987677812576,-0.1041804775595665,0.8667433261871338,1.7884470224380493,-3.499511241912842,-5.895954132080078,1.7783629894256592,3.9290127754211426,0.32448264956474304,0.1739329844713211,-0.25064584612846375,1.5904788970947266
174,45509,45507,0.07951921224594116,-0.15173053741455078,0.914727509021759,-0.5564611554145813,-5.574131488800049,-5.894917964935303,1.7816784381866455,3.92494535446167,0.3246394991874695,0.09397699683904648,-0.23000863194465637,1.5339059829711914
175,45519,45517,0.033027373254299164,-0.18883183598518372,0.9538087844848633,-3.59550404548645,-6.703169345855713,-6.487234592437744,1.782301425933838,3.924938440322876,0.3224250078201294,0.21445392072200775,-0.24992485344409943,1.4757081270217896
176,45529,45527,-0.010853111743927002,-0.22417482733726501,0.9758385419845581,-6.095984935760498,-6.577375411987305,-6.82307243347168,1.7826193571090698,3.925185441970825,0.3223496079444885,0.3417038917541504,-0.320468932390213,1.4133356809616089
177,45539,45537,-0.05495179072022438,-0.18680322170257568,1.0407520532608032,-6.08696985244751,-3.3959038257598877,-6.539120674133301,1.7837550640106201,3.9249799251556396,0.32220956683158875,0.37480971217155457,-0.35128089785575867,1.3450136184692383
178,45549,45547,-0.04374657943844795,-0.04932866618037224,1.0580134391784668,-4.3495988845825195,1.470453143119812,-6.154598712921143,1.7844345569610596,3.924633502960205,0.3210563361644745,0.4305024743080139,-0.37835487723350525,1.276708722114563
179,45559,45557,-0.01011885516345501,0.03297925367951393,1.0003958940505981,-2.234689474105835,5.877257823944092,-5.47670316696167,1.786178469657898,3.924893856048584,0.3208646774291992,0.3281996548175812,-0.45760008692741394,1.218916416168213
180,45569,45567,0.034276433289051056,0.0629962906241417,0.9285447597503662,-0.7529138922691345,8.933101654052734,-4.922547340393066,1.7866699695587158,3.9242987632751465,0.3207569122314453,0.316500186920166,-0.419504851102829,1.1583465337753296
181,45579,45577,0.08649247139692307,-0.007126486860215664,0.8856171369552612,1.787470817565918,7.484307289123535,-4.520669460296631,1.787203311920166,3.924219846725464,0.32060760259628296,0.2692740857601166,-0.42413097620010376,1.106469750404358
182,45589,45587,0.06215536594390869,0.10774221271276474,0.9589017033576965,3.197847604751587,3.358604669570923,-4.160930156707764,1.7940247058868408,3.9187238216400146,0.3229677677154541,0.23485691845417023,-0.3958074748516083,1.0582998991012573
183,45599,45597,0.07159370929002762,0.17814207077026367,0.9601976275444031,3.05257248878479,1.645691990852356,-3.7732019424438477,1.8016482591629028,3.9187090396881104,0.3228415846824646,0.2554357647895813,-0.34541556239128113,1.0131276845932007
184,45609,45607,0.10956143587827682,-0.001908410806208849,0.8928892016410828,1.012684941291809,1.8682316541671753,-3.306912899017334,1.8025026321411133,3.919224739074707,0.32264453172683716,0.2236039787530899,-0.38004130125045776,0.9803813099861145
185,45619,45617,0.07934511452913284,-0.015538876876235008,0.9587820768356323,-0.6916386485099792,-0.29588162899017334,-2.8559815883636475,1.803351640701294,3.919084072113037,0.3183876574039459,0.19952036440372467,-0.36391696333885193,0.946959912776947
186,45629,45627,0.012600762769579887,-0.10455110669136047,0.9935283660888672,-1.627768635749817,0.6523698568344116,-2.221177339553833,1.8040845394134521,3.9191784858703613,0.317823588848114,0.20238497853279114,-0.37736234068870544,0.9180648922920227
187,45639,45637,0.021030841395258904,-0.07147461175918579,0.9847435355186462,-2.6507279872894287,0.3469809889793396,-0.7808445692062378,1.8041068315505981,3.919346332550049,0.3172849118709564,0.26904749870300293,-0.4055454730987549,0.8936672210693359
188,45649,45647,0.06918442249298096,0.01566426269710064,0.9859018325805664,-0.6897279024124146,-0.34786108136177063,-0.7638572454452515,1.8041795492172241,3.919372081756592,0.31512635946273804,0.3274778127670288,-0.4335978627204895,0.8814604878425598
189,45659,45657,-0.07084155082702637,0.09915032237768173,1.0920764207839966,1.7103605270385742,3.0625433921813965,-0.46039146184921265,1.805772066116333,3.9194157123565674,0.31439995765686035,0.22669249773025513,-0.43633347749710083,0.8783158659934998
190,45669,45667,-0.016067609190940857,0.03843894228339195,1.0409215688705444,3.3565335273742676,8.20202922821045,0.07266948372125626,1.8134227991104126,3.925006628036499,0.3137471377849579,0.22535134851932526,-0.4012874662876129,0.8707161545753479
191,45679,45677,-0.012146785855293274,-0.01860921084880829,1.0496188402175903,3.807044744491577,10.765033721923828,0.4553065299987793,1.8147544860839844,3.9255120754241943,0.3131111264228821,0.07651190459728241,-0.4185945391654968,0.8773847222328186
192,45689,45687,0.05203421413898468,-0.03683897480368614,1.0040923357009888,2.8445723056793213,10.585286140441895,0.9218894243240356,1.8148276805877686,3.925323486328125,0.3146620988845825,0.03627390041947365,-0.346844881772995,0.8754760026931763
193,45699,45697,0.13848808407783508,-0.0643225759267807,0.9852622747421265,1.9148504734039307,9.797228813171387,1.26370108127594,1.818237543106079,3.92730450630188,0.31424638628959656,-0.06965859234333038,-0.28864502906799316,0.8820279836654663
194,45709,45707,0.09367880970239639,-0.03186332434415817,1.0129082202911377,2.0875110626220703,4.929465293884277,0.5146744251251221,1.8186808824539185,3.9286460876464844,0.31384387612342834,-0.14778964221477509,-0.3987111449241638,0.8983413577079773
195,45719,45717,0.014807871542870998,-0.023463910445570946,1.034767508506775,1.1975075006484985,1.3503644466400146,-0.6002886295318604,1.819878339767456,3.9285998344421387,0.3124889135360718,-0.15843550860881805,-0.3476690649986267,0.8992907404899597
196,45729,45727,-0.04635286703705788,0.05784199386835098,1.0427088737487793,0.4937538802623749,1.190691590309143,-0.8739061951637268,1.82068932056427,3.9285669326782227,0.31203582882881165,-0.19677749276161194,-0.3174169957637787,0.8959656953811646
197,45739,45737,-0.04876396805047989,0.08161855489015579,1.0642915964126587,-1.3272193670272827,-0.10288219898939133,-0.6350812315940857,1.8214879035949707,3.928623676300049,0.31162112951278687,-0.2245907187461853,-0.30736687779426575,0.8903924226760864
198,45749,45747,-0.01516291406005621,0.0326852984726429,1.0250333547592163,-1.6477103233337402,0.6639586687088013,0.0014951168559491634,1.8223215341567993,3.928804874420166,0.31462928652763367,-0.24150168895721436,-0.31614044308662415,0.8855354189872742
199,45759,45757,-0.021942200139164925,0.050987113267183304,1.086047887802124,-2.1419742107391357,1.0250575542449951,-0.16349835693836212,1.8228198289871216,3.928494453430176,0.3145700991153717,-0.18618561327457428,-0.3332694172859192,0.8818678855895996
200,45769,45767,0.0020699412561953068,-0.027447475120425224,1.0132476091384888,-1.316945195198059,0.8526846170425415,-0.5210594534873962,1.8243125677108765,3.928701400756836,0.3144634962081909,-0.2923634350299835,-0.3516809642314911,0.8833714127540588
201,45779,45777,-0.0023094299249351025,0.037459611892700195,1.0813307762145996,-0.5897650122642517,1.1767007112503052,-0.7382893562316895,1.8260537385940552,3.9231719970703125,0.3145253658294678,-0.2356027513742447,-0.3593520522117615,0.8757302761077881
202,45789,45787,-0.009413679130375385,0.013102881610393524,1.022983193397522,0.7201499938964844,3.2585432529449463,-0.9940063953399658,1.8310407400131226,3.927201747894287,0.31689244508743286,-0.19875124096870422,-0.35199111700057983,0.8668789267539978
203,45799,45797,0.03734837472438812,-0.02179318480193615,1.0535004138946533,1.6494073867797852,4.096676826477051,-1.162310242652893,1.8313068151474,3.9271419048309326,0.31715667247772217,-0.1938195824623108,-0.3246912658214569,0.8563453555107117
204,45809,45807,0.027092676609754562,-0.08062054961919785,1.013719916343689,2.1480894088745117,4.006113529205322,-1.7938498258590698,1.8330271244049072,3.927074670791626,0.31736811995506287,-0.35803383588790894,-0.2808753252029419,0.8493735790252686
205,45819,45817,0.0032626071479171515,0.007824890315532684,1.0461137294769287,2.5872910022735596,4.142826557159424,-2.570195198059082,1.8333524465560913,3.9276609420776367,0.31861045956611633,-0.35837143659591675,-0.305711954832077,0.8299819231033325
206,45829,45827,0.008410370908677578,-0.004722012206912041,1.0071841478347778,2.163638114929199,3.8028194904327393,-2.8562562465667725,1.8351140022277832,3.931528091430664,0.3189547061920166,-0.4370998442173004,-0.32324692606925964,0.8057913184165955
207,45839,45837,-0.005987086333334446,-0.017110101878643036,1.0119637250900269,2.2793760299682617,2.9403889179229736,-3.2172958850860596,1.840593934059143,3.9317455291748047,0.3194184899330139,-0.4256970286369324,-0.26568275690078735,0.7756452560424805
208,45849,45847,0.01915861666202545,0.008528312668204308,0.996510922908783,2.412363290786743,1.2857500314712524,-4.331918239593506,1.838147759437561,3.9349420070648193,0.32301297783851624,-0.4821787178516388,-0.21226806938648224,0.7454825043678284
209,45859,45857,0.003582949750125408,-0.005973399616777897,0.9839101433753967,2.7109897136688232,1.7590502500534058,-6.0039544105529785,1.8437784910202026,3.9364264011383057,0.3234940767288208,-0.6660983562469482,-0.30881425738334656,0.7042363882064819
210,45869,45867,0.013884196989238262,-0.010594173334538937,0.9784648418426514,3.7837116718292236,1.712021827697754,-7.561707973480225,1.8491194248199463,3.931797742843628,0.32416367530822754,-0.6209191083908081,-0.24173855781555176,0.6454745531082153
211,45879,45877,4.7889134293654934e-05,-0.033802423626184464,0.9702897071838379,6.2737507820129395,1.4696977138519287,-8.570950508117676,1.8500115871429443,3.9328949451446533,0.3244694471359253,-0.6480799913406372,-0.3010186553001404,0.5677177309989929
212,45889,45887,-0.02067754417657852,0.02810579724609852,1.0036195516586304,8.722060203552246,2.1355223655700684,-9.499873161315918,1.8518167734146118,3.9384641647338867,0.32509738206863403,-0.5914369225502014,-0.15874083340168,0.4852767884731293
213,45899,45897,-0.010448521003127098,0.03070816583931446,0.9622154831886292,12.470231056213379,0.6233667135238647,-10.46171760559082,1.8525121212005615,3.9380290508270264,0.32563522458076477,-0.6145632863044739,0.02756698615849018,0.3956068456172943
214,45909,45907,-9.667454833106603e-06,-0.03658021613955498,0.9284718036651611,13.749420166015625,0.9121758341789246,-10.21462631225586,1.8526320457458496,3.9372100830078125,0.32619091868400574,-0.5426937341690063,0.25685563683509827,0.2965753972530365
215,45919,45917,0.013190475292503834,-0.020240243524312973,1.0078738927841187,12.407092094421387,1.2121050357818604,-9.832653045654297,1.8541514873504639,3.9377360343933105,0.32550662755966187,-0.6392661333084106,0.33919060230255127,0.1932058036327362
216,45929,45927,0.002690860303118825,0.01580159366130829,1.0200971364974976,7.784611701965332,0.5507975220680237,-8.871321678161621,1.852783441543579,3.9367196559906006,0.3259015679359436,-0.5866304636001587,0.5443518757820129,0.10055876523256302
217,45939,45937,-0.008966900408267975,-0.06181449815630913,1.0245378017425537,0.5440199971199036,1.335934042930603,-8.325262069702148,1.8537153005599976,3.9378459453582764,0.3263416290283203,-0.6209567189216614,0.5019452571868896,0.00392954284325242
218,45949,45947,-0.007760117296129465,-0.034231655299663544,0.9607263207435608,-5.733792304992676,-2.391533613204956,-7.756274223327637,1.854804277420044,3.94222092628479,0.32723772525787354,-0.5632357001304626,0.3552180230617523,-0.08679366111755371
219,45959,45957,-0.032712917774915695,0.06264439970254898,0.9663039445877075,-9.156152725219727,-7.334193706512451,-7.522027492523193,1.8553845882415771,3.9426889419555664,0.3276677131652832,-0.520596981048584,0.2798730134963989,-0.16500434279441833
220,45969,45967,-0.009719104506075382,0.07429110258817673,0.9743574857711792,-7.449982643127441,-9.984777450561523,-6.875255107879639,1.8609486818313599,3.9463517665863037,0.3278544545173645,-0.7007459402084351,0.0837506353855133,-0.25626757740974426
221,45979,45977,0.011711277067661285,0.01705559343099594,0.9549214243888855,-2.9442667961120605,-10.73965835571289,-6.484282970428467,1.8605971336364746,3.9469783306121826,0.33226656913757324,-0.43430909514427185,0.004578857682645321,-0.3185541033744812
222,45989,45987,-0.014938518404960632,-0.004423957318067551,0.9749831557273865,2.490054130554199,-12.184843063354492,-6.550169467926025,1.8613646030426025,3.9511215686798096,0.33272460103034973,-0.4542335867881775,-0.0004434130387380719,-0.3866475820541382
223,45999,45997,-0.012217233888804913,-0.004215607885271311,0.986440122127533,9.825298309326172,-10.606937408447266,-6.205377101898193,1.861639380455017,3.9448275566101074,0.3333120346069336,-0.24088165163993835,0.15000055730342865,-0.439659982919693
224,46009,46007,-0.00011645937047433108,-0.023790916427969933,0.9487724900245667,15.483794212341309,-8.352907180786133,-6.010252952575684,1.8625712394714355,3.944819450378418,0.33377885818481445,-0.1328960508108139,0.264812707901001,-0.500206708908081
225,46019,46017,-0.0006816377863287926,-0.009255435317754745,0.9564148783683777,17.633590698242188,-6.030092239379883,-5.861808776855469,1.8629226684570312,3.9444782733917236,0.334311842918396,0.013395359739661217,0.4728137254714966,-0.5549095273017883
226,46029,46027,0.001362679642625153,-0.03354107588529587,0.9183794856071472,15.79380989074707,0.49773502349853516,-5.127894878387451,1.8613004684448242,3.9485714435577393,0.33474934101104736,0.10047656297683716,0.4912527799606323,-0.6201608777046204
227,46039,46037,-0.007519380189478397,-0.020233411341905594,0.941297709941864,10.264749526977539,5.3857808113098145,-5.013544082641602,1.864203691482544,3.9475677013397217,0.33509746193885803,0.017671335488557816,0.7683306336402893,-0.6709328293800354
228,46049,46047,0.010868518613278866,-0.0097110066562891,0.918684184551239,4.324216365814209,7.700400352478027,-5.40602445602417,1.8648072481155396,3.9485254287719727,0.3350881338119507,-0.0031492027919739485,0.7847737669944763,-0.7215510606765747
229,46059,46057,0.018116461113095284,-0.016455765813589096,0.9175792336463928,-2.567403554916382,5.716377258300781,-5.652023792266846,1.866119623184204,3.9483988285064697,0.33532360196113586,-0.12367449700832367,0.8637407422065735,-0.7755958437919617
230,46069,46067,-0.016226477921009064,-0.0238131582736969,0.9300575256347656,-5.916720867156982,1.4847785234451294,-5.322896957397461,1.867371678352356,3.94866943359375,0.33551478385925293,-0.2148120105266571,0.8328693509101868,-0.83770352602005
231,46079,46077,-0.027124399319291115,-0.023033417761325836,0.9517483115196228,-10.936298370361328,-0.7247645258903503,-4.928738594055176,1.8675850629806519,3.9492416381835938,0.338583379983902,-0.16240127384662628,0.73685222864151,-0.8856833577156067
232,46089,46087,0.007147219963371754,0.128075510263443,0.9320116639137268,-12.44789981842041,-1.093316912651062,-4.94011116027832,1.870214581489563,3.951659917831421,0.3388606011867523,-0.14447350800037384,0.5603419542312622,-0.9401631951332092
233,46099,46097,-0.013292049989104271,0.0724421888589859,0.9260978698730469,-9.16288948059082,-0.5945204496383667,-5.78379487991333,1.8711682558059692,3.949666738510132,0.3390430808067322,-0.12512293457984924,0.4604758024215698,-0.9894672632217407
234,46109,46107,-0.0032259353902190924,-0.010793926194310188,0.9368269443511963,-3.5047175884246826,1.4911350011825562,-6.28347110748291,1.87198805809021,3.94937801361084,0.3374139964580536,-0.1233396828174591,0.42400410771369934,-1.0467857122421265
235,46119,46117,0.04033533111214638,0.06148330122232437,0.9577760696411133,0.19350998103618622,3.168224573135376,-5.917994022369385,1.8730093240737915,3.949505567550659,0.3373240828514099,-0.15247169137001038,0.3942636251449585,-1.1101419925689697
236,46129,46127,0.03540052846074104,0.04073977470397949,0.9342869520187378,5.891151428222656,7.110150337219238,-6.0454864501953125,1.8734524250030518,3.9493110179901123,0.33722370862960815,-0.14830441772937775,0.43822452425956726,-1.1654670238494873
237,46139,46137,-0.013556129299104214,-0.0024349133018404245,0.9368239045143127,8.984853744506836,7.801596164703369,-5.382524490356445,1.874000906944275,3.9488017559051514,0.33706900477409363,-0.19050799310207367,0.5578932762145996,-1.2205630540847778
