,timestamp_start,timestamp_end,acc.x,acc.y,acc.z,gyro.x,gyro.y,gyro.z,stateEstimate.x,stateEstimate.y,stateEstimate.z,stabilizer.pitch,stabilizer.roll,stabilizer.yaw
0,36473,36471,-0.0916593596,0.0255429856,1.0364583731,-5.7556791306,-3.7086076736,1.277336359,0.5265687704,0.4675004184,0.1915516704,-0.4585834146,-0.7940641642,2.4499065876
1,36483,36481,0.0071828812,-0.0281452406,0.9767512679,-3.7270338535,-3.2932305336,1.1882038116,0.5269557238,0.4677517116,0.1908692718,-0.367125839,-0.8909966946,2.458439827
2,36493,36491,-0.0352875963,0.0333538018,1.0719177723,0.7415325046,-6.8186130524,0.8247662187,0.5282386541,0.4683866203,0.1922233105,-0.4432305992,-1.0162376165,2.4751224518
3,36503,36501,0.0201510489,-0.0737241581,1.0486584902,6.1825404167,-10.1838712692,0.3159428537,0.5284085274,0.4682454765,0.1941055506,-0.3198489249,-0.9846078753,2.4779860973
4,36513,36511,0.0193229951,-0.0885413662,1.0150442123,11.9067230225,-13.2358894348,0.0495537296,2.0840206146,5.3245277405,0.195759967,-0.2828520536,-1.0103702545,2.4826924801
5,36523,36521,-0.0025221296,0.081641227,0.9956275225,14.2497825623,-14.190413475,0.4191562235,2.2370288372,2.8911967278,0.1977747083,-0.0317714475,-0.802428484,2.4794404507
6,36533,36531,0.0484501347,0.0845038146,0.9252499342,13.2322635651,-15.3996944427,1.1775202751,2.095767498,3.8138127327,0.1996761709,0.1185919642,-0.6184076667,2.4877705574
7,36543,36541,0.0257049743,0.0450466983,1.0093897581,9.5274991989,-15.6652784348,0.9690876007,2.0972037315,3.8141756058,0.2011701614,-0.0914125443,-0.7493831515,2.519204855
8,36553,36551,0.0003573951,0.0009867835,1.0264828205,6.1349506378,-14.3865776062,0.7782546878,2.0783998966,3.9153306484,0.2031352222,0.3218662739,-0.6045544147,2.5172958374
9,36563,36561,-0.0025214846,-0.0468963347,1.0051461458,3.864518404,-12.1542100906,1.0064615011,2.0218384266,3.9009757042,0.2048710436,0.5169460177,-0.5296848416,2.5238676071
10,36573,36571,0.0211908817,-0.0542696416,1.0234274864,3.7204470634,-10.8401708603,0.9231975079,2.0031337738,3.9628226757,0.206577599,0.5341230631,-0.4138738215,2.5389099121
11,36583,36581,0.0136024011,-0.1588903964,1.04200387,5.7328877449,-9.9917602539,0.6003645658,1.957431078,3.9556112289,0.2061473727,0.8239789009,-0.3800693154,2.5403237343
12,36593,36591,0.0019167187,-0.0693718717,1.0378432274,7.5054540634,-8.2306747437,0.5136190653,1.939786911,3.9677996635,0.2079410106,0.7742176652,-0.387506336,2.5560162067
13,36603,36601,-0.0751299262,0.1051803753,1.0787991285,7.2993121147,-4.9314451218,0.696031034,1.9407949448,3.9683742523,0.2095385045,0.7757547498,-0.3673270643,2.5675139427
14,36613,36611,0.02074988,0.1372591704,0.9835880995,8.0055122375,-4.495112896,0.6936872602,1.9024982452,3.9454181194,0.2112051547,0.8259564042,-0.2555005848,2.5714309216
15,36623,36621,0.0558492467,0.0400712974,1.0173718929,9.0814790726,-7.9212398529,0.3534759879,1.8461002111,3.9506709576,0.2129720598,0.9474377632,-0.277035445,2.5840015411
16,36633,36631,0.0245867651,-0.077207014,1.0216240883,10.386095047,-8.9526281357,-0.2328560501,1.8476089239,3.9509561062,0.2146938443,0.8091462255,-0.1247909218,2.5836362839
17,36643,36641,0.0073286453,-0.0325206928,0.9987283349,10.0718202591,-11.1892414093,0.3046348989,1.7963100672,3.9559903145,0.2161726356,1.0907928944,0.0299796704,2.5806250572
18,36653,36651,-0.0032967192,-0.0453454256,0.9824854732,9.2738714218,-9.3053712845,0.3239668906,1.7968536615,3.9561626911,0.2179466635,1.2289733887,0.174951598,2.5785710812
19,36663,36661,0.0201531854,-0.0446449406,1.0045257807,7.4805402756,-11.4278068542,0.4210361242,1.7866829634,3.9451560974,0.2196934074,1.2767180204,0.225871563,2.5857768059
20,36673,36671,-0.0520786531,-0.0459393486,1.0892773867,5.9477930069,-11.0878772736,0.0409538113,1.7872710228,3.9458649158,0.2214490175,1.3905678988,0.2478176057,2.5967981815
21,36683,36681,-0.0662918538,-0.021380147,1.0514870882,2.6420242786,-3.7611207962,0.1796340793,1.7879568338,3.9462387562,0.2231009752,1.4662191868,0.3162357807,2.595271349
22,36693,36691,0.0661827773,-0.0291734152,0.9898303747,1.7808948755,-2.5121045113,0.578140974,1.7877267599,3.9496767521,0.22499156,1.5962920189,0.266711086,2.6156771183
23,36703,36701,0.0484847352,-0.0006068944,0.9942210913,2.0241005421,-1.6653008461,-0.0191261861,1.7729928493,3.9521708488,0.2269364893,1.6916862726,0.3630014658,2.6112732887
24,36713,36711,0.022410199,-0.0688612238,1.0597983599,4.1095848083,-0.4363054633,-0.7460482121,1.7730864286,3.9524700642,0.2270894945,1.7585486174,0.3869163692,2.6139657497
25,36723,36721,0.0433067754,-0.0919103622,0.9824287891,5.220038414,3.1628916264,-1.2693938017,1.7731679678,3.9523351192,0.2289255559,1.7944290638,0.5084563494,2.5940113068
26,36733,36731,0.0220350008,0.0113567393,0.9620130062,5.4666032791,5.1690683365,-0.9690351486,1.7741852999,3.9521803856,0.2308473885,1.6451838017,0.6377189755,2.5565845966
27,36743,36741,0.0542866029,0.0076821097,0.8811925054,4.568924427,6.9588360786,-0.3355418146,1.7904714346,3.9729247093,0.2342116833,1.5512558222,0.2404919118,2.6424171925
28,36753,36751,0.0017342473,0.0524410903,1.0039964914,2.9731836319,2.9501955509,-1.36759305,1.8038375378,3.9666810036,0.235950157,1.4473340511,0.2503797114,2.6414291859
29,36763,36761,0.0164611638,-0.02910777,0.9716996551,3.85353899,2.8253557682,-1.2828457355,1.8041540384,3.9756309986,0.2378244251,1.4515241385,0.3931335211,2.6088402271
30,36773,36771,0.0013187955,-0.0109743942,0.9775088429,5.5817599297,1.1564532518,-0.7360671759,1.8035880327,3.9763278961,0.2396337092,1.4639575481,0.537836194,2.5770998001
31,36783,36781,0.0059463247,-0.0074305576,0.9843571186,6.5268454552,0.2478292435,-0.2138162851,1.8025922775,3.9775516987,0.2393311411,1.5639270544,0.5463359356,2.5922207832
32,36793,36791,-0.0053236922,0.0037612231,0.9686331153,6.3009748459,-0.1403708011,-0.1278870255,1.8026356697,3.9773409367,0.2409480661,1.5774451494,0.7218393683,2.5659899712
33,36803,36801,-0.0099441241,-0.0244210828,1.0138726234,5.3383002281,1.268455863,0.4518914521,1.803833127,3.9878737926,0.2425525934,1.5088852644,0.8023313284,2.5521345139
34,36813,36811,0.0166884642,-0.1478515565,1.0262970924,2.2253592014,5.3471512794,-0.1417461336,1.8088566065,3.9830174446,0.2443854958,1.4151320457,0.8516790867,2.5452709198
35,36823,36821,-0.0252927896,0.0056177564,1.0209569931,-0.0863374174,6.3884868622,-0.4313224852,1.7989777327,3.9855997562,0.2459810078,1.5036987066,0.853325367,2.5686490536
36,36833,36831,0.0219227541,-0.0330667533,0.9418753982,-1.247836113,6.0717015266,-1.1090066433,1.7956734896,3.9843382835,0.2474889308,1.6261677742,0.8196025491,2.6001267433
37,36843,36841,-0.0006900117,0.0008072892,0.9829909801,-0.5266374946,7.4256930351,-1.5498716831,1.7966002226,3.9799647331,0.2490603477,1.4960092306,0.8454501629,2.571823597
38,36853,36851,0.0060175909,-0.0383462757,0.9766317606,0.1303030252,9.4430332184,-0.8144778013,1.7946460247,3.9763576984,0.2506383061,1.3485342264,0.8779637814,2.5394997597
39,36863,36861,0.0022609103,0.0064963563,0.9912078977,0.7254714966,10.001584053,-0.6288687587,1.7950017452,3.9667513371,0.2522003055,1.103345871,0.9917545319,2.4846622944
40,36873,36871,-0.0074959747,0.0022083693,1.020072341,0.9663597941,8.1088705063,-0.5998433232,1.7948992252,3.9667134285,0.2537192106,1.0238102674,1.025049448,2.4776303768
41,36883,36881,-0.0302047115,0.0185727049,1.0004804134,-0.7321394086,5.062625885,-0.9485961795,1.7912561893,3.9705994129,0.2553465962,0.9690697193,0.9714175463,2.4890184402
42,36893,36891,-0.034546271,0.128679648,0.9963482618,-2.7792267799,2.8840038776,-0.7267913818,1.783793211,3.9719302654,0.2568726838,1.1751060486,1.1178076267,2.5008001328
43,36903,36901,0.0387725718,0.1513290554,0.9091959596,-5.011349678,2.156737566,-0.2027873844,1.7827851772,3.9747033119,0.2586054206,1.2354967594,0.6931327581,2.577893734
44,36913,36911,0.0352944136,0.1167713478,0.9329876304,-5.9605975151,3.7625997066,-0.7208232284,1.7853028774,3.9774327278,0.2607757151,0.7711740136,0.3563238978,2.5427899361
45,36923,36921,0.0569887944,-0.0074020149,0.9408296943,-3.5671489239,5.8078050613,-0.4604755044,1.7851663828,3.9772150517,0.2622750401,0.6993610859,0.3380166888,2.5232236385
46,36933,36931,0.0191241354,-0.0223442893,1.0143997669,1.0732522011,6.2524838448,-0.5499790311,1.7849357128,3.9773335457,0.2637839019,0.6688588262,0.3609377444,2.5145509243
47,36943,36941,0.0241389889,-0.0466746539,0.9665908813,6.2795829773,4.6538786888,-0.5731072426,1.7798751593,3.9774677753,0.2662767172,0.7094160914,0.5298306346,2.506727457
48,36953,36951,0.0025731949,-0.0198646802,0.9732769728,9.5347290039,4.3383288383,-0.4779093862,1.7800343037,3.9776415825,0.2677398324,0.6159337163,0.6144533157,2.4922981262
49,36963,36961,0.043309845,0.0196978543,0.9191870093,8.5123720169,5.0228114128,-0.1008311585,1.7799669504,3.9727480412,0.2691701055,0.6116700172,0.8099733591,2.4837999344
50,36973,36971,0.0994675085,0.0097039156,0.8884046674,5.2733244896,4.6144132614,0.1154357642,1.7777564526,3.9714772701,0.2704670429,0.6049739122,0.9679703116,2.4812774658
51,36983,36981,0.093603529,-0.0108873127,0.9155438542,0.1684857756,3.7266726494,0.0968745351,1.7778352499,3.9725313187,0.2718862593,0.5317138433,0.9111193419,2.4845104218
52,36993,36991,0.0503250472,-0.0934292451,0.932790041,-5.2392244339,3.0007376671,-0.6623340845,1.7779864073,3.9714438915,0.2729853392,0.4696953297,1.0682638884,2.4680860043
53,37003,37001,0.0207398236,-0.1064316928,0.931938827,-8.9338951111,3.1203467846,-0.5782479644,1.7774729729,3.9718186855,0.2740321159,0.4870106578,0.9757438898,2.4712226391
54,37013,37011,0.0089824544,-0.0117538478,0.9353707433,-11.6907596588,3.9667150974,-0.8793593645,1.7766860723,3.9724826813,0.2729179561,0.4206522703,0.9006676674,2.459407568
55,37023,37021,-0.0039706123,0.0587252602,0.9218484759,-11.013835907,5.3118638992,-0.7849862576,1.7762855291,3.9718391895,0.2736583352,0.4194435775,0.8644259572,2.454138279
56,37033,37031,0.0221541598,0.0223502479,0.8737152219,-8.099480629,6.8873376846,-0.9818621874,1.775919199,3.9717042446,0.2743187547,0.3953722119,0.767026484,2.4503922462
57,37043,37041,-0.0011883082,0.0516941808,0.9581010342,-5.5681614876,6.3617343903,-0.8503964543,1.7763434649,3.9642629623,0.2752744853,0.3504952192,0.6373591423,2.4451599121
58,37053,37051,0.006379168,-0.0226526894,0.9441408515,-3.0255284309,5.3692464828,-0.8832380176,1.776632309,3.9645490646,0.2758008838,0.2353824973,0.5473018289,2.4287571907
59,37063,37061,-0.054141473,-0.0726870149,1.0208120346,-1.2638188601,3.3986804485,-1.4346015453,1.7755185366,3.9626703262,0.2762861252,0.5031908154,0.6470668316,2.4622039795
60,37073,37071,-0.0918540284,-0.067310594,1.0596982241,-2.4857485294,5.7347693443,-0.9404655695,1.7754619122,3.9626300335,0.2785883844,0.3827594817,0.6069020033,2.4389283657
61,37083,37081,-0.0024286942,-0.0168150235,0.9939599633,-5.0447497368,5.2181129456,-0.7419867516,1.7739268541,3.9599409103,0.2792756855,0.2453186959,0.6168199182,2.4187173843
62,37093,37091,-0.0006930068,-0.0052540232,0.9907207489,-7.6627254486,7.6954007149,-0.9285280108,1.7675591707,3.9533348083,0.2798231244,0.3974320292,0.6463391781,2.4377179146
63,37103,37101,0.0521078296,-0.0675132275,0.9798402786,-8.3875999451,8.1782608032,-1.9332774878,1.7685261965,3.9537751675,0.2807062268,0.136557743,0.487043649,2.4051406384
64,37113,37111,0.019444339,-0.0346561857,1.0253099203,-8.8295669556,7.8913564682,-1.7583643198,1.7677154541,3.9522473812,0.2838389575,0.1019333676,0.5412945151,2.3960273266
65,37123,37121,0.0380983576,-0.0893277749,0.9910090566,-9.2825479507,9.631570816,-2.305113554,1.767595768,3.9521040916,0.2846717238,-0.0217954535,0.4265663028,2.3740894794
66,37133,37131,-0.0033362701,0.0709698647,1.0141006708,-8.3466415405,10.0725774765,-2.2391273975,1.7668185234,3.9519195557,0.2854763567,-0.0786767527,0.3150548041,2.356688261
67,37143,37141,0.0609459504,0.0681247637,0.8879850507,-6.5368313789,6.9050121307,-2.0695085526,1.7659603357,3.9509441853,0.2884570956,-0.1315990835,0.2930860817,2.3425757885
68,37153,37151,0.0174346678,0.0170432031,0.9820361137,-4.6996464729,4.5267534256,-2.135818243,1.7666010857,3.9480092525,0.2893584967,-0.2915909886,0.2228422463,2.3131122589
69,37163,37161,0.0255323313,0.0151198404,0.9848825932,-4.4653429985,2.7987825871,-2.0677976608,1.7670397758,3.9464626312,0.2901852131,-0.416459173,0.1730138958,2.2866024971
70,37173,37171,0.0111662708,-0.0175851099,1.0019267797,-5.7465786934,1.2722048759,-1.7390340567,1.7680610418,3.9438598156,0.2913169563,-0.3445166051,0.267981112,2.2850315571
71,37183,37181,0.0249139536,-0.0521980897,0.9520453215,-6.8789868355,0.0738760829,-1.4488290548,1.767359972,3.9434661865,0.2921389639,-0.3236260414,0.1880189627,2.2674787045
72,37193,37191,0.0474701747,-0.0784794092,0.9382180572,-8.9129667282,-0.5905349255,-1.0644600391,1.7673177719,3.9432253838,0.2929524779,-0.3634606004,0.0837662145,2.2471165657
73,37203,37201,0.0259722043,-0.076382257,0.9838087559,-9.5889806747,-0.2110540122,-1.0003354549,1.7666862011,3.9417409897,0.2936231494,-0.3283436298,0.0967197195,2.2486362457
74,37213,37211,-0.0106192976,-0.1126186699,0.9734040499,-9.6890192032,0.4913333654,-1.3423320055,1.7660006285,3.9422287941,0.2955915034,-0.3079564869,-0.1228674427,2.2262108326
75,37223,37221,-0.0669528246,-0.0925557464,1.0138690472,-9.1248950958,3.9711477757,-1.1045260429,1.7661533356,3.9421195984,0.2963929772,-0.3761462569,-0.2586446702,2.2066116333
76,37233,37231,-0.0360165536,-0.129471764,1.0088524818,-6.8720626831,4.7291035652,-1.0810041428,1.7664868832,3.9405536652,0.2971735895,-0.4731571674,-0.2329897135,2.2081208229
77,37243,37241,-0.0545539819,0.0007815966,1.0100855827,-5.3469119072,3.3789055347,-0.5774249434,1.7618296146,3.9404940605,0.2979198098,-0.4308983088,-0.3991035819,2.1880686283
78,37253,37251,0.0571966395,-0.0108463345,0.9415833354,-4.5619802475,3.6047711372,-0.5599511266,1.7620847225,3.9393804073,0.2987056971,-0.5252522826,-0.3853751123,2.1889243126
79,37263,37261,-0.0026561106,0.0574684702,0.9760978818,-4.1314969063,0.8468634486,-0.7280134559,1.7579139471,3.9415616989,0.2994683683,-0.5994055271,-0.4376244247,2.1817913055
80,37273,37271,-0.0431146771,-0.0045371205,0.9803090096,-3.6029381752,-3.1123921871,-1.0358980894,1.7545380592,3.9358794689,0.3029799461,-0.5501347184,-0.4822855592,2.1719510555
81,37283,37281,-0.0695856288,-0.0779778883,1.0360023975,-2.7171177864,-5.3591098785,-1.4257757664,1.7542991638,3.936019659,0.303904891,-0.5307898521,-0.5920066833,2.1509292126
82,37293,37291,-0.1020469517,-0.0601468273,1.0897279978,-2.9666645527,-5.5351099968,-1.3337541819,1.7540740967,3.9348390102,0.3048395216,-0.4848196208,-0.5409716368,2.1491949558
83,37303,37301,-0.0709534809,-0.0726610646,1.0567649603,-2.6808307171,-4.6071829796,-1.3480255604,1.7537817955,3.9349479675,0.3058571219,-0.4398424029,-0.6390423775,2.1261024475
84,37313,37311,-0.0597184524,-0.0206832699,1.0172147751,-2.9616889954,-1.9737855196,-1.0375660658,1.753634572,3.9338581562,0.3065948188,-0.4126989841,-0.5817428827,2.1260254383
85,37323,37321,-0.0037053595,-0.0039342544,0.9473823905,-3.2713196278,0.8825513721,-0.7122970819,1.7536094189,3.9333059788,0.3076623082,-0.4202049673,-0.6062965989,2.1177704334
86,37333,37331,0.0378626697,-0.0253717639,0.9683390856,-3.7411339283,0.5934394002,-0.8522706032,1.7536005974,3.9334902763,0.3087263107,-0.4486396611,-0.7117954493,2.1013059616
87,37343,37341,0.0209777188,-0.0532013364,0.9829603434,-3.3484990597,-0.54076612,-0.7525759339,1.7532029152,3.9334876537,0.30837515,-0.4667546749,-0.739725709,2.0952162743
88,37353,37351,0.0105266413,-0.031268131,0.9534628391,-3.0241990089,-2.9705681801,-0.8344352245,1.7531136274,3.9336881638,0.3092684448,-0.4672325253,-0.8372462988,2.079303503
89,37363,37361,-0.0456450656,-0.1310673654,1.0312532187,-1.4402529001,-3.3918197155,-0.8946306705,1.752931118,3.9331181049,0.3101252913,-0.4349076152,-0.8440864682,2.0738298893
90,37373,37371,-0.0814269558,-0.1562762409,1.0472381115,-0.145260796,-3.3898229599,-1.2579910755,1.7534307241,3.9331760406,0.3145516515,-0.4676953554,-0.8991511464,2.0658419132
91,37383,37381,-0.0586335249,-0.1635862142,0.9870337248,1.335547924,-3.1920366287,-1.1782324314,1.7551851273,3.9391374588,0.3156270683,-0.4175746143,-0.9271582365,2.0497522354
92,37393,37391,-0.0535830334,-0.0934969336,0.9802085757,1.8184888363,-2.9836874008,-0.7215902805,1.7550771236,3.9377396107,0.3167464733,-0.3690316379,-0.8536803722,2.0463330746
93,37403,37401,-0.0374824926,0.0397779085,0.9947462082,2.6609301567,2.7097213268,-0.512000978,1.7550543547,3.9375324249,0.3165041506,-0.3503620625,-0.8439901471,2.0386228561
94,37413,37411,-0.0243168287,0.0636122599,0.9838377237,0.9087013006,10.3968448639,-0.7892882824,1.7554883957,3.9374091625,0.3174770474,-0.4340980053,-0.8321205974,2.0365595818
95,37423,37421,0.0255723,0.0029059581,0.895247221,0.5522979498,15.9520254135,-0.8793239594,1.7563830614,3.9373703003,0.3183847666,-0.6278589964,-0.8375123143,2.035774231
96,37433,37431,0.055824399,-0.0479572378,0.8322588205,0.1245550215,19.1833229065,-0.6959643364,1.7524694204,3.9375109673,0.3192777336,-0.6694871187,-0.8490236998,2.0088570118
97,37443,37441,0.0630187318,-0.0667081922,0.839710474,0.5535404086,19.0643196106,-0.3046605587,1.7570307255,3.9326555729,0.3169985712,-0.9077175856,-0.8620266318,2.0031621456
98,37453,37451,0.0545191355,-0.0614619963,0.8826102614,1.6098704338,16.3257293701,-0.7090671659,1.7563692331,3.9325940609,0.3173543811,-1.0462385416,-0.8584438562,1.990067482
99,37463,37461,0.0594534241,-0.0683994368,0.9024920464,2.7796607018,10.64706707,-0.5480848551,1.7509425879,3.9335224628,0.3175645173,-1.1345758438,-0.8423070908,1.9717646837
100,37473,37471,0.0804323927,-0.1201224849,0.892003715,3.229991436,4.1082372665,-0.6556378603,1.751488924,3.9332067966,0.3107165992,-1.2962698936,-0.8090468645,1.9723117352
101,37483,37481,-0.0026467682,-0.0206153803,0.9624075294,4.3591837883,0.9462555647,-0.5463405848,1.7508481741,3.930819273,0.3102962971,-1.2815225124,-0.6844489574,1.9736686945
102,37493,37491,0.0094366027,-0.0624941476,0.992157042,3.7476558685,-0.4651150107,-0.7287468314,1.7469092607,3.926081419,0.3097549081,-1.3003532887,-0.6344354749,1.968560338
103,37503,37501,0.0447652005,-0.0785157531,0.9581272006,2.4812085629,1.2002702951,-0.6478407979,1.7410770655,3.9200282097,0.3084073961,-1.2303829193,-0.5978639126,1.9525340796
104,37513,37511,0.0476902425,-0.0271122139,0.9699521065,0.2320231497,4.6185207367,-0.8478522897,1.7421119213,3.9199726582,0.3077528179,-1.2778941393,-0.581930995,1.9469884634
105,37523,37521,0.0660093352,0.0673185661,0.948753655,-1.1882369518,9.4829387665,-1.0106525421,1.7422553301,3.9200165272,0.3070501089,-1.376011014,-0.6030905247,1.9375728369
106,37533,37531,0.0133685404,-0.0357776284,0.9561588764,-3.4476556778,12.4973249435,-0.7913501859,1.7410542965,3.9210636616,0.3062933981,-1.5300796032,-0.7255060077,1.9108926058
107,37543,37541,0.0490843356,0.0131904176,0.9555711746,-1.2929515839,9.4112663269,-1.4087536335,1.7417802811,3.9212751389,0.306039989,-1.7095183134,-0.7749282718,1.9033563137
108,37553,37551,-0.0086811325,-0.006114312,1.0073022842,0.6825856566,4.7840008736,-0.7345077395,1.7415726185,3.9212937355,0.3053108752,-1.7530893087,-0.7895234823,1.883480072
109,37563,37561,-0.00654977,-0.0344859622,0.9957985282,3.4644095898,-0.0135864886,-0.6019489765,1.7417317629,3.9211473465,0.3045372665,-1.794916153,-0.7630865574,1.8774836063
110,37573,37571,0.0043032481,-0.0024922271,1.0316569805,5.6682095528,-1.4502327442,-0.5585166216,1.7414726019,3.9207086563,0.2996610403,-1.7576892376,-0.6902400255,1.8765323162
111,37583,37581,0.0193322357,0.0036490383,1.0143370628,6.4833660126,-2.0286567211,-0.2714665532,1.7412803173,3.9202506542,0.2986748517,-1.6915583611,-0.5861480832,1.877669692
112,37593,37591,0.0565095432,-0.1540076137,1.0201401711,7.8178663254,-2.4892804623,-0.3746170104,1.7396415472,3.91802001,0.2977010906,-1.6193135977,-0.4700733423,1.8811995983
113,37603,37601,-0.0001084332,-0.1642067581,1.0599132776,6.3859848976,0.4314303994,0.3130601346,1.7402985096,3.917539835,0.2978169024,-1.6393033266,-0.3473386467,1.8942002058
114,37613,37611,-0.0125727709,0.0577808321,1.0523897409,2.3445932865,3.6889324188,-0.1339872181,1.7418173552,3.9180300236,0.2968995869,-1.7829473019,-0.3465740979,1.8939900398
115,37623,37621,-0.0389757305,0.0992769226,1.0827246904,-1.9496107101,3.4580292702,-0.1441922337,1.7420727015,3.9180033207,0.2961165905,-1.7974617481,-0.3244812489,1.8909087181
116,37633,37631,0.0133021139,0.0105243474,1.142670989,-3.5123643875,1.4660615921,-0.8237221837,1.7383295298,3.9159631729,0.2985438704,-1.8896536827,-0.3687486053,1.8839788437
117,37643,37641,0.0293072797,-0.0269974209,1.0757753849,-2.5658969879,2.778835535,-1.3971680403,1.7381511927,3.9149796963,0.2981868684,-1.8595172167,-0.5015774369,1.8454781771
118,37653,37651,0.006728034,-0.0176875591,1.0046225786,0.6830616593,-4.4501199722,-0.9267935157,1.7364758253,3.9123239517,0.2978491783,-1.8982063532,-0.5275313854,1.8350832462
119,37663,37661,0.0089517431,-0.0591878742,1.0773593187,7.0504007339,-9.8276643753,-0.897362411,1.7373863459,3.9123058319,0.2976180911,-1.8296803236,-0.4726510942,1.8355592489
120,37673,37671,-0.0065865554,-0.0325165205,1.1237970591,8.9584789276,-6.7449302673,-0.3892614543,1.7350306511,3.9123456478,0.2958314121,-1.6038694382,-0.3326002955,1.8382366896
121,37683,37681,0.0148914549,0.011969896,1.0583311319,8.7406740189,-6.3920683861,0.273744911,1.7308158875,3.9078671932,0.295681268,-1.4059984684,-0.2446367145,1.8280601501
122,37693,37691,0.0252566282,-0.025169814,1.0401835442,7.1525964737,-4.9031910896,-0.0112500973,1.733174324,3.9073626995,0.2954944372,-1.5612673759,-0.0956654772,1.8565808535
123,37703,37701,0.0256602783,-0.0292701442,1.0699338913,4.9192295074,-3.8430645466,-0.1982337683,1.73437953,3.9076757431,0.2980384231,-1.565948844,-0.0618990064,1.8498402834
124,37713,37711,-0.0247699209,0.0882449001,1.0561532974,1.4973775148,-2.8803739548,0.007388493,1.7355389595,3.9082024097,0.2981391847,-1.5794415474,-0.0718104169,1.835398078
125,37723,37721,-0.0124189574,0.0502218567,1.0279895067,0.5841532946,-3.8668940067,-0.2835350037,1.734059453,3.9054858685,0.2983479202,-1.5218878984,-0.0497726649,1.8368350267
126,37733,37731,0.004333755,-0.1003966257,1.1473808289,1.1945011616,-5.9117240906,-0.6678935885,1.7318233252,3.9033882618,0.2987918258,-1.3542182446,-0.1090095341,1.8158215284
127,37743,37741,0.005315179,0.0473594703,1.0052679777,2.8759715557,-7.3449568748,-0.5092703104,1.7347875834,3.9032490253,0.2990551293,-1.4128602743,-0.0668603107,1.8184630871
128,37753,37751,-0.0198820494,0.0742278472,1.0133974552,3.3025381565,-7.3081316948,-0.1044855341,1.7329579592,3.9033930302,0.2996480465,-1.1227095127,0.0016598484,1.8199778795
129,37763,37761,-0.0001449116,0.0318916515,1.040460825,3.4093341827,-7.8378105164,-0.2662190199,1.7357120514,3.9030423164,0.2999780178,-1.2389854193,0.0626829043,1.8267751932
130,37773,37771,0.0022381919,0.0070374422,1.045379281,2.0530827045,-7.1840310097,0.0797433928,1.7366156578,3.9038507938,0.2999944985,-1.2419645786,0.0406052731,1.8135094643
131,37783,37781,-0.0033567422,0.0240757931,0.981366396,0.167019695,-4.9812202454,0.6092969775,1.7369911671,3.9037659168,0.3005090356,-1.1046514511,0.0764301941,1.8179554939
132,37793,37791,0.0509441495,0.0100362087,0.981870532,-0.4312037528,-6.8067526817,0.4988809228,1.7388011217,3.9038784504,0.300843209,-1.163851738,0.0732985884,1.8234350681
133,37803,37801,0.0024094754,-0.0987923816,1.0035643578,-0.8406086564,-6.9517698288,0.6704212427,1.7398056984,3.9033157825,0.2978217006,-1.1181520224,0.1434502751,1.8438260555
134,37813,37811,-0.0638594702,-0.0562583506,1.0499264002,-0.843693018,-7.4763383865,0.1449902505,1.7399411201,3.9047973156,0.2981411517,-0.9618012309,0.1253796816,1.8490037918
135,37823,37821,-0.0639528334,0.0185414385,0.9871888161,-1.1304059029,-8.7311258316,0.2780077159,1.7408117056,3.9055359364,0.2984111905,-0.870336771,0.0340544693,1.8362072706
136,37833,37831,-0.0511042811,0.0577900074,1.0360895395,-1.9980163574,-9.6329126358,0.6215797067,1.742831707,3.9057044983,0.2990323007,-0.9203089476,0.0185114481,1.8360971212
137,37843,37841,-0.0208629351,-0.0200231206,1.0240424871,-1.1368229389,-10.3398094177,0.1272884905,1.7436485291,3.9058122635,0.2993810177,-0.7801000476,0.001314463,1.8430777788
138,37853,37851,-0.0360038839,-0.0105160503,1.0930829048,0.5023626685,-8.3320293427,-0.0479273275,1.7428750992,3.9052135944,0.2999511063,-0.4768640399,0.0789644718,1.8606249094
139,37863,37861,-0.0064340113,-0.0508790091,1.0062645674,1.5412182808,-8.8009443283,-1.0792165995,1.7456160784,3.9043097496,0.3002343178,-0.6151984334,0.0906488672,1.8521139622
140,37873,37871,0.0277136192,0.0215890966,0.9455189109,2.0910046101,-5.1445412636,-0.9740355015,1.7448743582,3.905393362,0.3003183007,-0.4381483793,0.0400248542,1.8380452394
141,37883,37881,0.0212352313,0.0028441336,1.0058721304,2.1789700985,-4.1503582001,-0.9721975327,1.7446839809,3.9062170982,0.3007380366,-0.3227261305,0.0796351358,1.8326873779
142,37893,37891,-0.012281755,-0.0195523072,0.9980249405,1.7767267227,-3.7174091339,-0.5416023135,1.7477376461,3.9062228203,0.3009811938,-0.4625585675,0.1167062744,1.8185811043
143,37903,37901,-0.0575060956,0.028303802,0.9886125922,1.9330761433,-4.6416187286,-0.0930010304,1.7484079599,3.9054601192,0.3031784892,-0.3320834935,0.1503216475,1.8165384531
144,37913,37911,-0.0430232547,0.0236962195,1.0223591328,1.3973228931,-6.3690924644,-0.626031518,1.7497645617,3.9027919769,0.3036477864,-0.281769067,0.2579463422,1.8169950247
145,37923,37921,0.0273620989,-0.0424784347,0.9622119665,0.2967814207,-7.0028877258,-0.6849990487,1.7515153885,3.9027688503,0.3040587902,-0.289659977,0.2716660202,1.806935668
146,37933,37931,-0.011599089,-0.0171108935,0.9912331104,-1.2156151533,-7.9036054611,-1.4499723911,1.7497214079,3.9044826031,0.3061133027,-0.2093175948,0.1787522286,1.7974274158
147,37943,37941,0.0191943906,-0.0687431097,0.973069787,-2.4931988716,-4.9028635025,-1.8480433226,1.750187397,3.9045989513,0.3067415357,-0.0522617213,0.1478528678,1.7865663767
148,37953,37951,-0.0209926926,0.0209781155,1.0298727751,-1.999171257,-3.5002639294,-2.1500415802,1.750010848,3.9048101902,0.3072098196,-0.090094693,0.1900376678,1.7632806301
149,37963,37961,0.0123092635,-0.0198097844,0.9646197557,-1.6926953793,-2.9549558163,-2.2841179371,1.7507122755,3.9046399593,0.3098823428,0.0213749614,0.1556348801,1.744992137
150,37973,37971,-0.0134011367,-0.020356629,0.9819258451,-1.3677911758,-2.991713047,-2.5008368492,1.7547079325,3.9076776505,0.3104475439,-0.0334789529,0.1971840113,1.7207621336
151,37983,37981,-0.0014189995,0.0064936602,0.9917368889,-1.5468147993,-3.3157482147,-1.6440265179,1.7558122873,3.9072489738,0.3110464215,-0.0090222694,0.2431702763,1.6949810982
152,37993,37991,0.0579401329,-0.1103227437,0.9592786431,-1.0051878691,-3.9399051666,-1.9255677462,1.7584596872,3.9097876549,0.3117323518,0.1036484614,0.2035433948,1.6836335659
153,38003,38001,-0.0144827049,-0.0180823077,0.9957411289,-1.3571033478,-4.7978787422,-2.359164238,1.7581379414,3.9143640995,0.3116774261,0.0656857118,0.0887354165,1.6657953262
154,38013,38011,0.0249942336,-0.0420144498,0.9390652776,-1.5801775455,-5.5757732391,-2.710621357,1.7588114738,3.9124526978,0.3123096526,0.2048294991,0.0545344725,1.6487972736
155,38023,38021,-0.0048761591,0.0041477433,1.005043745,0.1410848945,-5.4650669098,-2.1322481632,1.7592426538,3.9118411541,0.3129154146,0.3482252359,0.1064547077,1.623008728
156,38033,38031,-0.0029432978,0.0306018665,0.9532146454,1.4358997345,-2.8092575073,-1.3227570057,1.7616391182,3.9121313095,0.3114742935,0.2521261275,0.1779338717,1.5893703699
157,38043,38041,0.0068327081,0.0404226184,0.9640244246,2.0726907253,-1.5860185623,-0.6500911117,1.7622661591,3.9119775295,0.3118697703,0.3446706831,0.1925508976,1.580162406
158,38053,38051,-0.010813172,0.026362747,0.9935476184,0.6791118383,0.6892794967,-0.2570016384,1.7602313757,3.9076046944,0.3122568727,0.4748204648,0.2034016997,1.5808161497
159,38063,38061,-0.0102060204,0.0038713522,0.9922491908,-1.3955290318,2.530105114,0.0887450203,1.7618786097,3.9076657295,0.3146410286,0.4086862504,0.1919239908,1.5771839619
160,38073,38071,-0.0097235916,-0.0075519118,0.9799253345,-3.4709544182,3.457816124,0.2124139518,1.7642614841,3.9092671871,0.3149777353,0.2444708645,-0.0015851194,1.5886101723
161,38083,38081,0.0007301457,-0.0297807883,0.9667548537,-5.1232562065,2.9437158108,-0.0236636642,1.764557004,3.9095394611,0.3154323995,0.3060942292,-0.0638551116,1.5974838734
162,38093,38091,-0.0202051941,0.005798406,0.9777222276,-4.7142181396,1.8617680073,-0.0863779485,1.7680113316,3.9112660885,0.3157128394,0.2234614789,-0.067011252,1.588283062
163,38103,38101,-0.0167048369,0.1209775284,0.9623898864,-2.0840401649,-0.0397538878,-0.0439575538,1.7689067125,3.9117629528,0.3158644736,0.3240844905,-0.1437419504,1.5959362984
164,38113,38111,-0.0288759097,0.0499207415,0.9751945138,1.6353878975,-1.7648769617,0.1531907171,1.7710000277,3.9123580456,0.3160504699,0.2104304582,-0.0900533721,1.5825229883
165,38123,38121,0.0167105105,-0.0318741463,0.9396516085,4.1115307808,-2.5383319855,0.14897798,1.7709344625,3.9114687443,0.3164123595,0.3558864892,0.0164535232,1.5777186155
166,38133,38131,-0.0087583177,0.0176594015,0.9907256365,4.3444643021,-3.0358166695,0.4239016473,1.772036314,3.9100015163,0.3172301948,0.5088126659,0.0799408555,1.5820345879
167,38143,38141,0.0170780774,-0.0442069732,0.934584856,1.7370018959,-1.5582411289,0.8681130409,1.7740995884,3.9105322361,0.3173649311,0.423451066,0.05678951,1.5917009115
168,38153,38151,-0.0178458467,0.0013633306,0.9903055429,-2.1669852734,0.8884202838,0.9912663698,1.7740088701,3.9096283913,0.3175254166,0.4712119401,0.0610569268,1.6027761698
169,38163,38161,0.0158100966,-0.0176812839,0.928196907,-4.3647589684,2.6990892887,1.0135720968,1.7740347385,3.9098141193,0.3160933256,0.5560792089,0.0098206671,1.6194919348
170,38173,38171,-0.0127540724,-0.0135347573,0.96924299,-5.7072219849,3.789493084,0.7602075338,1.7765462399,3.9094498158,0.3160065711,0.3696798384,0.0020649503,1.6193604469
171,38183,38181,-0.0072085955,-0.0345451906,0.9801629186,-5.4226703644,3.9267642498,0.7468262315,1.7768181562,3.9091060162,0.316018939,0.4072239399,-0.0292405449,1.6263980865
172,38193,38191,0.0098134065,-0.0702195391,1.0176615715,-3.2472853661,2.7086839676,0.5327177048,1.7770696878,3.9094166756,0.3160016835,0.4333738387,-0.1196589321,1.6416646242
173,38203,38201,0.0373874642,-0.0522179604,0.9480865002,-2.0220005512,2.7960424423,0.4268102646,1.7780085802,3.9088511467,0.3159113228,0.4023120403,-0.0986342356,1.6394466162
174,38213,38211,-0.0193946678,-0.0036632447,0.9907736778,0.5990521312,2.9726550579,0.4489523172,1.7798749208,3.9108498096,0.3158415258,0.4475953579,-0.1329601705,1.6496459246
175,38223,38221,-0.0304031689,-0.0612029843,1.0120806694,2.2048056126,1.5925654173,0.0675418079,1.77995646,3.9107351303,0.3157696128,0.4921143949,-0.1193682179,1.6558805704
176,38233,38231,-0.0346917249,0.0156485066,1.0342307091,2.2958536148,3.0071070194,-0.0452407748,1.7825644016,3.9106414318,0.3184063435,0.2942122519,-0.0918603688,1.6519013643
177,38243,38241,0.0221414212,-0.0310901478,0.9570965171,0.1065319702,7.5469784737,-0.1735334396,1.7829296589,3.9097754955,0.3184853792,0.3050938547,0.0007239132,1.6406764984
178,38253,38251,-0.0315064602,-0.0619951598,0.9915171266,-2.5670113564,8.1477441788,0.0143438866,1.7834612131,3.9098536968,0.3185526431,0.2584625483,-0.0251766462,1.6425529718
179,38263,38261,-0.0161289703,-0.0249408484,0.9870514274,-4.9430103302,8.3434267044,-0.0437702946,1.784003377,3.9101400375,0.3174027801,0.1968564391,-0.0954500809,1.6481859684
180,38273,38271,-0.0329610668,0.0157726537,0.9447284937,-6.4766745567,6.5922851563,-0.0120950127,1.7845333815,3.9097857475,0.3173686564,0.1413425803,-0.1248115599,1.6445560455
181,38283,38281,-0.0167976897,0.0062366249,0.9809599519,-5.9372606277,4.5553674698,0.5756988525,1.7849698067,3.9101355076,0.3173062205,0.1026085764,-0.2422686964,1.6521239281
182,38293,38291,-0.035190843,-0.0939411372,1.0745083094,-2.7472136021,1.8663625717,0.6802752614,1.786498189,3.9098136425,0.3171209693,-0.0324468203,-0.2617643476,1.6521623135
183,38303,38301,-0.0595663711,-0.1503240019,1.0576119423,0.3368209004,1.6381963491,1.0794523954,1.7865202427,3.9098961353,0.3145023584,0.0247250441,-0.2992706001,1.661878109
184,38313,38311,-0.0342560001,-0.0862705782,1.0420472622,3.121588707,1.6483035088,1.6171013117,1.7881512642,3.9098386765,0.3142760098,-0.0705467835,-0.2879441679,1.6733361483
185,38323,38321,0.0034128136,-0.0130736073,0.9473709464,4.3241014481,2.3817141056,1.8060616255,1.7882857323,3.9095776081,0.3142252564,-0.0251533501,-0.238272205,1.6880056858
186,38333,38331,-0.0223136935,0.0117894905,1.0078594685,3.1961295605,1.9248971939,1.9489736557,1.7891925573,3.9093358517,0.3115372956,-0.0633015558,-0.1786726117,1.7048031092
187,38343,38341,0.0018036083,-0.0026385179,0.9964388609,0.5070551038,3.0922424793,2.0580379963,1.7873848677,3.9070017338,0.3112920225,-0.0210623145,-0.1467142701,1.7163075209
188,38353,38351,0.0038142831,-0.0345205106,0.9795998335,-2.1970579624,4.5769081116,1.8636001348,1.7876065969,3.907086134,0.3110284805,-0.0087564308,-0.1643072665,1.7377973795
189,38363,38361,-0.0019453818,0.1186797693,0.9459009171,-3.3449270725,6.6233234406,1.6455837488,1.7880048752,3.9065322876,0.3103641272,-0.0346910506,-0.1456196755,1.750808239
190,38373,38371,-0.004752398,-0.0923508555,1.0132882595,-1.2266563177,8.7639636993,1.2316781282,1.7892738581,3.9067530632,0.3099874556,-0.1659645587,-0.2075982243,1.7691181898
191,38383,38381,-0.0058143507,-0.048838824,1.0098725557,1.4331066608,9.7940969467,0.6520864367,1.7899016142,3.9067802429,0.3096450567,-0.2497634292,-0.2270299494,1.7804254293
192,38393,38391,0.0259604901,-0.0480821952,1.0072518587,2.831859827,8.8501853943,0.5706785917,1.7896178961,3.9069259167,0.3095373213,-0.3419540823,-0.2016371638,1.7865563631
193,38403,38401,0.0071974578,-0.0311280377,0.9754256606,1.9497789145,7.1565284729,0.3572799265,1.7900589705,3.9065566063,0.3091972768,-0.4144408703,-0.1638770401,1.7908037901
194,38413,38411,0.0114351418,-0.0063562766,0.9802256227,0.9798381329,7.4099364281,0.1181374565,1.7923027277,3.9084904194,0.3088564575,-0.4614747167,-0.1440613568,1.7926371098
195,38423,38421,-0.012043613,-0.1311982125,1.0419619083,0.5962230563,6.7732458115,0.0184209086,1.7962437868,3.9122579098,0.3084766567,-0.5200486183,-0.1366136074,1.8018795252
196,38433,38431,0.0167551693,-0.0179120228,1.0002331734,0.0550923422,6.8173937798,-0.4099295437,1.7967698574,3.9122636318,0.310459584,-0.571778357,-0.1357257366,1.8009217978
197,38443,38441,-0.0490145199,0.0404114574,0.994381547,-2.2377672195,5.4129242897,-0.0997231454,1.8017669916,3.9157967567,0.310161829,-0.6896909475,-0.0816131383,1.8123570681
198,38453,38451,-0.0464753099,-0.0082845073,1.0432318449,-2.8041558266,3.8313355446,-0.2354614586,1.8020392656,3.9160165787,0.3100085258,-0.6947286725,-0.1380987316,1.811109066
199,38463,38461,0.0241519697,-0.0174790323,0.9928665161,-2.5565676689,0.6386701465,-0.048453711,1.8023563623,3.9190893173,0.3090765476,-0.7579489946,-0.1960338205,1.8118828535
200,38473,38471,0.0036131071,0.0302144475,0.9923266172,-2.174703598,1.4727877378,0.4425611496,1.8032476902,3.9153428078,0.3088247478,-0.7712032795,-0.1721617728,1.8130047321
201,38483,38481,-0.0099620568,-0.0105365096,1.0016417503,-1.1267112494,0.0614231415,0.6833652258,1.8010050058,3.9128811359,0.3086696863,-0.7157446742,-0.2115428597,1.8070180416
202,38493,38491,0.0260404311,-0.0245417356,0.9746832848,-0.4644611776,-0.8256845474,0.974886179,1.8016865253,3.9129612446,0.3082771301,-0.7147622705,-0.2373917252,1.8142975569
203,38503,38501,-0.002347264,0.0706170872,0.9529631138,0.8402667046,-0.9868274331,1.9239890575,1.8039201498,3.9129855633,0.3079079986,-0.8584510684,-0.2463697642,1.8264443874
204,38513,38511,-0.0256926343,0.04934806,1.0426160097,2.5626797676,0.0534537397,1.9331349134,1.8038687706,3.9128954411,0.30772084,-0.7614741325,-0.2317379862,1.8435614109
205,38523,38521,-0.0060872142,-0.0513034649,1.0338773727,3.4705154896,-0.859367311,1.8120499849,1.8061691523,3.912977457,0.3073803782,-0.823297441,-0.1876602173,1.8647352457
206,38533,38531,-0.0058134389,-0.0491072983,1.0191295147,2.8927619457,-1.8925243616,1.9586002827,1.8070107698,3.9123392105,0.3095243871,-0.7965759635,-0.1410371661,1.8831328154
207,38543,38541,0.0185512826,-0.0486463495,0.9728339911,-0.2142508626,-4.4646239281,2.1082644463,1.809184432,3.9118375778,0.3093048334,-0.8952079415,-0.1149233282,1.9058884382
208,38553,38551,0.0007195313,-0.1380115151,1.0417336226,-2.7643344402,-8.730547905,1.0206907988,1.807970047,3.9093008041,0.3093973994,-0.7057614923,-0.1446624845,1.9110748768
209,38563,38561,-0.0173754971,-0.08195059,1.0557793379,-3.6605269909,-7.7578029633,0.6328523159,1.8088101149,3.9095163345,0.3084840775,-0.6164475083,-0.1977790892,1.9184105396
210,38573,38571,0.0017523487,-0.0226454865,0.9914528131,-3.4284720421,-4.7147479057,0.2266927958,1.8107187748,3.9091570377,0.3083355725,-0.6299574971,-0.2603253722,1.923754096
211,38583,38581,0.0206932798,0.0560496636,1.019515872,-0.0515481196,-2.3576364517,-0.0659015626,1.8105359077,3.9085798264,0.3084068298,-0.4696907401,-0.2320643365,1.9292045832
212,38593,38591,-0.000487881,0.0173229929,1.0273115635,1.6244205236,-1.4563342333,-0.2243249863,1.8111604452,3.9085645676,0.3071755767,-0.4267809987,-0.2367377877,1.9282368422
213,38603,38601,-0.011060874,0.0260971654,0.9617381096,1.3159234524,0.026517272,-0.3625605404,1.8133722544,3.9085252285,0.3069850802,-0.5461419821,-0.2159058452,1.9277768135
214,38613,38611,0.0117142824,-0.0155493934,0.9602822065,0.4698914886,-0.8170192242,-0.3998913169,1.8149126768,3.9085233212,0.3067941964,-0.5985719562,-0.2049962729,1.9249298573
215,38623,38621,-0.0130032124,-0.1289578378,1.0963219404,-0.5325521231,-5.8851590157,-0.6746211648,1.8146921396,3.9085140228,0.3068075478,-0.4541158378,-0.2064224929,1.9179410934
216,38633,38631,0.0275292341,-0.0494170636,0.9873744249,-2.9273509979,-12.2286872864,-1.4840846062,1.8170872927,3.9094920158,0.3062875569,-0.5323562622,-0.3122221231,1.9065364599
217,38643,38641,-0.0182724856,-0.009600983,0.9827398062,-3.3357853889,-15.2403306961,-1.6275110245,1.8168814182,3.9089620113,0.3063343763,-0.2749516666,-0.2843185365,1.893648982
218,38653,38651,-0.0013545634,0.037415009,1.025703311,-2.2017395496,-15.6802797318,-1.9146963358,1.8165340424,3.909153223,0.3063228726,0.0078997072,-0.3370821476,1.8742550611
219,38663,38661,-0.0378613509,0.012994945,1.0769982338,-1.3924452066,-11.7284135818,-2.6969838142,1.8200224638,3.9093854427,0.3035513759,-0.107411392,-0.3660227954,1.8592261076
220,38673,38671,-0.0565224178,0.0345496349,1.0372929573,-0.9277982712,-3.4943594933,-2.8195831776,1.819421649,3.9094359875,0.303517431,0.1704623848,-0.3814978898,1.8283520937
221,38683,38681,-0.0275991298,0.0611522868,0.961487174,-0.5798285604,2.8913831711,-3.463770628,1.8216418028,3.9095339775,0.3033085167,0.0729517788,-0.3848299086,1.801894784
222,38693,38691,-0.0443977267,0.0338253938,1.0520609617,-0.9822536111,8.5976219177,-3.7235805988,1.8235236406,3.9096565247,0.3015852869,-0.0501253456,-0.3922845423,1.7688890696
223,38703,38701,0.0189368967,-0.1193148196,1.03282094,0.2306181043,10.8917665482,-4.2690520287,1.8241772652,3.90969944,0.3014152348,-0.0865771398,-0.3951208889,1.7304848433
224,38713,38711,-0.0046168347,-0.1662446707,1.0318686962,2.2654671669,10.6458654404,-4.900677681,1.8256316185,3.9096777439,0.3012074232,-0.2274812013,-0.3762868643,1.6874381304
225,38723,38721,-0.0325083025,-0.0202389155,1.0667335987,4.6066288948,7.9089756012,-4.6907715797,1.827781558,3.910269022,0.3016510606,-0.4312235117,-0.3953518271,1.6407312155
226,38733,38731,0.018383937,-0.0145369694,0.9663597345,5.1167445183,3.3302016258,-3.8156232834,1.8273327351,3.90990448,0.3018288612,-0.326515913,-0.3032222092,1.5886899233
227,38743,38741,0.0300082527,0.0193339288,1.0065164566,5.2890028954,-2.8236505985,-3.127548933,1.8281234503,3.9096064568,0.3018265963,-0.3209909797,-0.2137765884,1.5520430803
228,38753,38751,0.024106184,-0.0226984359,0.9875097275,5.6479849815,-7.0894298553,-1.6667484045,1.8292071819,3.9100465775,0.3017703593,-0.2827702463,-0.1991586685,1.5239982605
229,38763,38761,0.0210166089,0.0006136033,0.9797853231,5.8861355782,-7.8974108696,-0.7862940431,1.8301348686,3.9111673832,0.3010547459,-0.2027080804,-0.2445487231,1.5082663298
230,38773,38771,0.0287336782,-0.0168662947,0.9468057752,5.7782773972,-7.850505352,0.2517801523,1.8302774429,3.909860611,0.3009212017,-0.1399406791,-0.1341426075,1.5023108721
231,38783,38781,0.0266738012,-0.0178835653,1.0011454821,6.0095610619,-6.6809091568,1.1110557318,1.8297537565,3.9093995094,0.3009260893,0.1052703783,-0.0124199716,1.5016987324
232,38793,38791,-0.066314593,-0.0451133549,1.0512391329,3.7522678375,-3.854878664,1.8195457458,1.8316627741,3.9098434448,0.3032188714,0.0741506591,0.0179257002,1.5158387423
233,38803,38801,-0.0603742339,0.0291244406,1.0161254406,-1.019765377,-0.6422381997,1.3974192142,1.832451582,3.9092085361,0.3031994402,0.0803651959,0.0741421133,1.5334255695
234,38813,38811,-0.025692137,-0.0004819944,1.0312521458,-4.6015081406,2.4558815956,1.5291981697,1.8339774609,3.9094934464,0.3031872213,0.0300991219,0.0355632417,1.5513241291
235,38823,38821,-0.0267365817,0.0121475654,1.0443729162,-5.0280427933,4.95763731,1.5240870714,1.8342264891,3.9106066227,0.3032237291,0.0835564509,-0.1174262762,1.56739223
236,38833,38831,0.0178276077,-0.0248172972,1.0191497803,-3.0484158993,5.7945013046,1.8298681974,1.834618926,3.9101355076,0.3033847809,0.0976895988,-0.0898355991,1.5797203779
237,38843,38841,0.0392480791,-0.0037690201,0.8916289806,0.9805199504,3.9521505833,2.4185824394,1.8365420103,3.9102668762,0.3034163713,-0.077895999,-0.1075694486,1.5973731279
238,38853,38851,0.0011679829,0.0372615233,1.011413455,5.4176931381,-0.99791646,3.36546731,1.8365994692,3.9107904434,0.303566426,-0.0083850678,-0.1301868558,1.6147942543
239,38863,38861,-0.0101662986,-0.0114228111,1.0259737968,11.4716253281,-3.4084808826,4.3290495872,1.8383214474,3.9086608887,0.3058903813,-0.037272919,0.0232446138,1.6484254599
240,38873,38871,0.0056706616,-0.0282947924,0.99495399,12.141828537,-2.8110661507,5.2492547035,1.8381583691,3.9085786343,0.3061737418,0.114617601,0.1578421146,1.6933826208
241,38883,38881,0.0016349105,0.0030017905,0.9979817271,7.857670784,-2.0829117298,4.8247408867,1.8395079374,3.9079041481,0.3063154221,0.0917542651,0.3575008512,1.7411425114
242,38893,38891,-0.009074063,-0.0081024086,0.9957028627,0.7492812872,-1.7085753679,4.2128744125,1.840646863,3.9115371704,0.3045377433,-0.09616258,0.3020315766,1.8036417961
243,38903,38901,-0.0025557571,-0.0252255034,1.0094262362,-3.8523802757,-0.9906269312,3.6927108765,1.8405890465,3.9116411209,0.3047523499,0.0426123962,0.301327765,1.8473058939
244,38913,38911,0.0239094291,-0.0255281162,0.9595891833,-7.8291902542,0.0525913946,3.775346756,1.839373827,3.9108176231,0.3049373329,0.1644902378,0.2247017622,1.8808069229
245,38923,38921,-0.0143177761,0.0108108809,1.0121954679,-9.5843391418,0.6509872079,4.4632582664,1.8408511877,3.9114797115,0.3063610494,0.102881439,0.0910679772,1.9207675457
246,38933,38931,0.0029634298,-0.0327593349,0.9882588983,-8.9956674576,0.477842778,5.178276062,1.8415685892,3.9120800495,0.3065520227,0.1936323941,-0.0517427064,1.9719563723
247,38943,38941,0.0040847845,-0.0213658866,0.975153327,-5.9170775414,-0.2134914547,6.0125699043,1.8432155848,3.9120864868,0.3066247404,0.0481545031,-0.0892822742,2.0174410343
248,38953,38951,-0.0093530202,0.0258269776,1.0360393524,-1.8029038906,-2.2874612808,6.8752851486,1.8439452648,3.9116535187,0.3067906499,0.0812296644,-0.0773920044,2.0775132179
249,38963,38961,0.0065767434,-0.0026638503,0.9898992777,2.4839897156,-3.9538927078,7.5663094521,1.8450495005,3.912242651,0.3055450618,0.0762568042,-0.15367423,2.1485478878
250,38973,38971,0.0085073011,-0.0025318605,1.0113042593,5.5052323341,-3.0537576675,8.2143201828,1.8463480473,3.9120335579,0.3056025207,0.0766368434,-0.0804707855,2.2222144604
251,38983,38981,0.027301494,-0.0147689143,0.9748077989,6.9609675407,-1.6106749773,9.1916866302,1.8470611572,3.9140763283,0.3056230843,0.0718942508,0.0395433418,2.3174877167
252,38993,38991,-0.0011215522,-0.0194410589,0.9605919123,5.5992512703,-0.5710816979,9.6070547104,1.8470317125,3.9143998623,0.3075916469,0.2064675987,0.0820947513,2.4135553837
253,39003,39001,-0.0320243798,-0.065213792,1.0593893528,2.378736496,-0.9378554225,10.0681409836,1.849091053,3.916465044,0.3076481521,0.093002893,-0.0654613599,2.5198009014
254,39013,39011,-0.0222823042,-0.0982413068,0.9726734161,-0.199259311,-2.9458010197,10.4295024872,1.8484452963,3.9168264866,0.3078661561,0.1734193563,-0.0139363958,2.6219933033
255,39023,39021,0.0086182775,-0.0719794184,0.9419782162,-2.0524606705,-2.3887400627,10.0063915253,1.8483079672,3.9197716713,0.3070688248,0.2469700277,-0.0041484651,2.7487308979
256,39033,39031,-0.0267963652,0.0149237979,1.0353460312,-0.9101040363,-2.8846077919,9.6199369431,1.8490197659,3.9201250076,0.3071122766,0.2272746116,-0.0074433759,2.8468301296
257,39043,39041,0.0132040428,-0.0755863264,0.9442722201,-0.6877527237,-2.6577942371,9.8923339844,1.8484573364,3.9202589989,0.3072856665,0.3914302886,0.0078380248,2.942851305
258,39053,39051,0.0124343596,-0.0370669365,0.9071769714,-0.6290947795,-1.8026900291,10.1843986511,1.8498828411,3.9199259281,0.3092215359,0.3533898294,0.0247255173,3.0266788006
259,39063,39061,0.034775883,-0.1106093526,0.9925679564,-3.3132152557,-1.7282145023,9.1023569107,1.8502155542,3.9196434021,0.309248507,0.3964800537,-0.1433110982,3.1217820644
260,39073,39071,-0.0050605051,-0.0253990795,0.9817931652,-4.6365208626,-1.0192724466,7.7804393768,1.8509414196,3.9156901836,0.3092382252,0.399923414,-0.1828326732,3.1976072788
261,39083,39081,-0.0202873144,0.0333485231,0.9341826439,-3.2607469559,-2.2481544018,7.1846833229,1.8537302017,3.9175136089,0.3092165589,0.3742385507,-0.2119092345,3.2816352844
262,39093,39091,0.0358885266,0.0055922531,0.906503737,-0.2555198669,-2.6510269642,6.9864683151,1.8550873995,3.9167816639,0.3076845407,0.316788137,-0.1548651606,3.3456642628
263,39103,39101,0.0327071771,-0.0832850412,1.0409018993,0.3456662297,-4.6337738037,7.677989006,1.8557249308,3.917014122,0.3075389862,0.4027754068,-0.1396790445,3.4183306694
264,39113,39111,0.012245805,0.0174140539,0.9213906527,1.5020326376,-3.8753778934,7.1551179886,1.8572462797,3.917247057,0.3073755503,0.4545961916,-0.1082749739,3.4910233021
265,39123,39121,0.017741764,0.0283334777,0.8591935039,-0.3686709404,0.337302357,6.0932297707,1.860301733,3.9147500992,0.3078948259,0.2759015858,-0.0693846047,3.5358288288
266,39133,39131,0.008200842,0.0153104709,0.9794811606,-2.6030931473,2.2660751343,5.4574170113,1.8604046106,3.9145336151,0.3076765537,0.3716813028,-0.0723839626,3.5959265232
267,39143,39141,0.030090658,-0.1884818673,1.0576195717,-4.2175555229,-2.9828512669,4.0940241814,1.8610742092,3.9134380817,0.3072844148,0.3821599483,-0.1834154725,3.6433105469
268,39153,39151,0.0037568719,-0.1300853938,1.0800060034,-3.8905735016,-3.5256841183,0.0713161752,1.8617725372,3.9095916748,0.3097189069,0.4558955729,-0.2301451862,3.6454071999
269,39163,39161,0.0001929249,-0.0044859527,1.0182784796,-0.1974134147,-7.1961755753,-1.7992949486,1.8618988991,3.9113008976,0.3096638918,0.6264840364,-0.254555136,3.6507270336
270,39173,39171,0.0216352623,-0.1050082669,1.0417716503,3.3995540142,-7.3614969254,-3.21611619,1.8637022972,3.9113914967,0.3095830977,0.5875515938,-0.227633968,3.6285278797
271,39183,39181,0.065454416,-0.1641010344,1.0710443258,7.8972973824,-8.4672613144,-3.4874551296,1.8655468225,3.9140543938,0.3096162677,0.810366869,-0.1974539012,3.6150588989
272,39193,39191,0.0189231858,-0.0546375066,1.0495737791,8.7790021896,-1.2028013468,-3.6075868607,1.8660564423,3.9135177135,0.3087446392,0.8993276358,-0.0356442034,3.5708553791
273,39203,39201,0.0262673777,-0.01228322,0.9798996449,5.1677470207,5.5462784767,-3.6505122185,1.8678889275,3.914634943,0.308742851,0.7647690177,0.0192034468,3.5227193832
274,39213,39211,0.0391385406,-0.0630937517,1.034609437,-0.1185714528,9.8197097778,-4.6140503883,1.8690638542,3.9126017094,0.3087121844,0.6544685364,0.093324095,3.4825940132
275,39223,39221,-0.0231981054,0.0564405434,0.9473978877,-5.20611763,10.4087715149,-5.5356760025,1.8698923588,3.9127717018,0.3057492375,0.5389894843,0.0748605132,3.4348692894
276,39233,39231,0.0038575178,0.0256421119,0.8630594611,-6.4633669853,6.8259057999,-6.474357605,1.8706585169,3.913264513,0.3055732548,0.426404357,-0.0141161392,3.3798718452
277,39243,39241,0.0060936389,0.0137354974,0.9999582767,-3.7173900604,-2.0658369064,-7.7993841171,1.8716137409,3.9125258923,0.3052495718,0.3413397074,-0.0975965708,3.3059971333
278,39253,39251,0.0039496655,-0.0064215469,1.0084211826,-1.3003766537,-10.4812889099,-8.9860982895,1.871234417,3.9126906395,0.3066267371,0.4884685874,-0.130152598,3.2281959057
279,39263,39261,-0.0675800517,0.0603690408,1.0112150908,3.3714475632,-19.4161930084,-10.7145547867,1.8704247475,3.9129786491,0.3063957095,0.6368821859,-0.2532986403,3.1375873089
280,39273,39271,0.0044229887,-0.0201984197,0.9727689624,8.0155572891,-19.3869609833,-11.0467262268,1.8705753088,3.9126338959,0.3062507212,0.8829997182,-0.1429394037,3.023045063
281,39283,39281,-0.0157278683,-0.002043748,1.0419367552,12.2022018433,-13.0058050156,-11.3170022964,1.8709238768,3.9135277271,0.3122231364,1.084621191,-0.1123272553,2.9187986851
282,39293,39291,-0.0271632262,0.0728140622,1.0392678976,17.3059520721,2.5295860767,-10.6121425629,1.8721604347,3.9125881195,0.3124634922,1.1164473295,0.1529879272,2.7898180485
283,39303,39301,-0.029130321,-0.0551039912,0.9986764789,19.8547592163,18.828163147,-8.6302957535,1.8728094101,3.9135644436,0.3126962483,1.0364992619,0.2655739486,2.7006800175
284,39313,39311,-0.0743679479,-0.0751996189,1.081240654,18.5656414032,29.901638031,-7.7461957932,1.8713011742,3.9093732834,0.3129335344,0.6883041859,0.5601391196,2.576873064
285,39323,39321,-0.0306328181,-0.0153103489,1.0532554388,11.1798391342,33.3745002747,-6.5594687462,1.8719328642,3.9106082916,0.3108073771,0.3834651411,0.6388164163,2.5193972588
286,39333,39331,0.0202923529,-0.0076336428,0.9639508724,2.4501345158,29.5843887329,-5.2315092087,1.8719183207,3.9108507633,0.3110726178,0.1362178326,0.8082085848,2.4511291981
287,39343,39341,0.0356042311,-0.019863138,0.9560209513,-7.4615945816,19.8857936859,-3.8502802849,1.8713496923,3.9125108719,0.3114396036,-0.0470946841,0.6628750563,2.429962635
288,39353,39351,0.0359818116,-0.0956593305,0.974162221,-11.2906761169,8.0206022263,-2.9652516842,1.8723069429,3.911690712,0.3128190041,-0.2677274048,0.6956929564,2.3783867359
289,39363,39361,-0.0132881766,-0.0508320145,0.9835830331,-9.0456943512,-2.7593009472,-1.0991749763,1.8724945784,3.9113826752,0.3130517602,-0.2989830971,0.5399675369,2.3493528366
290,39373,39371,0.0289593246,-0.0446900837,0.9492775798,-4.1426734924,-9.3432779312,0.7643355131,1.8714379072,3.9112076759,0.313320756,-0.1746846139,0.4318732917,2.3512029648
291,39383,39381,0.0418599695,-0.1099282131,0.9689933658,0.8257076144,-12.1205024719,1.5541867018,1.8703420162,3.9102225304,0.3119291067,-0.0365069658,0.4132845104,2.3541402817
292,39393,39391,0.0032717041,-0.058574032,1.0401018858,1.9615426064,-12.1698265076,2.0500500202,1.8694307804,3.9107995033,0.3120058477,0.2060419172,0.382314086,2.3811883926
293,39403,39401,-0.0110648172,0.0327224769,0.9624449611,1.7472863197,-6.7719984055,2.1682286263,1.8697173595,3.9109320641,0.3120592833,0.2498274893,0.4346160293,2.3949422836
294,39413,39411,-0.0142381815,0.051433187,0.9598671794,1.2151063681,4.5820918083,2.5015952587,1.8680328131,3.9107120037,0.3120961189,0.3231682479,0.4686689973,2.4153559208
295,39423,39421,0.0446065068,0.0082025854,0.9440843463,0.5777862668,15.9646835327,3.2673666477,1.8687622547,3.9106469154,0.3073811531,0.2017625719,0.4992755949,2.4379754066
296,39433,39431,0.0813496113,-0.023557486,0.9384512305,-1.6042567492,22.236541748,3.7247202396,1.8697578907,3.9119129181,0.3070170879,-0.0916738734,0.3591216803,2.4730296135
297,39443,39441,0.0662471578,-0.0610446744,0.976734221,-4.2107543945,21.8601074219,3.7804334164,1.8707383871,3.9108860493,0.3065082431,-0.3996527791,0.3383603394,2.5000507832
298,39453,39451,0.0333208814,-0.0438511409,0.9978284836,-5.0744957924,14.3860082626,3.0048861504,1.8719474077,3.9114758968,0.3068644702,-0.6922385097,0.2936783433,2.5293679237
299,39463,39461,0.0121771814,-0.0161231309,0.935441196,-4.121055603,3.6464450359,1.200678587,1.8710823059,3.9100060463,0.3065753877,-0.6552222967,0.2372481525,2.546980381
300,39473,39471,0.0052876798,0.0520192869,0.9945833683,-1.0141119957,-4.993516922,-0.2327532768,1.8710566759,3.9086110592,0.3061414063,-0.6154356599,0.2117077112,2.5324332714
301,39483,39481,-0.0030186409,0.0296247862,1.032271862,1.9845250845,-8.0706939697,-1.1677573919,1.8706057072,3.9072828293,0.3053236902,-0.4688052237,0.2420134395,2.5329217911
302,39493,39491,-0.0775014758,0.0503782928,1.0157124996,2.5647506714,-5.821369648,-0.8225418329,1.8700345755,3.9071109295,0.3049145043,-0.3133618534,0.3098559976,2.5266654491
303,39503,39501,0.0010803801,-0.0103501752,0.9961250424,-1.3481732607,-0.1015460715,-1.3624556065,1.8720479012,3.9078779221,0.3044247627,-0.4523656368,0.2707515061,2.5033214092
304,39513,39511,-0.0295854285,0.0989903957,1.0343501568,-6.5136823654,4.9957475662,-1.6436680555,1.8713828325,3.9096105099,0.3040181398,-0.3680855632,0.0901517868,2.488255024
305,39523,39521,0.0020808382,0.008788228,1.011936903,-6.7627191544,6.2135910988,-2.0137331486,1.8717416525,3.910084486,0.305455029,-0.4238132536,0.0130980927,2.4699914455
306,39533,39531,-0.0656517297,-0.0419929251,1.0942263603,-5.2740125656,5.7590289116,-2.4642579556,1.8719091415,3.9104619026,0.3052046299,-0.4494009614,-0.0445296094,2.4498665333
307,39543,39541,-0.046017617,0.1008208469,1.0461995602,-4.6117377281,7.2952804565,-3.3620223999,1.8722184896,3.9107606411,0.3050147295,-0.4985632896,-0.080809094,2.4228801727
308,39553,39551,-0.0399844646,0.0436693542,0.9788489938,-4.019133091,10.085978508,-2.8347246647,1.8729108572,3.911106348,0.3044736981,-0.6270915866,-0.1204529554,2.390263319
309,39563,39561,0.0057519986,-0.0270093028,1.0022393465,-1.6922463179,12.7005033493,-2.5139803886,1.8736971617,3.9113094807,0.3042819798,-0.7772324681,-0.1315741241,2.3614859581
310,39573,39571,-0.0016274139,0.0097429855,1.0213433504,1.442407608,12.1382856369,-2.0506575108,1.873822093,3.9113082886,0.3041460216,-0.8740490079,-0.1008221507,2.341001749
311,39583,39581,-0.0392471328,-0.0321539417,0.9978081584,4.6989073753,8.6940698624,-1.1143397093,1.874587059,3.9118494987,0.3049323261,-1.0240598917,-0.0924266055,2.3151884079
312,39593,39591,-0.0182911158,0.0452836715,1.0084775686,7.2277994156,2.7764532566,0.6295969486,1.8749628067,3.9114413261,0.304864645,-1.0782521963,0.0395923741,2.3179171085
313,39603,39601,-0.0344220363,0.0610944778,1.0812909603,7.5121383667,-3.3176839352,1.5359956026,1.8748922348,3.9124283791,0.3048076928,-1.0363764763,0.0426261127,2.3198082447
314,39613,39611,-0.0314211138,-0.036835894,1.0276478529,4.4682784081,-8.2263288498,1.3321452141,1.8752344847,3.9127931595,0.3055532575,-0.9773581028,0.1069043055,2.3354747295
315,39623,39621,-0.0127425566,-0.0494077019,1.0778961182,0.810747683,-8.9481496811,0.7910152078,1.8743344545,3.9122154713,0.3056786656,-0.7362659574,0.1249277815,2.3356690407
316,39633,39631,-0.0337637365,0.0231608339,1.0116945505,-1.576590538,-2.3176987171,0.3496244848,1.8753092289,3.9109079838,0.3057616651,-0.7162547708,0.1631597579,2.3322832584
317,39643,39641,-0.0142881973,0.0214937944,1.0263082981,-1.7871981859,6.9045801163,0.5472528338,1.8762534857,3.9110634327,0.3058976531,-0.7805916071,0.1660211682,2.3396298885
318,39653,39651,0.016925782,-0.0121422512,0.9866989851,-1.4474054575,14.4523792267,0.596506834,1.8771226406,3.911085844,0.3071933389,-0.9153366685,0.1698551923,2.348379612
319,39663,39661,0.0476114824,-0.047655534,0.9976240396,-0.6296260357,17.4913101196,0.1622109711,1.8783255816,3.9113693237,0.3073734343,-1.1525441408,0.1784674972,2.3557288647
320,39673,39671,0.0230681431,-0.1427689642,0.9699439406,-0.5034161806,14.9807844162,0.7227548361,1.8795672655,3.9114582539,0.3075236082,-1.3884536028,0.1939794272,2.360571146
321,39683,39681,-0.0304788128,1.00277857200126E-05,1.082067132,-0.3131378293,9.1466827393,1.3413627148,1.8795526028,3.9114601612,0.3076038361,-1.4336215258,0.2131553143,2.374443531
322,39693,39691,0.0274496488,0.0732523352,0.8982328176,-0.4205092788,4.8166537285,1.740716815,1.8801417351,3.9122531414,0.3078308702,-1.5090032816,0.1520028561,2.3786737919
323,39703,39701,0.0188626926,0.0917631984,0.9032420516,-0.0689269528,0.7442134023,2.3021576405,1.8811196089,3.9122774601,0.308011204,-1.5258390903,0.1649681777,2.4015843868
324,39713,39711,-0.0612406358,-0.0138926879,1.0656784773,1.0472897291,-4.0692687035,2.5326263905,1.8815826178,3.9139735699,0.3073630333,-1.4951541424,0.0452722758,2.4013950825
325,39723,39721,0.0109492941,-0.0277886018,0.9885984063,2.8995871544,-7.450709343,3.299571991,1.8831481934,3.9139084816,0.3074012697,-1.4905935526,0.1140591353,2.4406526089
326,39733,39731,-0.0049200207,0.0483100042,0.9163892865,6.4196434021,-9.4467105865,3.031955719,1.8822131157,3.9132106304,0.3076424003,-1.2758879662,0.2167725265,2.4872677326
327,39743,39741,0.0113633219,0.0139414556,0.9318552017,8.626414299,-9.7862062454,3.9802293777,1.8838570118,3.9157519341,0.3075164258,-1.2983580828,0.058442723,2.4680380821
328,39753,39751,0.0536964089,-0.124636516,1.0223417282,7.3460941315,-9.599902153,4.0581665039,1.8831460476,3.915220499,0.3078030944,-1.0436410904,0.240666911,2.5347137451
329,39763,39761,0.0349867307,-0.1556316167,1.0100109577,7.1763858795,-6.4515872002,3.367426157,1.8854614496,3.9162926674,0.3076648116,-1.1180552244,0.2551972568,2.5578474998
330,39773,39771,-0.0119394278,-0.0393467471,0.9814116359,3.7574543953,-1.8363082409,2.412940979,1.8875623941,3.9160242081,0.3075472414,-1.2022486925,0.399445951,2.6035723686
331,39783,39781,0.0776841864,-0.044563245,0.8871135712,-1.1471971273,0.6150500774,1.7337126732,1.8886010647,3.9141294956,0.3094290197,-1.1942710876,0.4560474455,2.6178646088
332,39793,39791,0.0267828833,-0.0187314004,0.9396831393,-3.3233277798,-1.5226875544,0.4864327908,1.889696002,3.9124829769,0.3093774617,-1.1668266058,0.4488194883,2.6147220135
333,39803,39801,-0.0016940677,0.0657999665,0.8960201144,-4.3154129982,-4.3145542145,-0.9379227161,1.8905194998,3.9126675129,0.3093114793,-1.1175388098,0.3283113539,2.5862572193
334,39813,39811,-0.0087114712,0.021106815,0.9740424752,-3.8600814342,-6.9336409569,-2.3081612587,1.8927414417,3.9133586884,0.3131555021,-1.175650239,0.2102636546,2.5463352203
335,39823,39821,0.0038076644,-0.0428731777,0.9659135938,-1.3942748308,-10.3411893845,-3.1557178497,1.8929057121,3.9135861397,0.3133012354,-0.9983964562,0.1971181482,2.5268776417
336,39833,39831,0.0243585762,0.0220361762,0.9921146035,2.6868770123,-13.4215402603,-3.2363498211,1.8948214054,3.9137353897,0.3132063746,-1.0081298351,0.2449996918,2.5006871223
337,39843,39841,-0.0193986297,-0.0017404638,0.9930942059,5.8943500519,-15.8931074142,-3.7140078545,1.8948580027,3.9143619537,0.3132704496,-0.8066884875,0.2756310999,2.4651851654
338,39853,39851,-0.0816617683,-0.0187798273,1.0221951008,7.5460448265,-17.1083755493,-3.7895710468,1.8942744732,3.9139556885,0.3079541922,-0.5548376441,0.3532369137,2.4223492146
339,39863,39861,-0.0930336937,0.0804490671,1.0419244766,6.5710134506,-14.2668151855,-3.4014647007,1.8951359987,3.914052248,0.3075953722,-0.4633860886,0.3638624251,2.3623833656
340,39873,39871,-0.0347559974,0.1812011898,1.0018098354,3.1848020554,-7.8950605392,-3.9341025352,1.8959128857,3.9145114422,0.3073624671,-0.307641238,0.4152423143,2.3265225887
341,39883,39881,0.0012994544,0.0113553545,0.9154341817,1.7669963837,-2.1888623238,-5.2904171944,1.8978697062,3.9151730537,0.3068890274,-0.346465975,0.4200496376,2.2758927345
