,timestamp_start,timestamp_end,acc.x,acc.y,acc.z,gyro.x,gyro.y,gyro.z,stateEstimate.x,stateEstimate.y,stateEstimate.z,stabilizer.pitch,stabilizer.roll,stabilizer.yaw
0,28584,28581,-0.02970057725906372,-0.020991427823901176,1.1731643676757812,2.7284786701202393,-6.947208404541016,0.35674384236335754,1.8776192665100098,3.954920768737793,0.1550309956073761,0.44771674275398254,0.4017857611179352,2.207235097885132
1,28594,28591,-0.011196439154446125,-0.02171633206307888,1.1312998533248901,3.0743350982666016,-4.827060222625732,0.00531473895534873,1.8779977560043335,3.9539315700531006,0.15886034071445465,0.5274560451507568,0.4640626013278961,2.2112820148468018
2,28604,28601,-0.009833010844886303,-0.019876960664987564,1.0833007097244263,1.7115987539291382,-8.521037101745605,-0.12106835097074509,1.8783416748046875,3.9537787437438965,0.1613425761461258,0.5808588266372681,0.5227153897285461,2.2091102600097656
3,28614,28611,-0.002983793383464217,-0.024916814640164375,1.0438002347946167,-2.5998737812042236,-8.147323608398438,-0.4920296370983124,1.8791844844818115,3.95400333404541,0.16399651765823364,0.6685966849327087,0.47143328189849854,2.2137603759765625
4,28624,28621,0.009456861764192581,-0.0018045913893729448,1.0660334825515747,-5.707394123077393,-10.278610229492188,-0.1996263712644577,1.8783090114593506,3.953364610671997,0.1665506809949875,0.917628824710846,0.5127147436141968,2.2265524864196777
5,28634,28631,0.02031608484685421,-0.032808199524879456,1.053276538848877,-8.8161039352417,-11.094018936157227,-0.5720359086990356,1.8754758834838867,3.9534595012664795,0.16928689181804657,1.1726301908493042,0.41315698623657227,2.2418501377105713
6,28644,28641,0.0034230921883136034,-0.027157077565789223,0.9974406957626343,-8.1673583984375,-8.481380462646484,-1.3969885110855103,1.8716151714324951,3.9432060718536377,0.1717735379934311,1.4048941135406494,1.086474895477295,2.168250799179077
7,28654,28651,-0.049860674887895584,0.0329129695892334,1.0251938104629517,-8.94871711730957,-6.72342586517334,0.8581072688102722,1.8665653467178345,3.928311824798584,0.16505976021289825,1.6499334573745728,2.87959361076355,1.9202210903167725
8,28664,28661,0.013266762718558311,0.020499413833022118,1.1247107982635498,-16.072532653808594,-1.5187307596206665,2.255495309829712,1.8670099973678589,3.927058458328247,0.1783117651939392,1.6958224773406982,2.393920660018921,1.9817297458648682
9,28674,28671,0.01033006515353918,0.003634279826655984,1.1040465831756592,-32.87087631225586,8.726705551147461,1.247289776802063,1.8669178485870361,3.9259629249572754,0.18450766801834106,1.5720771551132202,1.9300711154937744,2.0252749919891357
10,28684,28681,-0.022294752299785614,0.025795720517635345,1.0820263624191284,-48.867313385009766,14.722367286682129,0.5322456955909729,1.8669339418411255,3.927049160003662,0.19011914730072021,1.4797617197036743,1.2739990949630737,2.1055140495300293
11,28694,28691,0.02136550098657608,-0.08316205441951752,0.9941413998603821,-56.48862075805664,13.301265716552734,-0.047630973160266876,1.8670220375061035,3.926008462905884,0.1939605176448822,1.217570424079895,0.5583907961845398,2.129826545715332
12,28704,28701,0.009079021401703358,-0.048869770020246506,0.9784300923347473,-54.048099517822266,10.532815933227539,-0.0177697092294693,1.8632912635803223,3.926802158355713,0.1979004293680191,1.581272006034851,-0.32025977969169617,2.3210573196411133
13,28714,28711,0.0306248776614666,-0.008692669682204723,0.9557381868362427,-42.736717224121094,8.223260879516602,-1.297134518623352,1.8638700246810913,3.927875280380249,0.20113767683506012,1.284582257270813,-1.326836347579956,2.3756442070007324
14,28724,28721,0.01402538362890482,-0.01146172359585762,0.9824760556221008,-22.978628158569336,7.917962074279785,-1.2890956401824951,1.8639702796936035,3.9311258792877197,0.20084843039512634,1.121662974357605,-2.4116759300231934,2.4822592735290527
15,28734,28731,-0.005097012966871262,-0.022481819614768028,0.9628723859786987,0.36397504806518555,6.260354995727539,-1.310319185256958,1.857330322265625,3.9320108890533447,0.2026364505290985,1.8876479864120483,-2.8593826293945312,2.573878765106201
16,28744,28741,0.010305232368409634,-0.02658728137612343,0.9923698902130127,23.92928695678711,6.983318328857422,-1.5906140804290771,1.8573460578918457,3.930473566055298,0.20730282366275787,1.6558037996292114,-2.7779722213745117,2.529916524887085
17,28754,28751,0.002203186973929405,-0.004289278294891119,0.942853569984436,45.706520080566406,12.767457008361816,-0.8166612386703491,1.8561679124832153,3.9283649921417236,0.21096545457839966,1.4182977676391602,-2.583975315093994,2.525270700454712
18,28764,28761,-0.012233764864504337,-0.01833776757121086,0.9600967764854431,52.514564514160156,20.4665584564209,-1.2499170303344727,1.8558030128479004,3.9263675212860107,0.21544359624385834,1.237351894378662,-1.8699558973312378,2.4531426429748535
19,28774,28771,-0.016515668481588364,-0.06977152079343796,0.9435988664627075,49.223148345947266,24.273204803466797,-2.136265516281128,1.8555816411972046,3.9254815578460693,0.2187274843454361,0.9376420378684998,-1.3525233268737793,2.4483823776245117
20,28784,28781,-0.028882676735520363,-0.03511231020092964,0.9353225231170654,35.81843566894531,24.52631378173828,-3.0532729625701904,1.8549972772598267,3.9269089698791504,0.22180266678333282,0.5204647183418274,-1.044756531715393,2.4827728271484375
21,28794,28791,0.05278734117746353,-0.06538417190313339,0.8725771903991699,20.651491165161133,22.384984970092773,-3.788682460784912,1.85425865650177,3.925982713699341,0.22387877106666565,0.20421554148197174,-0.6186397075653076,2.4528396129608154
22,28804,28801,0.13463753461837769,-0.12552809715270996,0.8267228007316589,5.140553951263428,18.086320877075195,-3.594935417175293,1.8547276258468628,3.922544002532959,0.22671331465244293,-0.009847195819020271,-0.3913206160068512,2.41262149810791
23,28814,28811,0.13546311855316162,-0.1401321291923523,0.861350953578949,-6.509516716003418,5.036624908447266,-3.7251267433166504,1.8606511354446411,3.9281375408172607,0.22932159900665283,-0.3442140221595764,-0.28967371582984924,2.3985373973846436
24,28824,28821,0.03599463775753975,-0.020603122189641,0.9062526822090149,-11.093276023864746,-4.847917079925537,-3.718376636505127,1.8601561784744263,3.928328037261963,0.23325568437576294,-0.4507601261138916,-0.3542478084564209,2.3684983253479004
25,28834,28831,0.004379082005470991,-0.035739149898290634,0.9029131531715393,-10.412884712219238,-9.811657905578613,-4.15041446685791,1.8615480661392212,3.9332945346832275,0.23587331175804138,-0.3996832072734833,-0.4099210202693939,2.3299615383148193
26,28844,28841,0.013046223670244217,-0.14463108777999878,0.9099435806274414,-3.4845433235168457,-14.801776885986328,-3.4364988803863525,1.8615398406982422,3.9336249828338623,0.23838086426258087,-0.24498681724071503,-0.5137379765510559,2.286223888397217
27,28854,28851,-0.009998596273362637,-0.13066697120666504,0.9245516657829285,3.778226852416992,-14.438322067260742,-3.4717814922332764,1.85995614528656,3.931962013244629,0.24089695513248444,-0.09803573787212372,-0.3616423010826111,2.251371383666992
28,28864,28861,-0.009546578861773014,-0.032219480723142624,0.9074448943138123,10.98498821258545,-9.592779159545898,-3.010289192199707,1.858120083808899,3.9307188987731934,0.24248719215393066,0.2369215041399002,-0.25470271706581116,2.204554557800293
29,28874,28871,0.009147647768259048,-0.00726948631927371,0.8947995901107788,13.661931037902832,-2.4077234268188477,-2.393895387649536,1.8588815927505493,3.930579900741577,0.24476556479930878,0.2483672797679901,-0.1201782375574112,2.180445909500122
30,28884,28881,-0.03274740278720856,-0.0024071834050118923,0.9076269865036011,13.867016792297363,4.740419864654541,-2.659759283065796,1.8575021028518677,3.929274797439575,0.24658674001693726,0.4493786096572876,0.20450079441070557,2.145810842514038
31,28894,28891,-0.12660428881645203,-0.04367513209581375,0.9169671535491943,7.976529598236084,11.923770904541016,-2.701812744140625,1.8577426671981812,3.9292213916778564,0.25234904885292053,0.2905677258968353,0.2744475305080414,2.1219828128814697
32,28904,28901,-0.03342806175351143,-0.016857819631695747,0.9142785668373108,-0.6513739228248596,15.538267135620117,-2.9395487308502197,1.8550920486450195,3.930358648300171,0.254325270652771,0.38573095202445984,0.38557326793670654,2.088503360748291
33,28914,28911,-0.009037795476615429,0.0025873123668134212,0.9124060273170471,-7.759423732757568,17.329811096191406,-2.5861618518829346,1.8544331789016724,3.929189920425415,0.2565196752548218,0.112657830119133,0.35515540838241577,2.061960220336914
34,28924,28921,0.06598527729511261,-0.02013452723622322,0.9078696966171265,-12.660809516906738,14.623887062072754,-2.388190746307373,1.853134036064148,3.931471586227417,0.26044055819511414,-0.022646360099315643,0.20589226484298706,2.0355067253112793
35,28934,28931,0.05613577738404274,0.02245287224650383,0.8650704622268677,-13.363080024719238,11.192063331604004,-2.624520778656006,1.8532551527023315,3.9315476417541504,0.26247626543045044,-0.29840555787086487,0.0611848384141922,2.008192777633667
36,28944,28941,0.08866118639707565,0.0315200537443161,0.8418656587600708,-8.721001625061035,6.5980424880981445,-2.1670455932617188,1.8529304265975952,3.931452751159668,0.2643756866455078,-0.5118043422698975,-0.08034925907850266,1.9789358377456665
37,28954,28951,0.09796882420778275,0.023641375824809074,0.8548085689544678,-1.6641532182693481,-2.9976227283477783,-1.5813651084899902,1.8537057638168335,3.9321839809417725,0.26808756589889526,-0.7152936458587646,-0.22054022550582886,1.9510101079940796
38,28964,28961,0.07573112845420837,-0.027443351224064827,0.8765383362770081,4.253172397613525,-2.7268002033233643,-1.024641513824463,1.853956699371338,3.932318687438965,0.26980599761009216,-0.7924672365188599,-0.2439979761838913,1.933212399482727
39,28974,28971,0.15588606894016266,-0.03472843021154404,0.8606811761856079,9.133973121643066,-6.122583866119385,-0.7117915153503418,1.8536187410354614,3.932596206665039,0.2714073061943054,-0.8216248154640198,-0.23875489830970764,1.9192452430725098
40,28984,28981,0.18261688947677612,-0.049463458359241486,0.8637237548828125,11.387284278869629,-8.939264297485352,-0.5721942782402039,1.8537706136703491,3.9340600967407227,0.27284854650497437,-0.7927371859550476,-0.29805195331573486,1.8990241289138794
41,28994,28991,0.1723763793706894,-0.09151556342840195,0.8674505352973938,11.154675483703613,-11.075156211853027,0.00553330359980464,1.852081298828125,3.935713291168213,0.2763400077819824,-0.6424195170402527,-0.30455484986305237,1.884043574333191
42,29004,29001,0.2335028350353241,-0.08235486596822739,0.8612163662910461,10.733251571655273,-9.501267433166504,-0.11539708822965622,1.8517062664031982,3.935164213180542,0.277844101190567,-0.5401700139045715,-0.07814833521842957,1.8965460062026978
43,29014,29011,0.1312175691127777,-0.17835316061973572,0.8889166116714478,8.405512809753418,-6.659334182739258,-0.17451146245002747,1.85127854347229,3.934857130050659,0.2790732979774475,-0.43999186158180237,0.0562816746532917,1.9001785516738892
44,29024,29021,0.05564529076218605,-0.19095079600811005,0.9082921743392944,5.859185218811035,-3.1796207427978516,0.002757319714874029,1.8508957624435425,3.935340404510498,0.28080758452415466,-0.44374388456344604,0.00696992315351963,1.8829803466796875
45,29034,29031,0.023314528167247772,-0.15845602750778198,0.9143069982528687,2.8834738731384277,0.5351940989494324,0.034432243555784225,1.8504139184951782,3.9357659816741943,0.28181102871894836,-0.412056565284729,0.0060271634720265865,1.8750654458999634
46,29044,29041,-0.011172228492796421,-0.03738683462142944,0.931977391242981,3.2074804306030273,1.8814588785171509,-0.11052872985601425,1.8494395017623901,3.9340505599975586,0.2828083634376526,-0.42518123984336853,0.12189511209726334,1.8836593627929688
47,29054,29051,-0.04669816419482231,-0.017468122765421867,0.9502719640731812,3.4071884155273438,2.076420307159424,-0.10285200923681259,1.8487151861190796,3.935516595840454,0.28280261158943176,-0.4602985978126526,0.08170630037784576,1.8718857765197754
48,29064,29061,0.05041378736495972,-0.04984418302774429,0.9502450227737427,5.67909049987793,0.4473517835140228,-0.10828651487827301,1.8477160930633545,3.9343671798706055,0.2835061848163605,-0.5075589418411255,0.04246596246957779,1.863423228263855
49,29074,29071,0.025113943964242935,-0.053650278598070145,0.946384847164154,7.363517761230469,-2.2688064575195312,1.1126114130020142,1.8463541269302368,3.933345317840576,0.28436535596847534,-0.5197567939758301,0.20649354159832,1.8774833679199219
50,29084,29081,-0.021659154444932938,0.004898075945675373,0.9196091890335083,8.276330947875977,-4.699750900268555,0.7587765455245972,1.8463183641433716,3.9325079917907715,0.28513848781585693,-0.4965803921222687,0.3806445598602295,1.897851824760437
51,29094,29091,-0.03897068277001381,0.07245872169733047,0.9202075600624084,7.936882019042969,-6.47109842300415,0.7069578170776367,1.8458659648895264,3.9342551231384277,0.2874787151813507,-0.43895989656448364,0.3393068313598633,1.8903449773788452
52,29104,29101,-0.023346183821558952,0.026816725730895996,0.930526852607727,6.235081672668457,-7.770713806152344,0.7349514365196228,1.8453108072280884,3.9341201782226562,0.2881121337413788,-0.35463348031044006,0.43726369738578796,1.9007900953292847
53,29114,29111,-0.06086047738790512,-0.03481962904334068,0.9753905534744263,4.8249311447143555,-7.21513032913208,0.5695083737373352,1.8456108570098877,3.9337317943573,0.2887076437473297,-0.3200681507587433,0.5797325372695923,1.9144521951675415
54,29124,29121,-0.125453382730484,-0.057900480926036835,1.0159242153167725,3.856029748916626,-5.395127296447754,0.40633857250213623,1.8448485136032104,3.935473918914795,0.28722527623176575,-0.20900209248065948,0.5503567457199097,1.9123698472976685
55,29134,29131,-0.1370181143283844,-0.07897084206342697,1.0012991428375244,1.0345607995986938,-3.848696708679199,0.330785870552063,1.8451670408248901,3.9349308013916016,0.2876596748828888,-0.181667298078537,0.5821574330329895,1.9111882448196411
56,29144,29141,-0.015126310288906097,-0.021101662889122963,0.9827220439910889,-0.19528000056743622,-1.5151386260986328,0.6181516647338867,1.8459380865097046,3.9366207122802734,0.2880552411079407,-0.27430295944213867,0.4922086298465729,1.895691156387329
57,29154,29151,-0.055573102086782455,0.06432488560676575,0.9744281768798828,-1.1070799827575684,-0.14101272821426392,0.9719616770744324,1.845294713973999,3.936707019805908,0.28831732273101807,-0.14857175946235657,0.5481376051902771,1.9153953790664673
58,29164,29161,-0.000520483881700784,-0.016363445669412613,0.9752921462059021,0.1819467693567276,-0.795603334903717,0.6249980926513672,1.8455736637115479,3.9376277923583984,0.28863996267318726,-0.21716934442520142,0.43960341811180115,1.910665512084961
59,29174,29171,0.04730957746505737,-0.001030042883940041,1.0046429634094238,3.75972843170166,-2.646515369415283,1.0952534675598145,1.8443154096603394,3.9370126724243164,0.2890273332595825,-0.11113660782575607,0.5121476054191589,1.9335660934448242
60,29184,29181,0.01097985077649355,0.0520944781601429,1.0391244888305664,5.012317180633545,-3.3456954956054688,1.3296211957931519,1.8436821699142456,3.937422037124634,0.2893558740615845,-0.056056901812553406,0.5595174431800842,1.9502027034759521
61,29194,29191,0.005591074004769325,-0.02758512832224369,0.986922562122345,7.513403415679932,-4.113608360290527,1.0692087411880493,1.843294620513916,3.9376089572906494,0.2902930974960327,0.020275207236409187,0.6349744200706482,1.966762661933899
62,29204,29201,-0.035654086619615555,-0.02909223921597004,0.9782372713088989,6.515321731567383,-2.9705188274383545,1.327686071395874,1.84293794631958,3.9377307891845703,0.29067882895469666,0.09413933753967285,0.7419289350509644,1.9798415899276733
63,29214,29211,-0.029626445844769478,-0.012973430566489697,0.9320602416992188,4.314326763153076,-0.4665265381336212,1.368585467338562,1.8420954942703247,3.9367923736572266,0.29102984070777893,0.12828153371810913,0.8205577731132507,1.9927148818969727
64,29224,29221,-0.026460619643330574,0.010305897332727909,0.9907522201538086,1.1706504821777344,3.2181506156921387,1.3126740455627441,1.8426876068115234,3.937645435333252,0.2924366295337677,0.040386930108070374,0.8448166251182556,1.9974364042282104
65,29234,29231,0.0018020644783973694,-0.10698013752698898,1.0010498762130737,-1.472333312034607,11.44299602508545,1.5364495515823364,1.8411822319030762,3.9362943172454834,0.2927747070789337,0.04528070241212845,0.8154080510139465,2.0162854194641113
66,29244,29241,-0.022329818457365036,-0.028248600661754608,1.022230625152588,-3.3045616149902344,19.057546615600586,0.9395199418067932,1.8422117233276367,3.9364399909973145,0.293169230222702,-0.18365003168582916,0.8249611258506775,2.0235066413879395
67,29254,29251,-0.0024909863714128733,-0.07363415509462357,1.00337553024292,-3.6009035110473633,24.12495994567871,1.0858261585235596,1.84100341796875,3.9374537467956543,0.29314643144607544,-0.2431575208902359,0.7364887595176697,2.0478522777557373
68,29264,29261,-0.01265164278447628,-0.03481495380401611,0.9917764663696289,-2.5656392574310303,24.584503173828125,0.32127806544303894,1.841770887374878,3.9372594356536865,0.2935188114643097,-0.5536477565765381,0.7387215495109558,2.052741050720215
69,29274,29271,0.029426896944642067,-0.012114042416214943,0.9380090236663818,-1.1580684185028076,22.753192901611328,0.6389042735099792,1.8421133756637573,3.9371747970581055,0.293874055147171,-0.8894147276878357,0.7455490231513977,2.0501515865325928
70,29284,29281,0.06005585193634033,-0.07166578620672226,0.9423864483833313,0.4818188548088074,16.531435012817383,0.8520842790603638,1.8416211605072021,3.9354188442230225,0.2944332957267761,-1.119666576385498,0.7569761276245117,2.06178617477417
71,29294,29291,0.03731993958353996,-0.17685472965240479,0.9866003394126892,1.7643190622329712,8.405030250549316,0.910127580165863,1.8379263877868652,3.9338207244873047,0.2948792278766632,-1.0798892974853516,0.7853373885154724,2.099872350692749
72,29304,29301,0.03389084339141846,-0.24136056005954742,0.9938949942588806,2.670473575592041,1.4502607583999634,0.6858155727386475,1.8372986316680908,3.93412446975708,0.29516106843948364,-1.135693073272705,0.7655717134475708,2.1096584796905518
73,29314,29311,-0.00575842522084713,-0.14988672733306885,1.0213032960891724,3.326460599899292,-1.542293906211853,1.1215330362319946,1.8357257843017578,3.931914806365967,0.2954285144805908,-1.1411266326904297,0.8499956130981445,2.121263027191162
74,29324,29321,-0.014147808775305748,0.03614269196987152,1.0204029083251953,1.8471430540084839,-0.8382653594017029,1.1691207885742188,1.836580514907837,3.930893659591675,0.2943967878818512,-1.2155247926712036,0.9213411211967468,2.1272470951080322
75,29334,29331,-0.008371955715119839,0.04405667260289192,1.0013614892959595,-1.3563743829727173,0.298396497964859,0.7563791275024414,1.8364944458007812,3.9316704273223877,0.2946162223815918,-1.2103787660598755,0.8667299747467041,2.131477117538452
76,29344,29341,0.0385228656232357,-0.009308654814958572,1.0233463048934937,-4.971084117889404,3.1008307933807373,0.7211599349975586,1.836372971534729,3.9324207305908203,0.2948450446128845,-1.2548881769180298,0.8382230997085571,2.1373085975646973
77,29354,29351,0.02202499844133854,-0.04239216074347496,1.0095025300979614,-5.837669849395752,4.857443332672119,0.2675975561141968,1.8359500169754028,3.9327306747436523,0.2961275577545166,-1.309230923652649,0.7716598510742188,2.14194917678833
78,29364,29361,-0.011607030406594276,0.02809017151594162,1.0034949779510498,-6.8127336502075195,7.313441753387451,0.08391522616147995,1.8353108167648315,3.9328949451446533,0.2964625954627991,-1.3922621011734009,0.6792775392532349,2.1377904415130615
79,29374,29371,0.009874158538877964,0.04261999577283859,0.9795784950256348,-5.788126468658447,6.700402736663818,0.09187202900648117,1.8342432975769043,3.933137893676758,0.2968289256095886,-1.4167338609695435,0.5873358249664307,2.140770196914673
80,29384,29381,-0.02093692496418953,0.013655740767717361,1.014472246170044,-3.2536959648132324,4.393840789794922,0.5528536438941956,1.834420084953308,3.9330379962921143,0.296664834022522,-1.5179049968719482,0.51902174949646,2.1366424560546875
81,29394,29391,-0.012138131074607372,-0.019318196922540665,1.0082151889801025,-0.5450061559677124,5.236734867095947,0.3465297222137451,1.8330601453781128,3.931861400604248,0.2970516085624695,-1.4252185821533203,0.5824316740036011,2.1724274158477783
82,29404,29401,-0.0046339682303369045,-0.015288963913917542,1.0061005353927612,2.1073386669158936,3.419719934463501,-0.12914909422397614,1.833526372909546,3.932577133178711,0.2973916828632355,-1.4861499071121216,0.605392575263977,2.177086353302002
83,29414,29411,0.004339731298387051,-0.003170927055180073,1.0085256099700928,3.6634700298309326,1.8079923391342163,0.0760861411690712,1.8336353302001953,3.9325621128082275,0.2977220416069031,-1.5130279064178467,0.6627093553543091,2.1813406944274902
84,29424,29421,0.008175916969776154,-0.015583359636366367,1.0042704343795776,2.211447238922119,1.5675089359283447,-0.21651870012283325,1.8337854146957397,3.9322359561920166,0.2980969548225403,-1.523579716682434,0.7265259623527527,2.188058614730835
85,29434,29431,-0.01133996807038784,-0.027611086145043373,0.9786227345466614,-0.5957590341567993,-0.34210455417633057,-0.5665605664253235,1.8335435390472412,3.931783437728882,0.29840555787086487,-1.5187748670578003,0.7427900433540344,2.187270164489746
86,29444,29441,-0.023864399641752243,-0.03784679248929024,1.029984712600708,-1.0563230514526367,-3.8528285026550293,0.1640366017818451,1.8334275484085083,3.9311206340789795,0.29872938990592957,-1.4976023435592651,0.7204245924949646,2.1835248470306396
87,29454,29451,0.007398872170597315,-0.09219875931739807,1.0007034540176392,-4.920788764953613,5.75016975402832,-0.21627140045166016,1.8339520692825317,3.9313695430755615,0.29615071415901184,-1.5400593280792236,0.6702526211738586,2.1723790168762207
88,29464,29461,0.054720502346754074,-0.0021552531979978085,0.9829187989234924,-7.060357093811035,2.9105374813079834,-0.4760228395462036,1.8333640098571777,3.931687116622925,0.29634377360343933,-1.5674232244491577,0.5771062970161438,2.1621971130371094
89,29474,29471,-0.009168882854282856,-0.027254696935415268,0.9877121448516846,-8.931793212890625,1.7516207695007324,-0.7361862063407898,1.8334709405899048,3.931523323059082,0.29652491211891174,-1.566243290901184,0.5181755423545837,2.164766788482666
90,29484,29481,-0.007687066216021776,-0.014475972391664982,1.0063185691833496,-8.399503707885742,-0.4053383469581604,-0.45440301299095154,1.831470251083374,3.9310057163238525,0.2951394021511078,-1.539731740951538,0.36961936950683594,2.148543119430542
91,29494,29491,0.021449100226163864,-0.03788473457098007,0.98557448387146,-7.293572425842285,-2.0263001918792725,-0.41628187894821167,1.8327401876449585,3.9305577278137207,0.29514560103416443,-1.6647580862045288,0.31001195311546326,2.140410900115967
92,29504,29501,0.0071588302962481976,-0.13299308717250824,0.999737560749054,-4.780421733856201,-3.310304641723633,-0.5031198859214783,1.8330779075622559,3.930476665496826,0.2951791286468506,-1.654378890991211,0.1981421262025833,2.124659299850464
93,29514,29511,-0.008265698328614235,-0.15929344296455383,1.006243348121643,-1.2569797039031982,-4.453102111816406,-0.3311927020549774,1.8333889245986938,3.930363893508911,0.2952471375465393,-1.5905042886734009,0.14681585133075714,2.116056203842163
94,29524,29521,-0.003082138719037175,-0.039474308490753174,1.017093300819397,1.135356068611145,-5.202413082122803,-0.5687986612319946,1.834700107574463,3.9317455291748047,0.2934032082557678,-1.6096994876861572,0.15167325735092163,2.109711170196533
95,29534,29531,0.03904370591044426,-0.030699923634529114,0.9993573427200317,1.2421627044677734,-6.42550802230835,-0.7434015274047852,1.8352280855178833,3.931459426879883,0.2933046817779541,-1.5982376337051392,0.2565665543079376,2.123173952102661
96,29544,29541,0.06196442246437073,-0.04048922657966614,1.0291078090667725,0.9241765737533569,-6.801349639892578,-1.3560762405395508,1.8344531059265137,3.9314651489257812,0.2933807969093323,-1.4263044595718384,0.2632526159286499,2.1209895610809326
97,29554,29551,0.03534220904111862,-0.041607294231653214,1.0182443857192993,-0.4109688103199005,-7.409103870391846,-1.3207484483718872,1.8333433866500854,3.930795192718506,0.292621910572052,-1.238437533378601,0.2637381851673126,2.111130475997925
98,29564,29561,-0.022815652191638947,0.0022043888457119465,1.020687222480774,-1.9696437120437622,-4.732161521911621,-1.1824252605438232,1.8338698148727417,3.9294087886810303,0.292537122964859,-1.2258508205413818,0.24475792050361633,2.091827630996704
99,29574,29571,-0.004884801339358091,0.002337800804525614,1.0167607069015503,-2.4125683307647705,-0.7298635840415955,-1.4521797895431519,1.8338261842727661,3.9293954372406006,0.2925286889076233,-1.2096198797225952,0.20170727372169495,2.0720832347869873
100,29584,29581,0.002702453639358282,0.01609473116695881,1.0160763263702393,-1.7159490585327148,0.4838199019432068,-0.6250696778297424,1.8347156047821045,3.9283559322357178,0.2935224771499634,-1.3990558385849,0.1553669273853302,2.0506999492645264
101,29594,29591,-0.006968676578253508,0.07839353382587433,1.0996758937835693,-2.291247606277466,2.870992660522461,-1.1298832893371582,1.8348482847213745,3.928475856781006,0.2936437427997589,-1.3445106744766235,0.12345819920301437,2.0429370403289795
102,29604,29601,-0.01121917087584734,0.09594400972127914,1.0619091987609863,-1.3897643089294434,0.6536194086074829,-1.5389149188995361,1.8352104425430298,3.928292989730835,0.29374465346336365,-1.3624341487884521,0.10245545208454132,2.0291762351989746
103,29614,29611,0.0008006260613910854,-0.01363873016089201,1.002878189086914,-1.449966549873352,-3.0048913955688477,-2.157827138900757,1.836427092552185,3.9263134002685547,0.29398253560066223,-1.3456841707229614,0.22885838150978088,2.0386221408843994
104,29624,29621,-0.018911628052592278,-0.021157216280698776,1.0122556686401367,-0.9953705668449402,-6.313798904418945,-2.236410617828369,1.8389400243759155,3.9275434017181396,0.2976357340812683,-1.3588531017303467,0.10900138318538666,1.9978092908859253
105,29634,29631,-0.023563720285892487,-0.11247812956571579,1.0482404232025146,0.30391693115234375,-6.936248779296875,-2.8288745880126953,1.8383034467697144,3.926109790802002,0.29770752787590027,-1.220844030380249,0.15605369210243225,1.9888216257095337
106,29644,29641,0.013671819120645523,-0.09972994774580002,1.025815486907959,-0.09738186001777649,-13.547052383422852,-2.6006381511688232,1.8377983570098877,3.9262187480926514,0.2982664108276367,-1.0174906253814697,0.15162383019924164,1.9583752155303955
107,29654,29651,-0.019321037456393242,-0.15490655601024628,1.0511984825134277,-0.2544380724430084,-10.227897644042969,-3.2471461296081543,1.8393089771270752,3.925915002822876,0.30085089802742004,-0.923021137714386,0.15260040760040283,1.9271349906921387
108,29664,29661,-0.03775652125477791,-0.11989875882863998,1.0223205089569092,-2.608353614807129,-10.195050239562988,-3.4669363498687744,1.8379510641098022,3.923163414001465,0.3014526069164276,-0.8073985576629639,0.1270291656255722,1.8919569253921509
109,29674,29671,0.016421640291810036,-0.03931275010108948,1.0124393701553345,-4.506147384643555,-5.585679054260254,-3.6773862838745117,1.838463544845581,3.9232876300811768,0.3021587133407593,-0.7829654812812805,0.05000103637576103,1.8519487380981445
110,29684,29681,0.05763059854507446,-0.06332526355981827,1.0006535053253174,-5.260799407958984,-5.317028522491455,-3.828138589859009,1.8391430377960205,3.9231836795806885,0.30226439237594604,-0.7321213483810425,-0.0476444736123085,1.8056917190551758
111,29694,29691,-0.0016662842826917768,-0.10201220214366913,1.0056452751159668,-5.807176113128662,-5.45072603225708,-3.657365560531616,1.8394869565963745,3.921924114227295,0.3030245304107666,-0.6541564464569092,0.0037878011353313923,1.7787684202194214
112,29704,29701,-0.03632284700870514,-0.03186525031924248,1.004124641418457,-4.492930889129639,-6.201391696929932,-3.0620906352996826,1.8406890630722046,3.922252893447876,0.303704172372818,-0.6280322074890137,-0.09233815222978592,1.7395188808441162
113,29714,29711,-0.06865964084863663,0.13986876606941223,1.0000951290130615,-3.058959722518921,-3.124159812927246,-3.240774393081665,1.8416683673858643,3.92258620262146,0.3026411831378937,-0.5866758823394775,-0.15654662251472473,1.7037121057510376
114,29724,29721,-0.04130566865205765,0.14222818613052368,0.9828231334686279,2.278129816055298,-2.155381202697754,-3.4066827297210693,1.8433364629745483,3.9226248264312744,0.30321815609931946,-0.5868018865585327,-0.1750357449054718,1.6689003705978394
115,29734,29731,-0.025051556527614594,0.03614332154393196,0.9812549352645874,4.880493640899658,-1.6048920154571533,-3.757343053817749,1.844752550125122,3.9216113090515137,0.30387428402900696,-0.5410974025726318,-0.04470803216099739,1.6431784629821777
116,29744,29741,-0.020856065675616264,-0.15087127685546875,0.9755008220672607,6.907503128051758,-0.9441190958023071,-3.7692668437957764,1.8455276489257812,3.9219157695770264,0.30448198318481445,-0.5044248700141907,0.04897967353463173,1.606317162513733
117,29754,29751,-0.00907436478883028,0.01985807716846466,0.9958470463752747,6.204486846923828,-0.8767922520637512,-3.0149030685424805,1.8462731838226318,3.920725107192993,0.3043302297592163,-0.48883411288261414,0.14068688452243805,1.5743753910064697
118,29764,29761,-0.03364691510796547,0.05393880978226662,0.9951217770576477,2.329200029373169,-1.8667412996292114,-3.083238363265991,1.8472418785095215,3.921391248703003,0.30492398142814636,-0.4525790810585022,0.12727759778499603,1.538722276687622
119,29774,29771,-0.0578436404466629,0.04979254677891731,0.9764489531517029,-2.130892515182495,-3.161790609359741,-3.185877799987793,1.8470743894577026,3.9209234714508057,0.30549994111061096,-0.3149421811103821,0.1301138997077942,1.4997005462646484
120,29784,29781,-0.016392957419157028,-0.0031029025558382273,0.946514904499054,-5.803957462310791,-2.8564600944519043,-2.9673352241516113,1.8499492406845093,3.9208672046661377,0.30457112193107605,-0.4848172664642334,0.05716782063245773,1.4723316431045532
121,29794,29791,-0.025319965556263924,-0.002975147683173418,0.9125022292137146,-6.271539688110352,-3.6669671535491943,-3.3808703422546387,1.8509809970855713,3.9208524227142334,0.30489474534988403,-0.5017414093017578,-0.05647538974881172,1.4373751878738403
122,29804,29801,-0.027422966435551643,0.05463497340679169,0.9339651465415955,-5.466523170471191,-4.334387302398682,-3.2939717769622803,1.8524019718170166,3.9195737838745117,0.3051590621471405,-0.5062555074691772,-0.025150703266263008,1.405369520187378
123,29814,29811,0.009777113795280457,-0.01611786149442196,0.9662132263183594,-3.9429070949554443,-1.8343769311904907,-3.4267451763153076,1.8527488708496094,3.9204227924346924,0.30733081698417664,-0.3976443409919739,-0.12014666199684143,1.3701865673065186
124,29824,29821,-0.010344126261770725,0.012589204125106335,0.9794425964355469,-0.2730792462825775,-6.1148786544799805,-2.9922680854797363,1.8533858060836792,3.9208014011383057,0.30766668915748596,-0.31235313415527344,-0.1735888570547104,1.3394328355789185
125,29834,29831,-0.05031208693981171,-0.0935644656419754,1.0185645818710327,2.0601136684417725,-6.234935760498047,-2.927475690841675,1.8533962965011597,3.9191389083862305,0.3080001771450043,-0.16642847657203674,-0.09354696422815323,1.3093892335891724
126,29844,29841,-0.04078829288482666,-0.17780572175979614,1.0144388675689697,2.39740252494812,-3.886314630508423,-2.915480136871338,1.8550413846969604,3.9189958572387695,0.30818966031074524,-0.16876550018787384,-0.061485517770051956,1.286840558052063
127,29854,29851,-0.053696636110544205,-0.1160980612039566,1.0406205654144287,2.034393310546875,-1.8707988262176514,-3.1799416542053223,1.8556349277496338,3.9187886714935303,0.3091146647930145,-0.041625943034887314,-0.02814600057899952,1.2541229724884033
128,29864,29861,-0.03802022337913513,-0.03609764203429222,1.0043628215789795,0.3278924226760864,0.11667250096797943,-2.9934518337249756,1.8574475049972534,3.9186511039733887,0.3093816936016083,-0.09692636877298355,-0.004252881743013859,1.2272366285324097
129,29874,29871,-0.0013425612123683095,-0.017438556998968124,0.9780349731445312,-1.4021564722061157,1.2894179821014404,-2.883403778076172,1.8582111597061157,3.918447494506836,0.3097617030143738,-0.0734938234090805,-0.02859402261674404,1.196953296661377
130,29884,29881,0.05419296771287918,-0.0003607540566008538,0.9745478630065918,-3.242321014404297,0.073478564620018,-2.4167418479919434,1.8580951690673828,3.9182629585266113,0.31048887968063354,0.029339956119656563,-0.07427287101745605,1.1684799194335938
131,29894,29891,0.011739391833543777,-0.024815993383526802,0.9768291115760803,-4.211520671844482,-0.26653817296028137,-2.419442653656006,1.8595075607299805,3.918637990951538,0.310846745967865,-0.023997271433472633,-0.15468813478946686,1.1466087102890015
132,29904,29901,-0.024237167090177536,-0.026276839897036552,0.9856929779052734,-3.4439680576324463,-1.2395683526992798,-2.196368455886841,1.861789584159851,3.9179279804229736,0.3110729157924652,-0.13734018802642822,-0.14959761500358582,1.1256334781646729
133,29914,29911,0.04094080626964569,-0.09988943487405777,0.9682421088218689,-1.1338064670562744,-0.6885920763015747,-2.130582094192505,1.8617284297943115,3.9182753562927246,0.31099051237106323,-0.028827115893363953,-0.20549187064170837,1.0999020338058472
134,29924,29921,0.030296815559267998,-0.11210671067237854,0.9614957571029663,1.3529763221740723,-0.48845863342285156,-1.7913771867752075,1.8626527786254883,3.9179253578186035,0.3112713098526001,-0.008413871750235558,-0.21352194249629974,1.0761675834655762
135,29934,29931,-0.0068981400690972805,-0.047561515122652054,0.9421933889389038,4.536578178405762,1.1078693866729736,-1.187646746635437,1.8629027605056763,3.9175989627838135,0.3115829527378082,0.06824496388435364,-0.17115426063537598,1.0525497198104858
136,29944,29941,0.022056039422750473,-0.03907349333167076,0.9390417337417603,5.079257965087891,4.0201802253723145,-1.1625537872314453,1.8629496097564697,3.917412281036377,0.3117765784263611,0.04262896254658699,-0.16697974503040314,1.044382095336914
137,29954,29951,-0.047680094838142395,0.012314151972532272,1.0179015398025513,5.767972946166992,6.238156795501709,-1.0678777694702148,1.8654718399047852,3.9169046878814697,0.3118869364261627,-0.17489853501319885,-0.0788121446967125,1.0399881601333618
138,29964,29961,-0.054517507553100586,-0.0229188259691,1.015796422958374,6.270188808441162,7.020902156829834,-1.434263825416565,1.8657282590866089,3.9167473316192627,0.31204524636268616,-0.17615056037902832,0.017461391165852547,1.0059791803359985
139,29974,29971,-0.06006006523966789,-0.03592943027615547,1.0374948978424072,4.9433207511901855,6.1288676261901855,-1.5446069240570068,1.8633005619049072,3.9128918647766113,0.3121713697910309,-0.14647597074508667,0.10435120761394501,0.9838767647743225
140,29984,29981,-0.0872911661863327,-0.03126354143023491,1.0359991788864136,4.670685768127441,1.743118166923523,-1.1711411476135254,1.8639322519302368,3.912242889404297,0.3111315667629242,-0.27474021911621094,0.1774250864982605,0.9703919291496277
141,29994,29991,-0.02735278010368347,-0.03190315142273903,1.0056077241897583,2.8026742935180664,-3.3317747116088867,-0.9068008065223694,1.8635098934173584,3.9121625423431396,0.31133463978767395,-0.17505401372909546,0.22948847711086273,0.9555054306983948
142,30004,30001,-0.07099179923534393,0.06538119912147522,1.001345157623291,-0.553447961807251,-7.530476093292236,-0.429057240486145,1.8627907037734985,3.9119503498077393,0.31156307458877563,0.02473059669137001,0.2553108334541321,0.9397357106208801
143,30014,30011,-0.06234174594283104,0.006495135836303234,1.0003693103790283,-3.197943925857544,-8.906877517700195,-0.27805763483047485,1.862332820892334,3.913571357727051,0.3142630159854889,0.16338695585727692,0.12622715532779694,0.9465906620025635
144,30024,30021,-0.02800462394952774,0.009934121742844582,1.0278016328811646,-5.437769412994385,-7.719604015350342,-0.43869346380233765,1.8635823726654053,3.913804292678833,0.314567506313324,0.23346348106861115,0.05246436968445778,0.9448986649513245
145,30034,30031,-0.0508667454123497,0.021027838811278343,1.0653941631317139,-4.127832889556885,-5.52346658706665,-0.7703848481178284,1.8651068210601807,3.9130804538726807,0.31485897302627563,0.24369601905345917,0.04575309529900551,0.9396088123321533
146,30044,30041,-0.026492467150092125,-0.010559188202023506,1.017944574356079,-3.178631067276001,-0.20060016214847565,-1.514768362045288,1.865529179573059,3.9133188724517822,0.31480902433395386,0.2991928160190582,-0.022982684895396233,0.9315679669380188
147,30054,30051,0.0205797478556633,-0.015345822088420391,0.9720550775527954,-2.1519789695739746,7.106086254119873,-1.8190958499908447,1.867200255393982,3.9131481647491455,0.3151279091835022,0.17159216105937958,-0.07599671185016632,0.9141607880592346
148,30064,30061,-0.015305111184716225,0.06854142248630524,0.9484196901321411,-0.27077242732048035,9.96541690826416,-2.111522912979126,1.8675481081008911,3.9135079383850098,0.31552621722221375,0.12253563106060028,-0.09595644474029541,0.8940860629081726
149,30074,30071,-0.0051831346936523914,-0.10268083214759827,0.9842164516448975,0.2697274088859558,11.738036155700684,-1.9452184438705444,1.8683595657348633,3.913581371307373,0.3158593773841858,-0.0017464656848460436,-0.09875879436731339,0.8725364804267883
150,30084,30081,0.03064579889178276,-0.16222500801086426,0.9583373069763184,1.2825114727020264,10.118746757507324,-2.1188275814056396,1.8684026002883911,3.913388729095459,0.3125826120376587,-0.134321928024292,-0.09509297460317612,0.8505843281745911
151,30094,30091,0.005641486961394548,-0.24398763477802277,0.975113570690155,3.053156614303589,7.431414604187012,-1.5722483396530151,1.8690811395645142,3.912963390350342,0.31271177530288696,-0.23746436834335327,-0.05152597278356552,0.8279725909233093
152,30104,30101,-0.0170122142881155,-0.028885504230856895,0.999062716960907,4.350565433502197,4.855584144592285,-1.2337168455123901,1.8702237606048584,3.9129276275634766,0.31281778216362,-0.20385722815990448,-0.030399536713957787,0.8249779343605042
153,30114,30111,-0.022075315937399864,-0.12356148660182953,0.9834665060043335,3.993795871734619,1.464046835899353,-1.0773905515670776,1.8697946071624756,3.912602663040161,0.31540852785110474,-0.21236765384674072,0.03802838176488876,0.8048977851867676
154,30124,30121,-0.01713641546666622,-0.06926172226667404,0.9822002053260803,1.7027302980422974,-0.8652399778366089,-0.08848171681165695,1.870022177696228,3.9115872383117676,0.31561851501464844,-0.16322851181030273,0.10235019773244858,0.7810641527175903
155,30134,30131,0.012621504254639149,-0.07595498859882355,0.9511844515800476,-2.2167444229125977,-2.2041826248168945,-0.4561880826950073,1.8700605630874634,3.9119131565093994,0.31582868099212646,-0.082473985850811,0.12789157032966614,0.7766637802124023
156,30144,30141,0.00803411565721035,-0.06489565968513489,0.957200288772583,-5.839175701141357,0.12290000170469284,0.010874127969145775,1.8697295188903809,3.910959482192993,0.3153306245803833,0.005291111767292023,0.16101263463497162,0.7698609232902527
157,30154,30151,0.010511224158108234,-0.13760921359062195,1.0083523988723755,-8.355109214782715,4.31353235244751,0.13910196721553802,1.8707935810089111,3.9104065895080566,0.31534603238105774,-0.09709209948778152,0.12406068295240402,0.7698850631713867
158,30164,30161,-0.004570093937218189,-0.07492468506097794,1.014748215675354,-8.724651336669922,8.78617000579834,-0.8484269380569458,1.8703488111495972,3.9105687141418457,0.31543684005737305,-0.10309453308582306,-0.032891448587179184,0.7807304263114929
159,30174,30171,0.015491596423089504,-0.11248276382684708,1.0219272375106812,-5.350932598114014,10.034004211425781,-0.9240356087684631,1.8716109991073608,3.9094061851501465,0.31544947624206543,-0.30945903062820435,-0.024168413132429123,0.7713243961334229
160,30184,30181,-0.0027413542848080397,-0.08709428459405899,1.019997000694275,-3.1828103065490723,9.696447372436523,-1.193084716796875,1.871437907218933,3.90952467918396,0.31399232149124146,-0.3666764795780182,-0.1311812847852707,0.7660446166992188
161,30194,30191,0.04503153637051582,-0.07082381099462509,0.9457523822784424,-0.9062283039093018,12.648116111755371,-1.9771772623062134,1.8706843852996826,3.9101722240448,0.3141345679759979,-0.27885082364082336,-0.1913680136203766,0.7532316446304321
162,30204,30201,0.08009415119886398,0.050356052815914154,0.9253391027450562,2.8045260906219482,5.704642295837402,-1.3896478414535522,1.8726069927215576,3.9094977378845215,0.31402158737182617,-0.5208503603935242,-0.20165066421031952,0.7310882806777954
163,30214,30211,0.04920925572514534,0.10352860391139984,0.9954219460487366,6.3395867347717285,1.867666482925415,-1.1722221374511719,1.8733282089233398,3.9088070392608643,0.3118540644645691,-0.555061399936676,-0.1630479246377945,0.7075982093811035
164,30224,30221,0.06527306884527206,0.08460785448551178,0.9952853918075562,7.202057361602783,0.195502370595932,-0.2753791809082031,1.8737698793411255,3.908555269241333,0.31163278222084045,-0.5612147450447083,-0.0804685428738594,0.6937729120254517
165,30234,30231,0.005810755304992199,0.0018081951420754194,0.9894328713417053,4.728744029998779,-2.5624239444732666,0.2894197702407837,1.875050663948059,3.9082343578338623,0.31130069494247437,-0.6535965204238892,0.019928516820073128,0.6974125504493713
166,30244,30241,0.023767337203025818,-0.0479244664311409,1.0062185525894165,0.467754065990448,-0.0993388295173645,0.5483500957489014,1.8731340169906616,3.9088804721832275,0.31000927090644836,-0.5385660529136658,0.08063763380050659,0.7076284289360046
167,30254,30251,0.05140450596809387,-0.09579933434724808,0.9913349747657776,-4.69307804107666,1.3266648054122925,-0.04084980487823486,1.87446928024292,3.908323287963867,0.30962955951690674,-0.6182621717453003,0.0665498599410057,0.7075631618499756
168,30264,30261,0.016288049519062042,-0.21965359151363373,1.0641453266143799,-8.578763961791992,2.772308588027954,-0.09811964631080627,1.8750417232513428,3.9089090824127197,0.3093090355396271,-0.6215116381645203,-0.021647252142429352,0.7045121788978577
169,30274,30271,0.0036411762703210115,-0.18148726224899292,1.05356764793396,-10.02336311340332,4.992425918579102,-0.20006921887397766,1.8770205974578857,3.908475399017334,0.3060017228126526,-0.6738709211349487,-0.09669479727745056,0.6985026001930237
170,30284,30281,-0.051419857889413834,-0.09437734633684158,1.0630948543548584,-6.690401077270508,3.7417097091674805,-0.47620195150375366,1.8774147033691406,3.909027338027954,0.3055981993675232,-0.6784764528274536,-0.27071505784988403,0.6945379972457886
171,30294,30291,-0.011020812205970287,-0.19719666242599487,1.044723391532898,0.04367683827877045,0.9769856929779053,-0.02457280643284321,1.8789564371109009,3.9082345962524414,0.3051397502422333,-0.8057858943939209,-0.29708951711654663,0.6944875717163086
172,30304,30301,-0.03924873471260071,-0.05525330454111099,1.0684189796447754,5.743039608001709,0.9841784238815308,0.34319204092025757,1.8793267011642456,3.909101963043213,0.3049418032169342,-0.7306592464447021,-0.30066388845443726,0.7034767866134644
173,30314,30311,0.038328900933265686,0.06733911484479904,0.9858983755111694,9.480457305908203,-3.9177615642547607,1.422638177871704,1.8804574012756348,3.908506393432617,0.3029716908931732,-0.7149465680122375,-0.2078644186258316,0.7068361043930054
174,30324,30321,-0.011536420322954655,0.005746685899794102,1.0348795652389526,7.915168285369873,-4.951635360717773,1.4630330801010132,1.8823649883270264,3.9079103469848633,0.3024965822696686,-0.8016747832298279,-0.06222482770681381,0.7312750816345215
175,30334,30331,-0.013368976302444935,0.019681550562381744,1.03605318069458,3.125622272491455,-4.601195812225342,1.054282784461975,1.8829833269119263,3.9081907272338867,0.3021828532218933,-0.7105420231819153,0.051200442016124725,0.7490383386611938
176,30344,30341,0.011901007033884525,-0.01691511645913124,1.0496981143951416,-3.5435597896575928,-3.7321362495422363,0.8813714981079102,1.8826581239700317,3.908008337020874,0.3051416277885437,-0.5408693552017212,0.07914647459983826,0.7557461261749268
177,30354,30351,0.014392445795238018,-0.07630188763141632,1.0407154560089111,-7.598311424255371,-1.236575961112976,0.4811306893825531,1.8825984001159668,3.908252000808716,0.3049149811267853,-0.7084232568740845,0.0028080737683922052,0.7781456112861633
178,30364,30361,0.004063763190060854,0.06371968984603882,1.013688564300537,-10.637337684631348,0.42069295048713684,0.27169269323349,1.8834866285324097,3.9089109897613525,0.30490127205848694,-0.6650401949882507,-0.14184173941612244,0.7666499614715576
179,30374,30371,-0.023859824985265732,0.003546512918546796,1.0107405185699463,-10.34096622467041,0.3711792826652527,0.08329574763774872,1.8839322328567505,3.9063704013824463,0.30392223596572876,-0.6555030941963196,-0.16613581776618958,0.763401210308075
180,30384,30381,-0.004969817120581865,-0.007125002797693014,1.0558538436889648,-7.285367965698242,-0.4684031903743744,-0.3838496804237366,1.8850709199905396,3.905900239944458,0.3036869764328003,-0.8773542642593384,-0.3521549701690674,0.7306222319602966
181,30394,30391,0.0023845599498599768,0.029542794451117516,0.9706980586051941,-3.821043014526367,-2.5419907569885254,0.8566986918449402,1.8831239938735962,3.90336537361145,0.30374038219451904,-0.741506814956665,-0.4845438301563263,0.7253173589706421
182,30404,30401,-0.020444240421056747,0.01820972003042698,1.0632622241973877,2.3891472816467285,-6.0577712059021,1.38692045211792,1.8846780061721802,3.903660297393799,0.3037271499633789,-0.7340114116668701,-0.4596899151802063,0.7364515662193298
183,30414,30411,0.0003440551517996937,-0.13461549580097198,1.016018033027649,7.806252956390381,-8.852750778198242,1.2603988647460938,1.8858002424240112,3.903036117553711,0.3044937252998352,-0.6665914058685303,-0.4226144254207611,0.7510952353477478
184,30424,30421,-0.0682763159275055,-0.08933565765619278,1.0876026153564453,10.927078247070312,-8.826226234436035,1.0388636589050293,1.8848170042037964,3.903064489364624,0.30459272861480713,-0.49951791763305664,-0.2994288206100464,0.7774710655212402
185,30434,30431,-0.006453442852944136,-0.05247800797224045,1.0082069635391235,9.715973854064941,-7.824088096618652,0.859616756439209,1.886441946029663,3.9049603939056396,0.304720014333725,-0.4894172251224518,-0.21008816361427307,0.8184986710548401
186,30444,30441,-0.018180791288614273,0.005102280527353287,1.0260566473007202,4.012190818786621,-2.988872528076172,1.012122392654419,1.8874794244766235,3.9039905071258545,0.3038688898086548,-0.4056490659713745,-0.06395898759365082,0.8296938538551331
187,30454,30451,-0.028027500957250595,-0.009980522096157074,1.0150774717330933,-2.4165892601013184,-4.212588310241699,2.177931070327759,1.8881150484085083,3.9051499366760254,0.30407005548477173,-0.3064274787902832,-0.0939633771777153,0.8322432041168213
188,30464,30461,-0.01072376687079668,0.009106585755944252,1.014618992805481,-6.876860618591309,0.787996768951416,1.1046260595321655,1.8883888721466064,3.9054114818573,0.30419209599494934,-0.3056081235408783,-0.1384304314851761,0.8504198789596558
189,30474,30471,0.023679787293076515,-0.08683770895004272,0.9743186831474304,-6.96079683303833,-0.5149558782577515,1.647097110748291,1.889349341392517,3.903639078140259,0.3045348823070526,-0.3425123989582062,-0.17094635963439941,0.8446758985519409
190,30484,30481,-0.007395427208393812,-0.024135643616318703,0.9946060180664062,-4.0724778175354,-1.6131978034973145,2.6205761432647705,1.8900257349014282,3.9040024280548096,0.30475369095802307,-0.284988671541214,-0.28657054901123047,0.8440077900886536
191,30494,30491,0.02417663298547268,-0.00250647054053843,0.9906601309776306,-0.02217691019177437,-5.752098083496094,2.9818389415740967,1.8910855054855347,3.9038052558898926,0.3049027621746063,-0.27998629212379456,-0.35432499647140503,0.8688656091690063
192,30504,30501,-0.002198760164901614,-0.03874053433537483,0.9894407987594604,4.286927223205566,-9.734030723571777,2.5579886436462402,1.8913615942001343,3.903937578201294,0.30515316128730774,-0.13413368165493011,-0.3473877012729645,0.8892325162887573
193,30514,30511,-0.029463768005371094,-0.004515435546636581,1.0407497882843018,5.940897464752197,-11.314895629882812,2.5406885147094727,1.8922464847564697,3.9032750129699707,0.3031715750694275,-0.02120552584528923,-0.27040770649909973,0.9177678823471069
194,30524,30521,0.012903689406812191,-0.01985194720327854,1.0221153497695923,5.86557674407959,-9.39852237701416,2.2451956272125244,1.8949294090270996,3.9028468132019043,0.3030911087989807,-0.13382947444915771,-0.16916592419147491,0.9536842107772827
195,30534,30531,-0.03992097079753876,0.059968553483486176,1.029931902885437,5.585428714752197,-5.780263900756836,2.226851224899292,1.8944623470306396,3.9024465084075928,0.30337780714035034,0.1609201282262802,-0.06841202080249786,0.9591783285140991
196,30544,30541,-0.04738485440611839,0.021084610372781754,1.0056637525558472,4.547698020935059,-4.363571643829346,2.351783514022827,1.8969799280166626,3.901763439178467,0.30326005816459656,0.04784686863422394,-0.06404554098844528,0.979158341884613
197,30554,30551,-0.02446785382926464,0.10597894340753555,0.9909051656723022,3.5781359672546387,-1.0876952409744263,2.5030176639556885,1.8973371982574463,3.9017059803009033,0.30341872572898865,0.146077498793602,0.003553478280082345,0.998853325843811
198,30564,30561,-0.01654166541993618,0.043176427483558655,1.0375914573669434,3.032707929611206,-0.2411786913871765,2.3167662620544434,1.8974456787109375,3.9013731479644775,0.3036225140094757,0.27179139852523804,0.04976057633757591,1.0180974006652832
199,30574,30571,0.011738226749002934,-0.09181398153305054,0.9873213171958923,1.9374173879623413,-1.2844791412353516,2.1934990882873535,1.8989404439926147,3.9016053676605225,0.3021090030670166,0.23578916490077972,0.016120417043566704,1.0355138778686523
200,30584,30581,0.00034947096719406545,-0.07575482130050659,0.9961467385292053,1.6430962085723877,-1.6163887977600098,2.072286367416382,1.9004004001617432,3.901987314224243,0.30213266611099243,0.2103874236345291,0.05044456943869591,1.0666290521621704
201,30594,30591,0.0233748871833086,-0.037638161331415176,0.9934516549110413,0.2985338270664215,-1.9308141469955444,1.9149807691574097,1.9015675783157349,3.9018051624298096,0.30223187804222107,0.28062835335731506,0.07728809863328934,1.0847339630126953
202,30604,30601,0.012704242020845413,-0.05304727703332901,1.0066256523132324,-1.2638602256774902,1.3519151210784912,1.2451673746109009,1.9024920463562012,3.9024813175201416,0.30230948328971863,0.33668750524520874,0.0777725875377655,1.1013038158416748
203,30614,30611,0.033905889838933945,-0.08773177862167358,1.0078709125518799,0.6008720397949219,1.5219188928604126,1.621339201927185,1.9034513235092163,3.901669502258301,0.30297404527664185,0.3566465377807617,0.0647628903388977,1.1151505708694458
204,30624,30621,0.014004290103912354,-0.05692223086953163,1.0340721607208252,0.16953475773334503,4.252763271331787,1.5241390466690063,1.905340552330017,3.9014039039611816,0.30303677916526794,0.2774547338485718,0.067591093480587,1.1252652406692505
205,30634,30631,-0.0007285992614924908,-0.015290006063878536,1.0072355270385742,-1.7794781923294067,6.602357864379883,1.459439992904663,1.906548023223877,3.9013283252716064,0.3031356632709503,0.22885367274284363,0.05666016414761543,1.1413421630859375
206,30644,30641,0.02825036086142063,-0.09072184562683105,0.9886171221733093,-4.153319835662842,8.35258674621582,1.7558079957962036,1.9080311059951782,3.900456190109253,0.30670464038848877,0.13524888455867767,0.08922881633043289,1.1415926218032837
207,30654,30651,0.042610689997673035,-0.14636902511119843,1.036309838294983,-3.4559166431427,6.085431098937988,1.9910577535629272,1.9077656269073486,3.9009034633636475,0.30714690685272217,0.16263870894908905,0.011553741991519928,1.155005693435669
208,30664,30661,0.026889793574810028,-0.014760959893465042,1.0009428262710571,-2.959371566772461,3.9828033447265625,2.079425096511841,1.9097871780395508,3.8999221324920654,0.3074099123477936,0.013522890396416187,0.02365364134311676,1.1808022260665894
209,30674,30671,-0.010607289150357246,-0.07945547997951508,1.0167557001113892,-1.8044445514678955,2.6110026836395264,2.131255626678467,1.9108184576034546,3.9002268314361572,0.30842065811157227,0.05779247358441353,0.043426547199487686,1.1898406744003296
210,30684,30681,0.029194697737693787,0.0513371117413044,0.9770050644874573,-1.1684770584106445,0.23653821647167206,1.9842398166656494,1.912611961364746,3.9004435539245605,0.30879470705986023,-0.029995674267411232,0.07342901825904846,1.2212624549865723
211,30694,30691,0.029959499835968018,0.029628882184624672,0.9465680718421936,-0.7436888813972473,-2.774129629135132,1.7611656188964844,1.9134202003479004,3.900233268737793,0.3092151880264282,0.004822866525501013,0.03294660523533821,1.2297347784042358
212,30704,30701,0.003928107675164938,-0.06059212237596512,0.9577760696411133,-3.277778148651123,-1.4072446823120117,1.5011712312698364,1.9140591621398926,3.9007372856140137,0.31058549880981445,0.060882456600666046,-0.08414527773857117,1.233169674873352
213,30714,30711,-0.02066648006439209,0.05627989023923874,0.9762064814567566,-3.0008511543273926,-1.168720006942749,1.317954182624817,1.9141262769699097,3.900075912475586,0.3105331063270569,0.020633867010474205,-0.1454056352376938,1.2476986646652222
214,30724,30721,-0.004215199500322342,0.07132743299007416,0.9409355521202087,-3.4908230304718018,-0.2530408203601837,1.2405941486358643,1.914885401725769,3.899592876434326,0.31088435649871826,0.046421829611063004,-0.20408780872821808,1.2472100257873535
215,30734,30731,-0.054829057306051254,0.11570332944393158,0.984512209892273,-2.241877317428589,0.8671277761459351,1.206796646118164,1.915640115737915,3.8989949226379395,0.31123092770576477,0.051281917840242386,-0.18581582605838776,1.2526108026504517
216,30744,30741,-0.008048851042985916,-0.0003919313894584775,0.9575146436691284,-1.7860130071640015,3.6315395832061768,0.6429040431976318,1.9164257049560547,3.8979718685150146,0.31099024415016174,0.0472521148622036,-0.14574074745178223,1.2481639385223389
217,30754,30751,-0.046262938529253006,0.007388811092823744,1.0361573696136475,-0.18996615707874298,2.121429681777954,0.19413669407367706,1.9176180362701416,3.8981339931488037,0.31115806102752686,-0.06157078221440315,-0.17535750567913055,1.2548768520355225
218,30764,30761,-0.059034381061792374,0.06039939075708389,1.0436561107635498,-0.23796652257442474,2.402925968170166,-0.25862032175064087,1.9192469120025635,3.897590398788452,0.31128907203674316,-0.1474113017320633,-0.18861529231071472,1.237500548362732
219,30774,30771,-0.03835437446832657,0.1494656652212143,0.9902703762054443,-2.7651517391204834,2.5555152893066406,-0.6615179181098938,1.9194177389144897,3.897782802581787,0.31113848090171814,-0.07505320757627487,-0.21031951904296875,1.241728663444519
220,30784,30781,-0.01667473465204239,0.08403559029102325,1.0007268190383911,-3.143519401550293,1.0741099119186401,-1.0216577053070068,1.9204131364822388,3.8971660137176514,0.3113529682159424,-0.16651083528995514,-0.1956212967634201,1.2317395210266113
221,30794,30791,0.013956837356090546,0.04614334553480148,0.9373950958251953,-1.8997951745986938,-1.6819674968719482,-0.6912983059883118,1.9202673435211182,3.896573543548584,0.31170716881752014,-0.07087976485490799,-0.24818921089172363,1.2084938287734985
222,30804,30801,-0.01121253427118063,0.036310452967882156,0.9763537645339966,-0.20020882785320282,-4.922391891479492,-0.9190980792045593,1.922929048538208,3.897606611251831,0.3114762604236603,-0.24713551998138428,-0.35829755663871765,1.2080074548721313
223,30814,30811,-0.010568559169769287,0.00408467510715127,0.9998693466186523,2.847714424133301,-7.036363124847412,-1.2105406522750854,1.923718810081482,3.8965303897857666,0.31174325942993164,-0.1111418828368187,-0.2730809152126312,1.1805598735809326
224,30824,30821,-0.04590901732444763,-0.04144667088985443,0.9698715806007385,3.1596755981445312,-6.722449779510498,-1.1307618618011475,1.9234997034072876,3.896503210067749,0.31200018525123596,0.03971891105175018,-0.221914604306221,1.1653374433517456
225,30834,30831,-0.07626990228891373,-0.0022928155958652496,0.9702364802360535,3.405211925506592,-4.4386396408081055,-1.7502754926681519,1.925683617591858,3.896085023880005,0.3121696412563324,0.09946167469024658,-0.17020002007484436,1.1528401374816895
226,30844,30841,-0.009466640651226044,-0.018944133073091507,0.9781649112701416,0.6160622239112854,-2.1307179927825928,-1.5663012266159058,1.9278370141983032,3.8957531452178955,0.312870591878891,0.03139026463031769,-0.1389695703983307,1.1322851181030273
227,30854,30851,-0.013955280184745789,-0.015646466985344887,1.0073423385620117,-0.338056743144989,0.30226123332977295,-1.5644587278366089,1.9288103580474854,3.8961973190307617,0.313043475151062,0.08214595913887024,-0.1331322193145752,1.1264041662216187
228,30864,30861,-0.03528311848640442,-0.02229972556233406,1.0358718633651733,-1.4639123678207397,2.4535627365112305,-2.040351629257202,1.9303293228149414,3.8957974910736084,0.31310540437698364,0.017037494108080864,-0.15687792003154755,1.0995526313781738
229,30874,30871,0.003281081560999155,-0.04482688009738922,0.9813818335533142,-1.1463984251022339,3.7577567100524902,-2.633132219314575,1.930620789527893,3.896630048751831,0.31288570165634155,0.06951762735843658,-0.27064579725265503,1.0835773944854736
230,30884,30881,0.011813581921160221,-0.0003164660301990807,0.99071204662323,-0.7208185791969299,1.967528223991394,-2.663935899734497,1.931925654411316,3.896644115447998,0.3130238950252533,0.046475108712911606,-0.28381994366645813,1.0564854145050049
231,30894,30891,0.03165982663631439,-0.014823333360254765,0.9508243203163147,1.57484769821167,1.7529350519180298,-2.6155476570129395,1.9341496229171753,3.896678924560547,0.3130201995372772,-0.10453540831804276,-0.2762294411659241,1.0323500633239746
232,30904,30901,0.021742258220911026,-0.04058193787932396,0.9412773847579956,3.460271120071411,-0.6969529986381531,-2.5829999446868896,1.9345157146453857,3.896548271179199,0.3141807019710541,0.009837488643825054,-0.2309550642967224,1.0027618408203125
233,30914,30911,-0.02760809287428856,-0.024765538051724434,0.9979250431060791,4.054769039154053,-3.590618848800659,-2.0286049842834473,1.9366103410720825,3.8959434032440186,0.3142005503177643,-0.08981115370988846,-0.16924311220645905,0.9814236164093018
234,30924,30921,0.00804154947400093,-0.15731817483901978,0.9964587092399597,5.6750030517578125,-4.336287975311279,-1.8988399505615234,1.93703293800354,3.896406650543213,0.3143520653247833,0.0041420310735702515,-0.09038782119750977,0.9670674204826355
235,30934,30931,0.016560321673750877,-0.05422830954194069,1.000531792640686,4.811184406280518,-5.406625270843506,-2.092272996902466,1.9387089014053345,3.897294521331787,0.3147384226322174,0.11978693306446075,-0.08038069307804108,0.9694631099700928
236,30944,30941,-0.0012323750415816903,-0.04049743339419365,0.9899154305458069,1.3826701641082764,-5.223535060882568,-2.24794602394104,1.9393761157989502,3.897611141204834,0.3146918714046478,0.08374558389186859,-0.09346984326839447,0.940984845161438
237,30954,30951,-0.005942022427916527,-0.026386026293039322,0.9801139831542969,-1.094024658203125,-3.486271619796753,-1.812662124633789,1.9398187398910522,3.898017168045044,0.31482380628585815,0.2085711807012558,-0.14901694655418396,0.9208275675773621
238,30964,30961,0.02371843531727791,0.013253011740744114,0.9990426301956177,-1.5580204725265503,-1.927998661994934,-2.1976680755615234,1.9414793252944946,3.8973476886749268,0.3148707151412964,0.20275962352752686,-0.16094909608364105,0.882774293422699
