,timestamp_start,timestamp_end,acc.x,acc.y,acc.z,gyro.x,gyro.y,gyro.z,stateEstimate.x,stateEstimate.y,stateEstimate.z,stabilizer.pitch,stabilizer.roll,stabilizer.yaw
0,33754,33753,0.0033144745975732803,0.014288491569459438,0.9971087574958801,0.1785270720720291,-14.986310958862305,-0.9553284049034119,1.7715414762496948,3.9382081031799316,0.17245061695575714,1.1664209365844727,0.5687344670295715,3.6429173946380615
1,33764,33763,0.014433041214942932,-0.002539442852139473,1.0177236795425415,-7.362701892852783,-6.786459922790527,-0.12355262041091919,1.7749119997024536,3.9398999214172363,0.17464330792427063,1.1354427337646484,0.5808208584785461,3.6255910396575928
2,33774,33773,0.044672876596450806,-0.08287171274423599,0.9972862005233765,-12.139349937438965,1.3497339487075806,-0.4285303056240082,1.774084210395813,3.9395945072174072,0.17679622769355774,1.2698737382888794,0.3991624116897583,3.6333487033843994
3,33784,33783,0.0016601303359493613,-0.036121536046266556,1.0383108854293823,-13.905077934265137,6.642498016357422,-0.8040910959243774,1.7751182317733765,3.9408135414123535,0.17593714594841003,1.3367842435836792,0.3031578063964844,3.6308341026306152
4,33794,33793,0.038419321179389954,0.019469697028398514,1.0335930585861206,-13.240321159362793,12.10651969909668,-1.6251033544540405,1.7753278017044067,3.939812183380127,0.1777576506137848,1.3066002130508423,0.18711243569850922,3.622605800628662
5,33804,33803,0.021837083622813225,-0.006470193155109882,1.015455961227417,-11.203927993774414,14.870451927185059,-1.2489389181137085,1.7816259860992432,3.938141107559204,0.18055476248264313,0.3695189356803894,0.45548975467681885,3.520707130432129
6,33814,33813,0.011392648331820965,0.016289595514535904,1.0395318269729614,-10.041787147521973,7.227016925811768,-0.8553698658943176,1.782509684562683,3.9379727840423584,0.18338888883590698,0.4327513575553894,0.3210218548774719,3.5231332778930664
7,33824,33823,-0.04266665130853653,-0.02445254661142826,1.0954439640045166,-8.954511642456055,-2.6035265922546387,-1.3840779066085815,1.7801152467727661,3.9335885047912598,0.18365918099880219,0.4718293249607086,0.2069135457277298,3.519310235977173
8,33834,33833,-0.03252486139535904,-0.047565966844558716,1.0803710222244263,-7.819969177246094,-13.235258102416992,-1.1847848892211914,1.779023289680481,3.934558391571045,0.18602344393730164,0.7010753750801086,0.10749165713787079,3.512977123260498
9,33844,33843,0.04850747436285019,-0.039772529155015945,1.0247410535812378,-10.183843612670898,-15.141756057739258,-1.3868626356124878,1.7776703834533691,3.933474063873291,0.18837539851665497,1.0775988101959229,-0.05354447290301323,3.5161352157592773
10,33854,33853,0.04749037325382233,-0.06140296906232834,1.037413239479065,-9.66135311126709,-12.578142166137695,-2.639366388320923,1.7773727178573608,3.9325571060180664,0.18899022042751312,1.198686122894287,-0.007310884073376656,3.4863202571868896
11,33864,33863,0.018430231139063835,-0.04104110971093178,1.0444055795669556,-9.7448148727417,-6.751923561096191,-2.5290682315826416,1.7794256210327148,3.931281805038452,0.1912412941455841,1.1121655702590942,-0.04700108990073204,3.447908639907837
12,33874,33873,0.020454300567507744,-0.03241047263145447,0.9787470698356628,-10.23662281036377,-0.1901029795408249,-2.216857433319092,1.7800309658050537,3.9312450885772705,0.1934984028339386,1.0940371751785278,-0.1764563024044037,3.426809310913086
13,33884,33883,0.003979591652750969,0.014482024125754833,1.0137351751327515,-11.5283842086792,5.679629802703857,-2.7335445880889893,1.782030701637268,3.9336068630218506,0.19374088943004608,1.122358798980713,-0.3895057141780853,3.413349151611328
14,33894,33893,0.004709415137767792,0.022703072056174278,1.0386515855789185,-10.458563804626465,6.855767250061035,-2.6784212589263916,1.7820700407028198,3.9324982166290283,0.19586116075515747,1.0638302564620972,-0.5981060266494751,3.3942618370056152
15,33904,33903,-0.0027455599047243595,-0.009419373236596584,1.0371029376983643,-8.204733848571777,8.310920715332031,-3.346412181854248,1.7823671102523804,3.9330098628997803,0.197994202375412,0.9927188754081726,-0.6977414488792419,3.3664145469665527
16,33914,33913,0.011890723370015621,0.0655047670006752,0.966525673866272,-4.230957508087158,4.335089206695557,-2.937190294265747,1.782438039779663,3.9337589740753174,0.20012560486793518,0.9846356511116028,-0.8957687020301819,3.345186233520508
17,33924,33923,-0.026819491758942604,0.007105198688805103,1.032747745513916,0.5237957835197449,1.9057137966156006,-2.9329915046691895,1.782782793045044,3.9341461658477783,0.2011084109544754,0.8702990412712097,-1.001016616821289,3.3259406089782715
18,33934,33933,0.022479232400655746,-0.021181538701057434,1.008126139640808,5.304922580718994,-2.619173526763916,-2.6309595108032227,1.7806854248046875,3.9356727600097656,0.20324121415615082,1.1187090873718262,-1.0166988372802734,3.287351369857788
19,33944,33943,0.03224816918373108,-0.026012273505330086,0.9891266822814941,8.125083923339844,0.5110498070716858,-2.2980592250823975,1.7807084321975708,3.9351985454559326,0.20533104240894318,1.1465915441513062,-0.9431574940681458,3.2604312896728516
20,33954,33953,-0.015537516213953495,-0.014230065047740936,1.007285475730896,9.347365379333496,3.0137197971343994,-2.2692978382110596,1.7806743383407593,3.934702157974243,0.208701029419899,1.1305984258651733,-0.8246296644210815,3.2353639602661133
21,33964,33963,0.0034371749497950077,-0.028771305456757545,0.9905794858932495,8.83415412902832,5.249691963195801,-2.5553295612335205,1.7792093753814697,3.932842254638672,0.21079637110233307,1.3027631044387817,-0.4621116816997528,3.162034749984741
22,33974,33973,0.016753152012825012,-0.04521864280104637,0.9856774210929871,5.380911350250244,7.598514080047607,-2.299032688140869,1.788158893585205,3.934122323989868,0.21502646803855896,0.0015821389388293028,-0.5395737290382385,3.274437427520752
23,33984,33983,0.013095471076667309,0.1408175528049469,0.9744925498962402,-0.5575037598609924,5.899564743041992,-2.965517520904541,1.7860044240951538,3.9343483448028564,0.21642513573169708,0.2951524257659912,-0.5972700715065002,3.2187352180480957
24,33994,33993,0.030264602974057198,-0.035627659410238266,0.956159770488739,-3.820016860961914,-3.0822832584381104,-3.0642147064208984,1.7710617780685425,3.939772367477417,0.22159245610237122,2.2420661449432373,-1.043642282485962,3.0418310165405273
25,34004,34003,0.026483848690986633,-0.03147303685545921,0.9640986919403076,-4.378259658813477,-0.9796018600463867,-2.915574073791504,1.7703171968460083,3.9386208057403564,0.22512203454971313,2.270282030105591,-1.0867044925689697,3.0141830444335938
26,34014,34013,0.060869697481393814,-0.04428601264953613,0.9514471292495728,0.0045415908098220825,9.159348487854004,-2.6660616397857666,1.769768238067627,3.9377195835113525,0.2280876785516739,2.1504881381988525,-1.1115224361419678,2.9976325035095215
27,34024,34023,-0.012109450995922089,-0.027403054758906364,0.9986031651496887,5.848900318145752,23.441364288330078,-3.4529402256011963,1.770822286605835,3.938100814819336,0.22779420018196106,1.748970627784729,-1.055741548538208,2.989666223526001
28,34034,34033,-0.016996441408991814,-0.019203059375286102,0.9891096353530884,10.76427936553955,35.05010223388672,-3.2019784450531006,1.7685623168945312,3.9379043579101562,0.2306952327489853,1.2993372678756714,-0.8236307501792908,2.9492154121398926
29,34044,34043,0.041710738092660904,-0.1426488310098648,0.9759722948074341,13.843598365783691,41.945526123046875,-3.5954692363739014,1.7626240253448486,3.943599224090576,0.23294863104820251,0.9075426459312439,-0.6130784749984741,2.909937858581543
30,34054,34053,0.03741506114602089,-0.14600048959255219,0.957338273525238,14.61711311340332,41.47981262207031,-3.1804556846618652,1.7598811388015747,3.944279909133911,0.23297284543514252,0.6002696752548218,-0.5931621193885803,2.877303123474121
31,34064,34063,-0.0019160504452884197,-0.005797357298433781,0.9431420564651489,12.04867935180664,36.48469924926758,-3.4443445205688477,1.7605026960372925,3.937558889389038,0.23519645631313324,0.08505109697580338,-0.4086151123046875,2.8425116539001465
32,34074,34073,0.012375579215586185,-0.041417934000492096,0.932438850402832,10.56403636932373,29.17424201965332,-2.8882131576538086,1.759177327156067,3.9364256858825684,0.2372499704360962,-0.3290509283542633,-0.268026202917099,2.813249349594116
33,34084,34083,-0.0011513135395944118,-0.048745788633823395,0.9541651010513306,6.625395774841309,15.839574813842773,-3.4039199352264404,1.7591955661773682,3.938323736190796,0.23951415717601776,-0.6605979800224304,-0.17595678567886353,2.79133939743042
34,34094,34093,0.009591051377356052,-0.006056868005543947,0.9375243782997131,1.5219613313674927,4.81015682220459,-3.769138813018799,1.7569202184677124,3.9368128776550293,0.24144840240478516,-0.7019147276878357,-0.06953208148479462,2.7454850673675537
35,34104,34103,0.024945981800556183,-0.019401684403419495,0.9368175268173218,-0.5175952911376953,-1.8351078033447266,-3.663341999053955,1.7566592693328857,3.9367473125457764,0.24332398176193237,-0.8003460764884949,-0.04027831181883812,2.714344024658203
36,34114,34113,0.022362124174833298,-0.10907599329948425,0.9422549605369568,-1.8102983236312866,-4.962169170379639,-3.4444313049316406,1.7561671733856201,3.935631275177002,0.24514348804950714,-0.8688759207725525,-0.0477442629635334,2.6842968463897705
37,34124,34123,0.008556812070310116,-0.020042534917593002,0.9462599754333496,-2.012268304824829,-5.366597652435303,-3.48128080368042,1.7554092407226562,3.9358088970184326,0.24431918561458588,-0.8012661337852478,-0.07769601047039032,2.6499226093292236
38,34134,34133,-0.011356007307767868,0.0714142844080925,0.9915359616279602,-0.5254722237586975,-3.005160093307495,-3.535698890686035,1.7546203136444092,3.9339725971221924,0.24609869718551636,-0.9030455946922302,-0.10602196305990219,2.6163077354431152
39,34144,34143,0.010724440217018127,0.002214442938566208,0.9563705325126648,-0.10075370967388153,0.529442310333252,-3.5617728233337402,1.7554408311843872,3.933032751083374,0.24609459936618805,-0.9477509260177612,-0.028105050325393677,2.5889699459075928
40,34154,34153,-0.004067147150635719,0.01612873747944832,0.9821394681930542,1.3890910148620605,3.39597749710083,-3.192723035812378,1.7556649446487427,3.9316554069519043,0.24616068601608276,-1.0533368587493896,0.05565725266933441,2.5689432621002197
41,34164,34163,0.016947079449892044,0.014370725490152836,0.9348030090332031,1.387009620666504,3.705435276031494,-2.8674306869506836,1.7553529739379883,3.929891347885132,0.24751417338848114,-1.1001348495483398,0.22226594388484955,2.558954954147339
42,34174,34173,-0.0038038636557757854,0.009686592034995556,0.9788116812705994,-0.19701902568340302,4.512491703033447,-3.5002338886260986,1.7539905309677124,3.9299914836883545,0.2489926666021347,-1.0623446702957153,0.21153566241264343,2.524188280105591
43,34184,34183,0.018210839480161667,0.07531341165304184,0.9200842380523682,-2.7777061462402344,3.4687798023223877,-3.2353336811065674,1.7543517351150513,3.9313669204711914,0.2497115284204483,-1.2129508256912231,-0.07785721868276596,2.4417591094970703
44,34194,34193,0.03595389053225517,0.061872538179159164,0.9308874011039734,-4.154760360717773,1.4584646224975586,-2.887383222579956,1.7551413774490356,3.928457260131836,0.2509637773036957,-1.3950822353363037,0.09516805410385132,2.4524669647216797
45,34204,34203,-0.016066795215010643,0.05376175045967102,1.007336139678955,-4.264046669006348,-5.077536582946777,-3.044118881225586,1.7549737691879272,3.93076491355896,0.25229349732398987,-1.2811952829360962,-0.07688472419977188,2.3958380222320557
46,34214,34213,0.042470335960388184,-0.020322322845458984,0.9627797603607178,-3.386493444442749,-6.772686958312988,-3.054687738418579,1.7549422979354858,3.9301676750183105,0.25360751152038574,-1.230177640914917,-0.08349159359931946,2.3736369609832764
47,34224,34223,0.017154598608613014,-0.007503686007112265,0.9814496636390686,-1.7760542631149292,-7.131012439727783,-3.2782340049743652,1.754560947418213,3.9302937984466553,0.25475388765335083,-1.3033835887908936,-0.14711296558380127,2.334991931915283
48,34234,34233,-0.07365293055772781,0.048855483531951904,0.9897212386131287,-0.3285297453403473,-7.939342498779297,-2.5990006923675537,1.755115032196045,3.929398536682129,0.25586119294166565,-1.2554377317428589,-0.09922995418310165,2.320150136947632
49,34244,34243,0.016041532158851624,-0.03220141679048538,0.9647679924964905,1.2239155769348145,-8.651129722595215,-2.3587594032287598,1.7533307075500488,3.9287784099578857,0.2570863664150238,-0.9765456318855286,-0.10750692337751389,2.29276967048645
50,34254,34253,-0.015127402730286121,0.017150182276964188,1.0134423971176147,1.8737590312957764,-7.879873752593994,-2.4564268589019775,1.7518692016601562,3.9240689277648926,0.2604731023311615,-0.7138606309890747,0.5011393427848816,2.418031930923462
51,34264,34263,-0.015864038839936256,-0.036886632442474365,0.9881691932678223,-1.318514347076416,-5.710788726806641,-2.913097620010376,1.7516933679580688,3.924262285232544,0.2617858946323395,-0.6329691410064697,0.4381366968154907,2.373326063156128
52,34274,34273,-0.053990282118320465,-0.012996543198823929,1.0197046995162964,-7.795598030090332,-1.2554974555969238,-3.100381374359131,1.7512505054473877,3.923818349838257,0.26307281851768494,-0.5983667373657227,0.37922734022140503,2.3405539989471436
53,34284,34283,-0.018979890272021294,0.026746315881609917,0.9409533143043518,-15.672637939453125,4.876936912536621,-3.16502046585083,1.7517234086990356,3.922975778579712,0.265298455953598,-0.7032598257064819,0.2106933891773224,2.2930257320404053
54,34294,34293,0.03327427804470062,0.021494725719094276,0.9580749869346619,-19.568132400512695,5.743687629699707,-2.7647175788879395,1.7517337799072266,3.923555374145508,0.2666980028152466,-0.7440991997718811,-0.06857288628816605,2.2426717281341553
55,34304,34303,0.028187867254018784,0.08775177597999573,0.9675681591033936,-19.893672943115234,5.731474876403809,-2.2216110229492188,1.7532998323440552,3.92411470413208,0.26800084114074707,-0.9392416477203369,-0.3046412169933319,2.203967809677124
56,34314,34313,0.004463966935873032,0.03395817428827286,0.9812058806419373,-15.869994163513184,2.5645859241485596,-2.0745089054107666,1.7540017366409302,3.9236626625061035,0.27045488357543945,-0.9171748161315918,-0.33833208680152893,2.197500228881836
57,34324,34323,-0.01848795637488365,-0.16175954043865204,0.978961706161499,-8.687029838562012,-2.4264395236968994,-2.3396670818328857,1.7541148662567139,3.9243147373199463,0.2718186378479004,-0.9861427545547485,-0.6046128869056702,2.1571195125579834
58,34334,34333,-0.0005441052489914,0.11990362405776978,0.99983811378479,-2.376209020614624,-6.453463554382324,-2.247840166091919,1.7575258016586304,3.9214279651641846,0.2729986608028412,-1.183323621749878,-0.6572321057319641,2.1415438652038574
59,34344,34343,0.0058975787833333015,-0.03916004300117493,0.9889192581176758,4.977355480194092,-12.354061126708984,-2.2435264587402344,1.7564359903335571,3.9209492206573486,0.2742888331413269,-1.0618919134140015,-0.7518134117126465,2.1105868816375732
60,34354,34353,-0.02327294647693634,-0.07206391543149948,0.981622040271759,8.567948341369629,-15.785776138305664,-2.0368993282318115,1.75507390499115,3.9203386306762695,0.27475401759147644,-0.8515422940254211,-0.7188677787780762,2.088096857070923
61,34364,34363,0.011666025035083294,-0.06570552289485931,0.9438282251358032,8.304203987121582,-15.208592414855957,-1.639129638671875,1.7547783851623535,3.920046329498291,0.27590087056159973,-0.7417620420455933,-0.6192565560340881,2.074178695678711
62,34374,34373,0.04740394651889801,-0.05225852131843567,0.9565984010696411,5.25527811050415,-13.594026565551758,-1.4138389825820923,1.7538228034973145,3.920083522796631,0.27699413895606995,-0.4832305610179901,-0.5920177698135376,2.043539047241211
63,34384,34383,-0.02709171362221241,0.03597291558980942,0.9372214078903198,1.3595372438430786,-10.113494873046875,-1.600597858428955,1.7529733180999756,3.9194774627685547,0.2776336669921875,-0.2589808702468872,-0.598768949508667,2.014244794845581
64,34394,34393,-0.005823936313390732,-0.02626604400575161,0.9866428375244141,-3.0910863876342773,-3.6792635917663574,-2.061328887939453,1.7560852766036987,3.920025110244751,0.27873730659484863,-0.38505515456199646,-0.6583312153816223,1.9921989440917969
65,34404,34403,0.010560635477304459,-0.03288092836737633,0.9549906253814697,-4.717459201812744,0.7049766778945923,-2.4272170066833496,1.755812406539917,3.92067551612854,0.2796778082847595,-0.2677827477455139,-0.7464750409126282,1.9466239213943481
66,34414,34413,-0.003176742233335972,-0.09247885644435883,1.0100773572921753,-3.235985517501831,-0.964775025844574,-2.512343645095825,1.7556813955307007,3.916095495223999,0.2809264361858368,-0.25369298458099365,-0.26234376430511475,2.0210583209991455
67,34424,34423,0.018475444987416267,0.01672748103737831,0.9989064335823059,-0.9763750433921814,3.001345157623291,-2.88751482963562,1.7559661865234375,3.9160027503967285,0.28193002939224243,-0.2401093691587448,-0.37895509600639343,1.9853109121322632
68,34434,34433,0.0992169976234436,0.04454401507973671,0.8965981602668762,-3.0289435386657715,3.223778247833252,-2.6135623455047607,1.7565321922302246,3.9157631397247314,0.2828935384750366,-0.2827599346637726,-0.4563160538673401,1.947251796722412
69,34444,34443,0.05793968588113785,0.07582870870828629,0.9434986114501953,-4.407263278961182,2.191746711730957,-2.172997236251831,1.7579492330551147,3.9164130687713623,0.283785879611969,-0.48686349391937256,-0.5460735559463501,1.9171758890151978
70,34454,34453,0.038901835680007935,0.04001769796013832,0.9874401092529297,-4.065865993499756,-8.235624313354492,-1.8709975481033325,1.75728440284729,3.914680004119873,0.28257232904434204,-0.5186616778373718,-0.5044260621070862,1.903037190437317
71,34464,34463,0.011423018760979176,-0.030088575556874275,0.9749799370765686,-4.3299479484558105,-8.355395317077637,-1.9502687454223633,1.7580586671829224,3.9144623279571533,0.28318601846694946,-0.6135551929473877,-0.6928902864456177,1.873342514038086
72,34474,34473,-0.0019422740442678332,0.040358759462833405,0.9812643527984619,-2.7188620567321777,-6.03837776184082,-1.5123599767684937,1.757836937904358,3.9139652252197266,0.2838882505893707,-0.4993246793746948,-0.7112731337547302,1.8592642545700073
73,34484,34483,-0.05740455910563469,0.1234915629029274,1.0016180276870728,-1.0201492309570312,-1.9154534339904785,-1.0329312086105347,1.756982684135437,3.9136838912963867,0.2832752764225006,-0.31504154205322266,-0.802236795425415,1.821103572845459
74,34494,34493,0.01776643469929695,-0.03105521947145462,0.9508702158927917,-0.7793682813644409,3.677466630935669,-1.2871686220169067,1.7586462497711182,3.9136712551116943,0.2837027609348297,-0.49417200684547424,-0.8284531235694885,1.828094482421875
75,34504,34503,0.007540490478277206,-0.015985623002052307,1.007859468460083,2.340348720550537,7.846692085266113,-1.205078125,1.7584447860717773,3.9139516353607178,0.2841811180114746,-0.4835939109325409,-0.9337518811225891,1.8037387132644653
76,34514,34513,-0.0009096806752495468,0.012659862637519836,0.9915856719017029,4.174952983856201,9.738040924072266,-1.4117310047149658,1.7601349353790283,3.914299964904785,0.2836562395095825,-0.6210758686065674,-0.9831611514091492,1.7883306741714478
77,34524,34523,-0.011935635469853878,-0.03611447662115097,0.9882681369781494,7.511928558349609,7.920889377593994,-1.1656414270401,1.7594752311706543,3.914133071899414,0.28417545557022095,-0.6275827288627625,-0.9081600308418274,1.7715649604797363
78,34534,34533,-0.030981315299868584,0.010229017585515976,1.026832938194275,9.229849815368652,5.941009521484375,-1.4513676166534424,1.7599177360534668,3.9142446517944336,0.2845986485481262,-0.6925734877586365,-0.8585625886917114,1.755948543548584
79,34544,34543,0.0042171236127614975,-0.014010773971676826,1.0038057565689087,9.600532531738281,1.950883388519287,-1.1999530792236328,1.760157585144043,3.9145257472991943,0.28501567244529724,-0.7267466187477112,-0.7720450162887573,1.7393337488174438
80,34554,34553,0.02823622338473797,0.011117709800601006,0.9508662223815918,8.571118354797363,0.0580153651535511,-0.8755962252616882,1.7600651979446411,3.9139740467071533,0.2854890823364258,-0.71181321144104,-0.6779600381851196,1.7214158773422241
81,34564,34563,0.06453127413988113,0.015683680772781372,0.9704833030700684,6.66775369644165,-1.0930869579315186,-0.4748857617378235,1.7612314224243164,3.914093017578125,0.2859562039375305,-0.7454497814178467,-0.5223504304885864,1.7210922241210938
82,34574,34573,0.05041801929473877,-0.12392979115247726,0.976961076259613,5.355877876281738,-3.6957404613494873,-0.42263859510421753,1.7612067461013794,3.9142649173736572,0.2863525450229645,-0.7589372396469116,-0.48072096705436707,1.7123925685882568
83,34584,34583,0.0055436561815440655,-0.03741387277841568,1.0012058019638062,3.1122941970825195,-3.937669515609741,-0.8454216122627258,1.7610576152801514,3.914527654647827,0.2861382067203522,-0.6518713235855103,-0.45771902799606323,1.6971759796142578
84,34594,34593,-0.02929542027413845,-0.07952437549829483,1.0185480117797852,2.0861780643463135,-1.9628896713256836,-0.265799880027771,1.7608102560043335,3.913804054260254,0.28643321990966797,-0.6088659167289734,-0.38430309295654297,1.693448543548584
85,34604,34603,0.005620417185127735,-0.06303658336400986,0.9584323763847351,1.6147831678390503,0.9286938905715942,0.2133743166923523,1.7613234519958496,3.9132132530212402,0.2867226302623749,-0.5960167646408081,-0.33686622977256775,1.692105770111084
86,34614,34613,0.008439319208264351,0.04434644430875778,1.0321199893951416,2.8116607666015625,1.0593881607055664,-0.10980203747749329,1.7615078687667847,3.9131014347076416,0.2900489866733551,-0.7063054442405701,-0.3769318461418152,1.6907612085342407
87,34624,34623,0.007815424352884293,0.06344937533140182,1.0469239950180054,3.0712671279907227,3.3518879413604736,0.19312074780464172,1.7624367475509644,3.913527011871338,0.290545254945755,-0.7754522562026978,-0.36661913990974426,1.691360592842102
88,34634,34633,-0.033100441098213196,0.026477163657546043,1.0033446550369263,4.4295573234558105,1.2379237413406372,-0.3097594678401947,1.7629131078720093,3.9133708477020264,0.29110002517700195,-0.7514824867248535,-0.36159828305244446,1.684367060661316
89,34644,34643,-0.0463835746049881,0.07695198804140091,1.0119463205337524,4.994112014770508,-0.24745811522006989,-0.015155395492911339,1.7637089490890503,3.9139516353607178,0.2907686233520508,-0.7673485279083252,-0.3076494634151459,1.690670132637024
90,34654,34653,0.013724575750529766,-0.02527344785630703,1.002535104751587,5.108557224273682,-1.1821550130844116,-0.009219794534146786,1.763641357421875,3.9143526554107666,0.29136210680007935,-0.6992502808570862,-0.27894851565361023,1.684305191040039
91,34664,34663,-0.005923186894506216,-0.02909688651561737,0.9937216639518738,6.2769622802734375,-3.6124067306518555,-0.31903377175331116,1.764848232269287,3.9153549671173096,0.2918606400489807,-0.7623907327651978,-0.24220994114875793,1.6848137378692627
92,34674,34673,-0.023232199251651764,0.11128387600183487,1.0219614505767822,6.732304096221924,-2.8586764335632324,0.1240161582827568,1.7649176120758057,3.9145772457122803,0.2923961281776428,-0.7191118597984314,-0.11424031108617783,1.6894103288650513
93,34684,34683,-0.02824791707098484,-0.0715584009885788,1.0159704685211182,6.912537574768066,-4.876573085784912,0.2697358727455139,1.7652090787887573,3.9148926734924316,0.29667434096336365,-0.670436680316925,-0.12724021077156067,1.6781491041183472
94,34694,34693,-0.008503351360559464,-0.10295920073986053,1.011290431022644,6.055838584899902,-2.9727001190185547,-3.487999856588431e-05,1.7648776769638062,3.9144039154052734,0.29751330614089966,-0.5107088685035706,0.013446103781461716,1.6846871376037598
95,34704,34703,0.04292566329240799,-0.0038966829888522625,0.9663641452789307,4.451647758483887,0.6306570172309875,0.16334111988544464,1.767825961112976,3.9159553050994873,0.29820916056632996,-0.6803330779075623,-0.07936028391122818,1.6740683317184448
96,34714,34713,0.005744397174566984,-0.009772684425115585,1.0023486614227295,3.1016547679901123,2.334080457687378,0.2759377062320709,1.7679301500320435,3.9154911041259766,0.2990451753139496,-0.6180845499038696,0.031959597021341324,1.6808806657791138
97,34724,34723,0.03530408814549446,-0.0486254021525383,1.0137360095977783,3.355785369873047,1.4299980401992798,0.090510793030262,1.7691794633865356,3.913292407989502,0.29984748363494873,-0.5994675755500793,0.11162924766540527,1.6809163093566895
98,34734,34733,0.0642060711979866,-0.08848684281110764,0.9516055583953857,3.3471009731292725,0.2740266025066376,-0.10269095003604889,1.7711429595947266,3.915109872817993,0.30053162574768066,-0.7100750207901001,-0.02932191640138626,1.6664153337478638
99,34744,34743,0.012283576652407646,-0.014501575380563736,0.9733548164367676,4.332653999328613,-0.10793731361627579,-0.20530910789966583,1.7710072994232178,3.915710926055908,0.29882457852363586,-0.6406734585762024,-0.002496285829693079,1.6642084121704102
100,34754,34753,-0.007192298304289579,-0.00790066085755825,0.9314136505126953,6.102173328399658,-0.7378919124603271,0.127593994140625,1.771660327911377,3.9154927730560303,0.29945170879364014,-0.573046088218689,0.11096851527690887,1.6690607070922852
101,34764,34763,-0.013907290063798428,-0.0129964305087924,0.9567961096763611,6.59910249710083,-0.981447696685791,-0.2291843444108963,1.7735034227371216,3.9145100116729736,0.2997514009475708,-0.8038191199302673,0.16760212182998657,1.6651103496551514
102,34774,34773,-0.013546635396778584,-0.029592251405119896,0.9923697710037231,6.165405750274658,-2.264890432357788,-0.3690122961997986,1.7721824645996094,3.9134554862976074,0.30128294229507446,-0.6251180171966553,0.3119567334651947,1.6741864681243896
103,34784,34783,-0.036056507378816605,-0.009797900915145874,1.039358377456665,6.266867160797119,-3.3002777099609375,-0.35411137342453003,1.7722247838974,3.9125723838806152,0.3018242418766022,-0.5121157169342041,0.44270607829093933,1.6790884733200073
104,34794,34793,0.0453815720975399,0.01584579050540924,0.9623706936836243,3.1617839336395264,-0.5768865942955017,-0.44585874676704407,1.773456335067749,3.912328004837036,0.3022744655609131,-0.6213544607162476,0.5634036660194397,1.6748578548431396
105,34804,34803,-0.005687957163900137,0.03468204662203789,1.0050506591796875,-0.1785917580127716,-0.17661021649837494,-0.7154477834701538,1.7747448682785034,3.913358688354492,0.30283069610595703,-0.5982998013496399,0.48089465498924255,1.6612895727157593
106,34814,34813,-0.006182482000440359,0.12455040961503983,0.9670142531394958,-1.6766215562820435,0.28344038128852844,-0.7631190419197083,1.7739983797073364,3.911865472793579,0.301711767911911,-0.585986316204071,0.5070494413375854,1.650636911392212
107,34824,34823,0.006772932596504688,0.17520320415496826,0.9849461317062378,-2.0726242065429688,0.3965221345424652,-0.8392783403396606,1.7753864526748657,3.911146640777588,0.3020583391189575,-0.5866044163703918,0.49952149391174316,1.6440788507461548
108,34834,34833,0.02183719538152218,0.08567380160093307,0.9889127612113953,-2.160830020904541,-1.932478666305542,-1.0656721591949463,1.7768042087554932,3.9119277000427246,0.3023359179496765,-0.6657083034515381,0.328011155128479,1.6201560497283936
109,34844,34843,-0.04465601593255997,0.02733847126364708,1.0049915313720703,-0.6510990858078003,-4.608632564544678,-0.8943770527839661,1.7765737771987915,3.9121689796447754,0.3042309880256653,-0.5378164052963257,0.3294704258441925,1.6192017793655396
110,34854,34853,-0.01584838517010212,0.012970400042831898,1.0025960206985474,1.665552020072937,-6.148125171661377,-1.2463024854660034,1.7771666049957275,3.9120075702667236,0.30468180775642395,-0.45789989829063416,0.34794923663139343,1.6147103309631348
111,34864,34863,-0.032195210456848145,0.0396655835211277,0.9410797357559204,4.1807026863098145,-5.4050397872924805,-0.9918704032897949,1.7771904468536377,3.9117720127105713,0.3052065074443817,-0.27403855323791504,0.4009053409099579,1.615418553352356
112,34874,34873,-0.045397207140922546,0.008485252968966961,0.975191593170166,4.544362545013428,-3.478518009185791,-1.0195425748825073,1.7806800603866577,3.91056752204895,0.30432450771331787,-0.5038089752197266,0.4880106449127197,1.585466980934143
113,34884,34883,0.02630435861647129,-0.09810183197259903,0.9907398223876953,3.910306453704834,-3.2626960277557373,-1.01423180103302,1.781203269958496,3.911287546157837,0.30465883016586304,-0.40808746218681335,0.5058954358100891,1.5802961587905884
114,34894,34893,-0.022261040285229683,-0.09624271839857101,1.0436068773269653,2.7873148918151855,-1.9403070211410522,-1.192425012588501,1.7808454036712646,3.911783456802368,0.3050191402435303,-0.23945507407188416,0.517041802406311,1.5788984298706055
115,34904,34903,0.004126343876123428,-0.094791479408741,0.9842240214347839,2.204233407974243,-1.1607801914215088,-1.3581949472427368,1.7816699743270874,3.910658597946167,0.30533796548843384,-0.179549902677536,0.669696569442749,1.5778188705444336
116,34914,34913,0.008657200261950493,-0.05407368391752243,0.96933913230896,-0.03582952544093132,3.940809726715088,-0.9702569842338562,1.7841123342514038,3.911837339401245,0.3103395104408264,-0.29524123668670654,0.6445634961128235,1.5506904125213623
117,34924,34923,0.08406654745340347,-0.05016196146607399,0.9552097320556641,-4.095367431640625,5.56643533706665,-0.8948951959609985,1.7852215766906738,3.9107635021209717,0.3109399974346161,-0.33520781993865967,0.6543375849723816,1.5326470136642456
118,34934,34933,-0.03833266720175743,-0.023578569293022156,0.9776544570922852,-4.401298522949219,0.7801833748817444,-0.5020403265953064,1.785523533821106,3.9107275009155273,0.31154000759124756,-0.3336433470249176,0.599394679069519,1.5310159921646118
119,34944,34943,-0.03696146234869957,-0.017182989045977592,0.9948269128799438,-5.151745796203613,-2.1124958992004395,-0.45635926723480225,1.7854888439178467,3.9110498428344727,0.3128263056278229,-0.2537447512149811,0.5383536219596863,1.5316307544708252
120,34954,34953,-0.01538457814604044,-0.005307902581989765,0.9777236580848694,-5.003410816192627,-4.41617488861084,-0.8226574659347534,1.786105990409851,3.9110195636749268,0.31337660551071167,-0.2160464972257614,0.46225038170814514,1.5281615257263184
121,34964,34963,0.0020233469549566507,-0.0005672729457728565,0.9539175033569336,-1.6973291635513306,-4.790217876434326,-0.5761246681213379,1.7877817153930664,3.9109647274017334,0.3138752579689026,-0.2291019856929779,0.46835875511169434,1.5152260065078735
122,34974,34973,0.013150802813470364,-0.02044406346976757,0.9658951759338379,0.1963210552930832,-2.9123804569244385,-0.38477975130081177,1.7887002229690552,3.911754608154297,0.3135994076728821,-0.15181393921375275,0.4403426945209503,1.5112521648406982
123,34984,34983,0.04778621345758438,-0.044172659516334534,0.9527827501296997,1.9957741498947144,-1.320475459098816,-0.433658242225647,1.789108157157898,3.9122421741485596,0.31405940651893616,-0.025984562933444977,0.36700737476348877,1.5151352882385254
124,34994,34993,-0.00289897620677948,-0.02696969546377659,1.0142818689346313,1.9050260782241821,1.048636555671692,-0.35451486706733704,1.7890852689743042,3.911961793899536,0.3144993484020233,0.07397580146789551,0.4129999577999115,1.5190335512161255
125,35004,35003,-0.012135803699493408,-0.04112843796610832,0.9890930652618408,1.4685964584350586,3.9051246643066406,-1.0057330131530762,1.7935569286346436,3.911783456802368,0.31475844979286194,-0.27250051498413086,0.4574412703514099,1.4807515144348145
126,35014,35013,0.0012883299496024847,-0.10259467363357544,1.0048131942749023,0.7801041603088379,6.044062614440918,-0.5047566294670105,1.7936298847198486,3.9112191200256348,0.3169628381729126,-0.23333421349525452,0.491346538066864,1.4785709381103516
127,35024,35023,0.035837091505527496,-0.08216433227062225,0.9195016026496887,0.9415521621704102,6.0592780113220215,0.1689147800207138,1.7949364185333252,3.910853385925293,0.317374050617218,-0.3260299861431122,0.5089576840400696,1.4704089164733887
128,35034,35033,0.006542968563735485,-0.03464188054203987,0.9652434587478638,1.0704690217971802,4.504857540130615,0.6013075113296509,1.7950897216796875,3.910277843475342,0.31787022948265076,-0.31626108288764954,0.5257273316383362,1.4776790142059326
129,35044,35043,-0.001558232237584889,-0.03417206183075905,0.9587340950965881,1.7688907384872437,2.164942502975464,0.9974484443664551,1.7954978942871094,3.9104485511779785,0.31749653816223145,-0.3051716387271881,0.5418517589569092,1.4882522821426392
130,35054,35053,-0.013395687565207481,-0.019977137446403503,0.969392716884613,3.0765795707702637,-0.1169247031211853,1.9905169010162354,1.7972891330718994,3.910545587539673,0.31781473755836487,-0.33226674795150757,0.5784208178520203,1.497619867324829
131,35064,35063,-0.03251182287931442,0.05967208370566368,0.9626350402832031,2.370837450027466,-2.4335663318634033,2.492400884628296,1.798046350479126,3.9101288318634033,0.3180791437625885,-0.32194098830223083,0.626984715461731,1.5156830549240112
132,35074,35073,0.005995798856019974,-0.007530144415795803,0.9416157603263855,-0.014920230954885483,-3.6563189029693604,3.583329200744629,1.79978346824646,3.910097360610962,0.3194846212863922,-0.3559049069881439,0.6609822511672974,1.533489465713501
133,35084,35083,-0.02520502172410488,-0.028597641736268997,1.0070385932922363,-2.1352698802948,-7.709957599639893,4.559691429138184,1.8004019260406494,3.9105703830718994,0.3197731375694275,-0.28331103920936584,0.6567079424858093,1.5724704265594482
134,35094,35093,0.0864589512348175,0.013741510920226574,0.906770646572113,-7.03683614730835,0.6947789788246155,4.327790260314941,1.7998327016830444,3.910829782485962,0.32008108496665955,-0.11562857031822205,0.6005712151527405,1.6259191036224365
135,35104,35103,-0.052102040499448776,0.020307594910264015,0.9702791571617126,-10.221352577209473,3.0480620861053467,4.124668121337891,1.801697850227356,3.9111392498016357,0.31981900334358215,-0.19816464185714722,0.4825594425201416,1.660043716430664
136,35114,35113,-0.027927637100219727,0.033511172980070114,0.9615593552589417,-12.487264633178711,4.738602638244629,3.378629446029663,1.801647663116455,3.911173105239868,0.3199354112148285,-0.21763470768928528,0.39676418900489807,1.7006118297576904
137,35124,35123,0.04509131237864494,-0.005272143054753542,0.9238584637641907,-11.644695281982422,4.769405841827393,3.29388427734375,1.8023041486740112,3.9104084968566895,0.32001781463623047,-0.21868287026882172,0.34062618017196655,1.7340917587280273
138,35134,35133,0.024242110550403595,-0.06758299469947815,0.9768247008323669,-8.528038024902344,2.5805561542510986,3.4296765327453613,1.8035037517547607,3.910367250442505,0.32006633281707764,-0.22465384006500244,0.1977798491716385,1.7754110097885132
139,35144,35143,0.020594829693436623,-0.049557823687791824,0.9526519775390625,-4.5667829513549805,0.8178120851516724,3.3649866580963135,1.803658127784729,3.910151481628418,0.32035669684410095,-0.18830078840255737,0.12079346179962158,1.8137911558151245
140,35154,35153,0.005633154418319464,-0.034120041877031326,0.9617117047309875,-1.2421765327453613,-0.6789563298225403,2.4737422466278076,1.8035097122192383,3.9103705883026123,0.3203189969062805,-0.12500357627868652,0.03160656988620758,1.85440993309021
141,35164,35163,-0.02339157462120056,-0.020744487643241882,0.9851019382476807,0.30951154232025146,-0.7303271889686584,1.9141135215759277,1.8054258823394775,3.9106199741363525,0.3201707899570465,-0.20570242404937744,0.004514316562563181,1.8736191987991333
142,35174,35173,0.024353204295039177,-0.08899969607591629,0.9834822416305542,0.002647214103490114,-1.5860639810562134,1.934618592262268,1.8072576522827148,3.9076733589172363,0.3180015981197357,-0.18583941459655762,0.16341987252235413,1.8795384168624878
143,35184,35183,0.005180201958864927,0.051752377301454544,1.0192739963531494,-2.489353656768799,-3.307675838470459,1.4640239477157593,1.8078761100769043,3.907740592956543,0.31775203347206116,-0.16106942296028137,0.1353658139705658,1.8985389471054077
144,35194,35193,0.09840341657400131,0.025203576311469078,0.9134083390235901,-5.381316661834717,-3.1163477897644043,0.8379993438720703,1.8085054159164429,3.9071404933929443,0.317486047744751,-0.14116638898849487,0.06453260779380798,1.9060510396957397
145,35204,35203,0.06710733473300934,-0.001262249075807631,0.9867287278175354,-8.886147499084473,-2.9647746086120605,0.28027820587158203,1.809510350227356,3.906625747680664,0.3167988657951355,-0.12910303473472595,0.022254223003983498,1.9138994216918945
146,35214,35213,0.029918862506747246,-0.08951572328805923,1.0069490671157837,-11.106322288513184,-2.148463726043701,-0.08858431875705719,1.8109993934631348,3.906934976577759,0.3163927495479584,-0.21060879528522491,-0.08467146009206772,1.9111952781677246
147,35224,35223,0.012684103101491928,-0.12540936470031738,0.9834356307983398,-11.602771759033203,-1.6171741485595703,0.16274504363536835,1.8108420372009277,3.9056432247161865,0.31608718633651733,-0.10237239301204681,-0.13633446395397186,1.9115031957626343
148,35234,35233,-0.023605437949299812,-0.13492022454738617,1.0261462926864624,-9.327152252197266,-0.5798660516738892,0.98337721824646,1.8122937679290771,3.9057743549346924,0.31569406390190125,-0.16367726027965546,-0.27705129981040955,1.9105170965194702
149,35244,35243,0.0464891716837883,-0.0592842660844326,0.9635652303695679,-5.465423107147217,-2.061765432357788,1.7134718894958496,1.8124788999557495,3.905829429626465,0.31307023763656616,-0.14927887916564941,-0.3749386668205261,1.9285887479782104
150,35254,35253,0.012612299993634224,-0.04074833542108536,1.013223648071289,-3.065431594848633,-1.3361262083053589,2.026902675628662,1.8134143352508545,3.904920816421509,0.312614768743515,-0.10750137269496918,-0.33181679248809814,1.9460982084274292
151,35264,35263,0.001298378687351942,-0.0051026176661252975,1.0234962701797485,-1.2455044984817505,0.13731956481933594,1.4968290328979492,1.8132649660110474,3.905959367752075,0.3121955394744873,-0.026501361280679703,-0.41555699706077576,1.9727771282196045
152,35274,35273,0.06347472220659256,-0.02264256402850151,1.0330225229263306,-0.37192991375923157,0.7052381038665771,0.7903419137001038,1.8135795593261719,3.904891014099121,0.3146263062953949,0.037332404404878616,-0.3852168917655945,1.9793554544448853
153,35284,35283,-0.02009868249297142,-0.01381863933056593,1.0332889556884766,-0.3016591966152191,1.5800411701202393,-0.018205048516392708,1.8137131929397583,3.904937267303467,0.3143582046031952,-0.002239273162558675,-0.4228435456752777,1.9842846393585205
154,35294,35293,-0.03500339388847351,0.13258343935012817,1.0293675661087036,-2.3078620433807373,5.252690315246582,-0.18910618126392365,1.8148711919784546,3.905189037322998,0.3141223192214966,-0.040723543614149094,-0.45464980602264404,1.9950040578842163
155,35304,35303,-0.019909190014004707,-0.000789256882853806,1.0308805704116821,-3.686892509460449,6.6020379066467285,-0.6814112663269043,1.8152432441711426,3.9043235778808594,0.31459611654281616,-0.137568399310112,-0.4391811490058899,1.9992592334747314
156,35314,35313,0.013547671027481556,0.1042323186993599,1.0310066938400269,-3.3533174991607666,6.863561630249023,-1.5174367427825928,1.8140437602996826,3.9045801162719727,0.31456705927848816,-0.024788489565253258,-0.5230785012245178,1.9866137504577637
157,35324,35323,-0.019122876226902008,-0.05129222944378853,1.0181305408477783,-0.939132809638977,6.320189476013184,-1.4900847673416138,1.8161897659301758,3.9043495655059814,0.3144606053829193,-0.14598743617534637,-0.5887241959571838,1.9648395776748657
158,35334,35333,-0.04899822920560837,0.0010067499242722988,1.0267226696014404,1.4090086221694946,5.895577430725098,-0.9855621457099915,1.8158390522003174,3.904463529586792,0.3144375681877136,-0.2023213505744934,-0.614848792552948,1.9481523036956787
159,35344,35343,0.027683857828378677,-0.05858323723077774,1.0234389305114746,3.0856642723083496,4.8819732666015625,-0.35059547424316406,1.8167510032653809,3.904489517211914,0.3153117895126343,-0.2405850738286972,-0.5997384190559387,1.9395045042037964
160,35354,35353,0.013029010966420174,-0.07614294439554214,1.040551781654358,4.0403289794921875,3.2762858867645264,-0.59309983253479,1.8176963329315186,3.9042489528656006,0.3153262138366699,-0.34146949648857117,-0.5556893944740295,1.9369702339172363
161,35364,35363,0.02742668054997921,-0.09941781312227249,1.0104422569274902,5.4297003746032715,2.328192949295044,-0.5334072709083557,1.8168580532073975,3.90342116355896,0.31546998023986816,-0.2644804120063782,-0.4913671314716339,1.919674277305603
162,35374,35373,0.015718892216682434,-0.0632721558213234,0.9551783800125122,5.259007453918457,2.8171963691711426,-0.32616356015205383,1.816968321800232,3.9031155109405518,0.3119937479496002,-0.27175015211105347,-0.41305679082870483,1.91015625
163,35384,35383,-0.010890280827879906,-0.0388781800866127,0.9585312604904175,5.504714488983154,5.047391891479492,-0.21712139248847961,1.818738579750061,3.9029271602630615,0.3117876350879669,-0.4134174585342407,-0.33212268352508545,1.9136821031570435
164,35394,35393,-0.007575553841888905,-0.009851780720055103,1.0394048690795898,5.075878620147705,7.481208801269531,0.008907570503652096,1.818939447402954,3.902742862701416,0.31164321303367615,-0.4528661072254181,-0.33601251244544983,1.9112900495529175
165,35404,35403,-0.008714267984032631,0.03910047933459282,1.0503959655761719,5.133828163146973,6.107143402099609,0.10962161421775818,1.8195416927337646,3.903635263442993,0.31307318806648254,-0.5083067417144775,-0.3341439366340637,1.9025276899337769
166,35414,35413,-0.01364869438111782,0.12118770182132721,0.9900573492050171,5.3091044425964355,4.341614723205566,0.003646768629550934,1.8198941946029663,3.9019179344177246,0.31306737661361694,-0.5404460430145264,-0.24689210951328278,1.9003305435180664
167,35424,35423,-0.0162758007645607,0.03714132308959961,1.0395618677139282,5.833761215209961,2.5249977111816406,0.7715047597885132,1.8208755254745483,3.902249336242676,0.313129723072052,-0.5481144189834595,-0.2356683313846588,1.898343801498413
168,35434,35433,0.011786635965108871,-0.06035211682319641,0.983253538608551,5.498435974121094,1.4502887725830078,1.4181939363479614,1.8208374977111816,3.902387857437134,0.31321775913238525,-0.5265887379646301,-0.13649794459342957,1.9096143245697021
169,35444,35443,-0.01513694692403078,-0.006041585933417082,1.0151724815368652,5.471594333648682,0.19262579083442688,2.0946524143218994,1.8226348161697388,3.901432752609253,0.3117045760154724,-0.6360469460487366,-0.04843374714255333,1.9246020317077637
170,35454,35453,-0.058038048446178436,0.018973249942064285,0.9791828393936157,4.864964485168457,-0.3362601399421692,2.6692962646484375,1.823517918586731,3.9011032581329346,0.31163981556892395,-0.642447292804718,0.03801003098487854,1.946727991104126
171,35464,35463,-0.036901433020830154,0.014871545135974884,0.9961232542991638,3.4364137649536133,-3.7411551475524902,4.089512348175049,1.8237521648406982,3.9012906551361084,0.31168460845947266,-0.56770259141922,0.03158796578645706,1.9693598747253418
172,35474,35473,-0.07275992631912231,-0.03759485110640526,1.0677310228347778,-1.2962241172790527,-0.31208673119544983,4.838486194610596,1.8255594968795776,3.901872158050537,0.31382158398628235,-0.6156148314476013,0.002270804950967431,2.011338710784912
173,35484,35483,-0.10058043897151947,0.0385439433157444,1.0390651226043701,-3.9001729488372803,-2.8026280403137207,6.0211005210876465,1.826585054397583,3.902332305908203,0.3139514923095703,-0.5875277519226074,-0.009689433500170708,2.0603554248809814
174,35494,35493,-0.059851113706827164,0.10672429949045181,0.9940915107727051,-7.005147933959961,-3.8664891719818115,6.888219356536865,1.8284873962402344,3.9026317596435547,0.3141987919807434,-0.5430645942687988,-0.07572392374277115,2.119985342025757
175,35504,35503,0.053028881549835205,0.026483092457056046,0.9544017314910889,-7.310973644256592,-4.385726451873779,7.22007942199707,1.830514669418335,3.9032645225524902,0.3156006932258606,-0.6235198378562927,-0.11069469898939133,2.204608917236328
176,35514,35513,-0.07496839761734009,-0.01619400456547737,1.051811933517456,-5.1522603034973145,-4.0777974128723145,7.372994899749756,1.829699158668518,3.904088258743286,0.3159933090209961,-0.47641488909721375,-0.2314920425415039,2.2814829349517822
177,35524,35523,-0.11815069615840912,0.02498730644583702,1.0132135152816772,-1.4631612300872803,-3.883662223815918,7.445300579071045,1.8312591314315796,3.9027905464172363,0.3163307309150696,-0.3978002071380615,-0.22302959859371185,2.3408701419830322
178,35534,35533,-0.04170171543955803,0.11887858062982559,0.978432834148407,2.896926164627075,-2.1597535610198975,7.803534030914307,1.8317477703094482,3.9028818607330322,0.31676754355430603,-0.33168697357177734,-0.23584549129009247,2.4148342609405518
179,35544,35543,-0.03685138747096062,0.04014759138226509,1.0170574188232422,5.326321125030518,1.299444556236267,7.5802321434021,1.8339293003082275,3.9025931358337402,0.3170202374458313,-0.4483796954154968,-0.1809670329093933,2.498063325881958
180,35554,35553,-0.020096195861697197,-0.01279506552964449,0.9957542419433594,4.91303014755249,4.847070217132568,7.622586727142334,1.8344284296035767,3.9025003910064697,0.31738969683647156,-0.4198095202445984,-0.1007450744509697,2.5721728801727295
181,35564,35563,-0.057985685765743256,-0.018279729411005974,0.9788061380386353,1.9062732458114624,3.8637046813964844,7.98007869720459,1.836271047592163,3.902104377746582,0.317602276802063,-0.5931731462478638,-0.0314265675842762,2.650233507156372
182,35574,35573,0.06036003679037094,-0.0740765854716301,0.9305052757263184,-1.238952875137329,0.6971246600151062,8.157501220703125,1.8358445167541504,3.9025535583496094,0.31714364886283875,-0.48673775792121887,-0.08141972124576569,2.720937490463257
183,35584,35583,0.02097528614103794,-0.02237725630402565,0.9721287488937378,-1.9520577192306519,-2.0122294425964355,8.167243957519531,1.8362473249435425,3.9037179946899414,0.31741365790367126,-0.41398119926452637,-0.1761077493429184,2.7928130626678467
184,35594,35593,-0.03655446320772171,0.01748606748878956,0.9965047836303711,0.17366814613342285,-2.194556474685669,9.027508735656738,1.8372676372528076,3.9036471843719482,0.3175865113735199,-0.3945976495742798,-0.1945437341928482,2.8739941120147705
185,35604,35603,0.02731548808515072,-0.07890518754720688,0.9454796314239502,4.089119911193848,0.48895716667175293,9.22207260131836,1.8369793891906738,3.903151035308838,0.31451353430747986,-0.278840571641922,-0.0945897325873375,2.970773220062256
186,35614,35613,0.037351228296756744,-0.015646710991859436,0.9244019985198975,8.945061683654785,4.171969890594482,9.473738670349121,1.8384640216827393,3.902555465698242,0.3144000768661499,-0.3742833137512207,-0.00848939549177885,3.059943675994873
187,35624,35623,-0.011918500997126102,-0.05918768048286438,0.9947134256362915,10.821677207946777,7.304834365844727,9.167673110961914,1.8384946584701538,3.9027113914489746,0.31435585021972656,-0.36941275000572205,0.06834479421377182,3.146216869354248
188,35634,35633,-0.09988940507173538,0.018751801922917366,1.0613919496536255,9.535758972167969,10.258745193481445,7.6257853507995605,1.8399474620819092,3.90389347076416,0.3123449981212616,-0.5864765644073486,0.09261197596788406,3.240861415863037
189,35644,35643,-0.007030002772808075,-0.008759178221225739,0.9851260185241699,9.53930950164795,12.702948570251465,6.852900505065918,1.8412847518920898,3.9040310382843018,0.31213030219078064,-0.6758597493171692,0.26949751377105713,3.3256866931915283
190,35654,35653,-0.03138716146349907,0.005105897318571806,0.9985133409500122,9.094221115112305,12.028491973876953,6.838075160980225,1.8418623208999634,3.9051191806793213,0.31193679571151733,-0.7956018447875977,0.2800961434841156,3.3916711807250977
191,35664,35663,-0.046407584100961685,-0.02182895876467228,1.043837070465088,9.274149894714355,3.722156524658203,6.525785446166992,1.8418818712234497,3.903934955596924,0.3118187487125397,-0.8217028975486755,0.447065532207489,3.4558708667755127
192,35674,35673,0.052938226610422134,0.009024920873343945,0.9999485611915588,4.349600315093994,0.6149311065673828,5.028087139129639,1.8431556224822998,3.905285358428955,0.31167104840278625,-0.9165628552436829,0.44942182302474976,3.5199294090270996
193,35684,35683,-0.011205194517970085,-0.09189485013484955,1.0382940769195557,2.1477246284484863,-4.454203128814697,4.51953649520874,1.8433889150619507,3.9049274921417236,0.31151527166366577,-0.9131067991256714,0.5316994786262512,3.5722756385803223
194,35694,35693,0.02700521983206272,-0.1963590383529663,0.9954661726951599,0.4430512487888336,-8.00587272644043,4.138179302215576,1.8430508375167847,3.9054505825042725,0.31153106689453125,-0.7116694450378418,0.5008078217506409,3.6152172088623047
195,35704,35703,0.012521477416157722,0.027317779138684273,0.9656408429145813,-2.3076272010803223,-7.540039539337158,4.039813995361328,1.8442872762680054,3.9059791564941406,0.3122275769710541,-0.7000289559364319,0.5278805494308472,3.6667513847351074
196,35714,35713,-0.09387926757335663,0.084738589823246,1.0558035373687744,-4.343174457550049,-4.919554233551025,3.7085819244384766,1.8443360328674316,3.905169725418091,0.3122553825378418,-0.48912662267684937,0.49514785408973694,3.6854984760284424
197,35724,35723,-0.005269002169370651,-0.0007324378238990903,1.0013923645019531,-5.073550701141357,-0.038445066660642624,4.681736469268799,1.8456770181655884,3.9045259952545166,0.3121536672115326,-0.49847033619880676,0.5069782137870789,3.7175068855285645
198,35734,35733,-0.0816425085067749,0.014149592258036137,1.0151737928390503,-6.084237098693848,4.114127159118652,5.255490303039551,1.8461289405822754,3.9040939807891846,0.3109930157661438,-0.46642932295799255,0.4758799970149994,3.7753121852874756
199,35744,35743,-0.006694392766803503,-0.13798396289348602,1.0501335859298706,-5.728142261505127,4.330345630645752,6.147697448730469,1.8474980592727661,3.9045917987823486,0.31087416410446167,-0.5613759756088257,0.35791435837745667,3.8188600540161133
200,35754,35753,0.029409701004624367,-0.07756968587636948,1.014181137084961,-1.5257669687271118,4.859978675842285,6.211824893951416,1.8483349084854126,3.903855800628662,0.31082549691200256,-0.5728837847709656,0.3522128462791443,3.883565902709961
201,35764,35763,0.07942098379135132,-0.008606227114796638,1.0155775547027588,2.281283378601074,2.9755260944366455,6.242863178253174,1.8498859405517578,3.9033288955688477,0.31072521209716797,-0.673681378364563,0.40332356095314026,3.94732666015625
202,35774,35773,0.01887005940079689,-0.14377832412719727,0.9972574710845947,3.9390366077423096,0.45773306488990784,5.976443290710449,1.8515238761901855,3.902648687362671,0.31068146228790283,-0.7882754802703857,0.43203818798065186,3.993987560272217
203,35784,35783,0.0007827454246580601,-0.04723455756902695,0.9568045139312744,2.5597634315490723,-2.2019829750061035,6.204829216003418,1.8513784408569336,3.903055191040039,0.31072986125946045,-0.6713683009147644,0.41868826746940613,4.056943416595459
204,35794,35793,-0.1462552696466446,0.00815954152494669,1.152647852897644,-0.7607346773147583,-4.212800025939941,6.001703262329102,1.8517087697982788,3.901446580886841,0.31046023964881897,-0.8221782445907593,0.44245174527168274,4.087876796722412
205,35804,35803,-0.07435641437768936,-0.05417769029736519,1.0552241802215576,-4.309831619262695,0.35294607281684875,6.627771377563477,1.8519359827041626,3.9012200832366943,0.3104274272918701,-0.6380417943000793,0.5079682469367981,4.16417932510376
206,35814,35813,-0.057182759046554565,0.02512669749557972,1.0277906656265259,-5.469884872436523,1.9353809356689453,5.876164436340332,1.8536272048950195,3.9006900787353516,0.31048324704170227,-0.7249153256416321,0.4895327091217041,4.22387170791626
207,35824,35823,-0.08442970365285873,-0.03228561952710152,1.0479449033737183,-4.700901031494141,2.5651495456695557,5.060344696044922,1.8547320365905762,3.900402545928955,0.31061097979545593,-0.7596585750579834,0.4341411292552948,4.280195236206055
208,35834,35833,-0.06719524413347244,0.023553594946861267,1.0170384645462036,-2.780322790145874,1.679930329322815,3.9389381408691406,1.854365587234497,3.9004478454589844,0.31028178334236145,-0.7100952863693237,0.3345223665237427,4.332894325256348
209,35844,35843,-0.04684960097074509,0.032077208161354065,1.011438250541687,-2.9029531478881836,0.7686455249786377,2.911865711212158,1.8557616472244263,3.9011940956115723,0.31036534905433655,-0.8074910640716553,0.26598671078681946,4.367101669311523
210,35854,35853,0.026127144694328308,-0.07159672677516937,0.9308874607086182,-1.5086605548858643,0.473566472530365,2.6362357139587402,1.8558679819107056,3.9011051654815674,0.31054815649986267,-0.7965555191040039,0.20988790690898895,4.3928327560424805
211,35864,35863,0.040503669530153275,-0.06721502542495728,0.9340929985046387,-0.7480044960975647,-0.1202683374285698,1.182633876800537,1.8570456504821777,3.8998329639434814,0.30936020612716675,-0.782782256603241,0.32948747277259827,4.4257049560546875
212,35874,35873,0.08482032269239426,-0.029804764315485954,0.9067443609237671,-0.8316388130187988,-2.4996888637542725,0.14021462202072144,1.8570069074630737,3.900973320007324,0.30944618582725525,-0.6541909575462341,0.29894405603408813,4.45067834854126
213,35884,35883,-0.0056467256508767605,-0.034509070217609406,0.9834235310554504,-2.0075950622558594,-3.1960015296936035,-0.07745160162448883,1.858637809753418,3.8988866806030273,0.30928075313568115,-0.6618097424507141,0.41492801904678345,4.456567287445068
214,35894,35893,0.02652674727141857,-0.01580621302127838,0.9632821083068848,-4.167763710021973,-2.9515745639801025,-0.41118550300598145,1.8605512380599976,3.899212598800659,0.30915722250938416,-0.6589295268058777,0.3356925845146179,4.447920322418213
215,35904,35903,-0.0786600112915039,0.06969232112169266,0.9483938217163086,-6.55488920211792,-2.970259189605713,-0.9265128970146179,1.8627595901489258,3.9000253677368164,0.3070008158683777,-0.7574276924133301,0.21460090577602386,4.434441089630127
216,35914,35913,-0.01968560367822647,-0.020565876737236977,0.9863804578781128,-8.365926742553711,-1.4475561380386353,-1.050905466079712,1.8638856410980225,3.900519371032715,0.30674320459365845,-0.699280321598053,0.05609552562236786,4.4227213859558105
217,35924,35923,0.02070646360516548,-0.05678818002343178,0.9628033638000488,-8.132037162780762,1.6074715852737427,-0.6728373169898987,1.864417552947998,3.900646448135376,0.3064388036727905,-0.6561070084571838,-0.030202828347682953,4.405777931213379
218,35934,35933,-0.10592947155237198,-0.039728641510009766,1.0204360485076904,-5.784183979034424,3.2890098094940186,-0.8369753956794739,1.8662339448928833,3.8985822200775146,0.30514591932296753,-0.7400496602058411,0.05659870058298111,4.404644012451172
219,35944,35943,0.003923627082258463,-0.1817871779203415,1.0753453969955444,-5.221622943878174,5.35656213760376,-0.5340793132781982,1.8678054809570312,3.8977174758911133,0.3047589063644409,-0.7783464789390564,-0.0041810679249465466,4.388922214508057
220,35954,35953,0.026359666138887405,-0.20860286056995392,0.9952739477157593,-5.02604341506958,3.104835033416748,-0.8912415504455566,1.8688408136367798,3.8981549739837646,0.30440860986709595,-0.8155848979949951,-0.12477029860019684,4.37767219543457
221,35964,35963,0.00902840681374073,-0.11629108339548111,1.002669334411621,-5.728714942932129,-2.6585960388183594,-0.4320066273212433,1.870066523551941,3.8970117568969727,0.3001742660999298,-0.7959504127502441,-0.08495038002729416,4.377966403961182
222,35974,35973,0.004786432255059481,-0.09010303020477295,1.0425196886062622,-4.52579927444458,-8.14954662322998,-0.4392922818660736,1.8697493076324463,3.8979058265686035,0.2997818887233734,-0.5899703502655029,-0.218825563788414,4.385401248931885
223,35984,35983,-0.0340244397521019,-0.02206437475979328,1.0275254249572754,-2.335096836090088,-13.011917114257812,0.6865788698196411,1.8711007833480835,3.8964622020721436,0.2992601990699768,-0.49011096358299255,-0.16153103113174438,4.382351398468018
224,35994,35993,-0.026217594742774963,-0.1183883398771286,1.0779271125793457,0.8794734477996826,-14.9269380569458,2.0975754261016846,1.8749924898147583,3.8968276977539062,0.29853367805480957,-0.6274775862693787,-0.23713238537311554,4.391155242919922
225,36004,36003,-0.010273401625454426,-0.1195681095123291,1.0160871744155884,4.942567348480225,-14.883580207824707,2.616225481033325,1.8741719722747803,3.896681547164917,0.3013232946395874,-0.29066768288612366,-0.2290220409631729,4.413889408111572
226,36014,36013,0.0047595323994755745,0.05220833793282509,0.9925209283828735,7.642483234405518,-11.433053970336914,2.9764320850372314,1.8732975721359253,3.89585542678833,0.30118438601493835,-0.015062240883708,-0.15751221776008606,4.440524101257324
227,36024,36023,0.01551689300686121,-0.048170071095228195,0.981644332408905,6.890137672424316,-7.253512859344482,3.950841188430786,1.8764851093292236,3.8957841396331787,0.30083730816841125,-0.11876855045557022,-0.05315937474370003,4.475680828094482
228,36034,36033,0.001218354213051498,-0.060772690922021866,1.019584059715271,2.241762638092041,-3.459630012512207,4.8364481925964355,1.8762754201889038,3.895189046859741,0.30110812187194824,0.11396367102861404,0.010277112014591694,4.506957530975342
229,36044,36043,0.05621734634041786,-0.07600241154432297,1.068930745124817,-3.8321595191955566,-1.6003706455230713,5.523889064788818,1.8785985708236694,3.8949997425079346,0.30086037516593933,0.0389728918671608,-0.011353159323334694,4.549732208251953
230,36054,36053,0.02848171815276146,0.07754770666360855,1.0148718357086182,-8.821858406066895,-1.4239888191223145,5.169091701507568,1.879629373550415,3.8953256607055664,0.30071738362312317,0.028771469369530678,-0.12267924845218658,4.604689121246338
231,36064,36063,0.01627378910779953,0.02302895300090313,0.9908058643341064,-13.000770568847656,-3.3379485607147217,6.186192035675049,1.8789581060409546,3.894409418106079,0.30001330375671387,0.10019125044345856,-0.32308506965637207,4.619296073913574
232,36074,36073,0.004999206867069006,-0.1435362994670868,1.0422420501708984,-13.37282943725586,-5.73801851272583,7.364812850952148,1.8814030885696411,3.8933212757110596,0.2997817099094391,-0.028045007959008217,-0.35290592908859253,4.684304714202881
233,36084,36083,-0.06521298736333847,0.04148862510919571,1.0380182266235352,-12.792173385620117,-8.201288223266602,8.509657859802246,1.882781982421875,3.8936219215393066,0.29967546463012695,0.030959181487560272,-0.533505380153656,4.759306907653809
234,36094,36093,-0.037866394966840744,0.0005711497506126761,1.051367163658142,-11.065140724182129,-13.273842811584473,9.431516647338867,1.882795810699463,3.893599033355713,0.2976442873477936,0.15909752249717712,-0.7709125876426697,4.762916088104248
235,36104,36103,-0.058937449008226395,0.022905297577381134,0.9532463550567627,-11.296850204467773,-17.435359954833984,10.030545234680176,1.8857696056365967,3.890268325805664,0.2976449728012085,0.3693757951259613,-0.6529403328895569,4.870664596557617
236,36114,36113,-0.04115953668951988,0.03495334833860397,1.0321396589279175,-11.561917304992676,-17.029447555541992,10.585980415344238,1.8848869800567627,3.8914740085601807,0.29753610491752625,0.6352636218070984,-0.7266541719436646,5.0281853675842285
237,36124,36123,-0.13655760884284973,0.06377720832824707,1.0619301795959473,-9.691073417663574,-13.905817031860352,9.887962341308594,1.886844515800476,3.8926267623901367,0.29735350608825684,0.7183218598365784,-0.9508287906646729,5.150918006896973
238,36134,36133,-0.05262457951903343,0.09291235357522964,1.0527936220169067,-7.532454013824463,-8.649750709533691,10.363950729370117,1.8904649019241333,3.8926124572753906,0.2963344156742096,0.6574463248252869,-1.0600643157958984,5.2710113525390625
239,36144,36143,-0.14212574064731598,0.11847864836454391,1.0888668298721313,-5.991250514984131,-7.550346851348877,9.207721710205078,1.8907268047332764,3.8919332027435303,0.29640477895736694,0.8793063163757324,-1.0339511632919312,5.34316873550415
