,timestamp_start,timestamp_end,acc.x,acc.y,acc.z,gyro.x,gyro.y,gyro.z,stateEstimate.x,stateEstimate.y,stateEstimate.z,stabilizer.pitch,stabilizer.roll,stabilizer.yaw
0,30031,30023,0.0020842819940298796,0.13085907697677612,1.0572062730789185,-6.887716293334961,4.775856018066406,1.5119000673294067,1.8279191255569458,3.891345500946045,0.16368897259235382,-0.3840096592903137,-0.2048591524362564,0.8397288918495178
1,30041,30033,0.026925021782517433,-0.031839825212955475,1.1126972436904907,-5.377609729766846,6.126935958862305,1.368433952331543,1.827880620956421,3.891108751296997,0.16518479585647583,-0.3145010471343994,-0.09989812970161438,0.8748196959495544
2,30051,30043,0.025494443252682686,-0.02070101723074913,1.1220018863677979,-2.343937397003174,2.0279629230499268,1.3362716436386108,1.8266613483428955,3.889443874359131,0.16688451170921326,-0.4480127990245819,-0.19413010776042938,0.8771637082099915
3,30061,30053,0.004821898881345987,-0.004206902347505093,1.130948543548584,1.1297211647033691,0.789725661277771,1.3527820110321045,1.825856328010559,3.8907153606414795,0.168671652674675,-0.45900705456733704,-0.1524476408958435,0.8955687880516052
4,30071,30063,0.02000974304974079,-0.04826247692108154,1.0707335472106934,2.4973626136779785,-1.289533019065857,1.9437406063079834,1.8271443843841553,3.892015218734741,0.17044158279895782,-0.5087230205535889,-0.22437170147895813,0.8983544707298279
5,30081,30073,0.034419767558574677,-0.0592690110206604,1.1014021635055542,3.4262807369232178,-0.7960977554321289,1.6646955013275146,1.8277443647384644,3.8925607204437256,0.17239214479923248,-0.4753095805644989,-0.19353246688842773,0.9172764420509338
6,30091,30083,0.006729202810674906,-0.0021006690803915262,1.1323719024658203,3.4151053428649902,-0.24850235879421234,1.7344489097595215,1.8261826038360596,3.891768217086792,0.1732160598039627,-0.5246370434761047,-0.08794521540403366,0.9440930485725403
7,30101,30093,0.028331616893410683,0.03333333134651184,1.0817540884017944,2.7747373580932617,-1.9216814041137695,1.4458293914794922,1.82982337474823,3.8960437774658203,0.17525096237659454,0.006203984841704369,-0.41274961829185486,0.9291445016860962
8,30111,30103,0.0028372027445584536,0.026697853580117226,1.1227725744247437,1.8112387657165527,-6.003775119781494,0.9994490146636963,1.8234899044036865,3.900583505630493,0.17765435576438904,-0.041769854724407196,-0.2795710563659668,0.9539456963539124
9,30121,30113,0.01972314342856407,-0.0633382499217987,1.0790200233459473,1.0919519662857056,-0.5037315487861633,1.5388506650924683,1.8237881660461426,3.900811195373535,0.17899812757968903,-0.16828718781471252,-0.24267572164535522,0.9635581970214844
10,30131,30123,0.004113031551241875,-0.02168562076985836,1.0839115381240845,1.4946542978286743,8.187859535217285,1.644588589668274,1.8221707344055176,3.903177261352539,0.18165402114391327,-0.12533603608608246,-0.20888450741767883,0.9815664291381836
11,30141,30133,0.026571812108159065,-0.06563623994588852,1.02500581741333,2.766359567642212,12.456491470336914,1.7751507759094238,1.8218175172805786,3.9046030044555664,0.1839858442544937,-0.258854478597641,-0.16222494840621948,0.9994066953659058
12,30151,30143,0.014745686203241348,0.020791487768292427,1.0558103322982788,3.8507184982299805,13.656697273254395,1.706689476966858,1.8223708868026733,3.905916452407837,0.1864858865737915,-0.5572548508644104,-0.16916592419147491,1.0073806047439575
13,30161,30153,0.010317773558199406,-0.05726746469736099,1.0256611108779907,5.294198989868164,8.374759674072266,2.1391360759735107,1.8244088888168335,3.9066195487976074,0.18930138647556305,-0.7141193151473999,-0.08162488788366318,1.0297549962997437
14,30171,30163,-0.005622535478323698,-0.059742748737335205,1.0566651821136475,5.173271179199219,6.550684452056885,2.318066120147705,1.823858380317688,3.9068479537963867,0.1918814480304718,-0.8194065690040588,0.07709740102291107,1.069239854812622
15,30181,30173,0.008283741772174835,-0.06292308121919632,0.9991308450698853,3.8297441005706787,0.7522994875907898,1.9301284551620483,1.824109435081482,3.9060423374176025,0.1944713443517685,-0.36050036549568176,-0.2723843455314636,1.0436183214187622
16,30191,30183,0.01715555600821972,-0.0070134918205440044,1.0216540098190308,2.4593071937561035,-4.012344837188721,2.068434715270996,1.8206682205200195,3.9083685874938965,0.1972028762102127,-0.3529742956161499,-0.23776111006736755,1.0630289316177368
17,30201,30193,0.005965221207588911,-0.006354820914566517,1.0146766901016235,0.6374215483665466,-6.805050373077393,1.81816565990448,1.818448781967163,3.909151792526245,0.19988472759723663,-0.3262806832790375,-0.11544448137283325,1.0988092422485352
18,30211,30203,0.020266570150852203,-0.006815224885940552,0.9971988201141357,1.8597779273986816,-4.967409133911133,2.1421968936920166,1.8182144165039062,3.9104206562042236,0.20281362533569336,-0.4065665006637573,-0.057414986193180084,1.121938943862915
19,30221,30213,-0.007590352091938257,0.025475727394223213,1.0238343477249146,2.871023416519165,2.244255304336548,2.559638261795044,1.8182449340820312,3.9099621772766113,0.20420624315738678,-0.5521748065948486,0.07790850847959518,1.1569881439208984
20,30231,30223,0.006005361210554838,-0.005092783831059933,0.9870140552520752,4.5150227546691895,7.293402194976807,2.4905459880828857,1.8189860582351685,3.9094033241271973,0.20699971914291382,-0.8354955315589905,0.15397965908050537,1.1793683767318726
21,30241,30233,-0.03730958327651024,0.08108794689178467,0.9733476638793945,3.90750789642334,9.923649787902832,2.468384027481079,1.8215610980987549,3.9095299243927,0.20961232483386993,-0.514594554901123,0.01812215894460678,1.192107081413269
22,30251,30243,-0.02909836731851101,0.10135185718536377,0.9351522922515869,3.574394941329956,8.695440292358398,2.696579694747925,1.8175292015075684,3.9099478721618652,0.2129591852426529,-0.6116507053375244,0.056978989392519,1.2175716161727905
23,30261,30253,-0.0036985615734010935,0.0760420635342598,0.8977203369140625,2.2328524589538574,5.58814811706543,2.5754950046539307,1.8169403076171875,3.910332202911377,0.2146124392747879,-0.8440954089164734,0.1686163991689682,1.2501672506332397
24,30271,30263,-0.004622753243893385,-0.09752450883388519,0.971023440361023,1.2226871252059937,3.250295877456665,2.471409559249878,1.8167364597320557,3.91001296043396,0.21713687479496002,-0.9645922183990479,0.07428106665611267,1.254603385925293
25,30281,30273,0.009028594009578228,-0.05352006107568741,0.944483757019043,0.7314727306365967,0.5738078951835632,2.947585105895996,1.8169419765472412,3.9110283851623535,0.2195584625005722,-0.7528844475746155,-0.44161221385002136,1.2065764665603638
26,30291,30283,0.04280625283718109,-0.14754703640937805,0.9249387979507446,1.6152318716049194,-3.006026029586792,3.0551812648773193,1.8153027296066284,3.913763999938965,0.22369366884231567,-1.0102152824401855,-0.03925469145178795,1.291611671447754
27,30301,30293,0.034149881452322006,-0.19849710166454315,0.9532793760299683,7.326300621032715,-4.7148966789245605,2.6534860134124756,1.8175657987594604,3.912137985229492,0.22741733491420746,-0.6236431002616882,-0.4769042730331421,1.2551807165145874
28,30311,30303,0.019047746434807777,-0.22409050166606903,0.9686338305473328,12.530795097351074,-4.59014368057251,2.6000051498413086,1.8153481483459473,3.9153850078582764,0.229737788438797,-0.6154494881629944,-0.1780015230178833,1.3146533966064453
29,30321,30313,0.005269153509289026,-0.07267245650291443,0.9485368132591248,17.764183044433594,-3.7059221267700195,2.3885369300842285,1.815545916557312,3.9151885509490967,0.2326744794845581,-0.687871515750885,0.1683008223772049,1.3702653646469116
30,30331,30323,0.003919178154319525,-0.02588464878499508,0.9327915906906128,20.547651290893555,-0.32236266136169434,2.221411943435669,1.8155900239944458,3.9142401218414307,0.23536689579486847,-0.7849845886230469,0.4119013845920563,1.3975834846496582
31,30341,30333,-0.008317495696246624,-0.12365139275789261,0.9408290386199951,19.009559631347656,2.3831450939178467,1.6701738834381104,1.8147318363189697,3.9141385555267334,0.2377331405878067,-0.843892514705658,0.7931933999061584,1.4441622495651245
32,30351,30343,-0.006987476721405983,-0.11469632387161255,0.9360095262527466,14.193310737609863,2.2041194438934326,1.5196422338485718,1.8145371675491333,3.9121651649475098,0.23998641967773438,-0.9093899130821228,0.9451045393943787,1.4555449485778809
33,30361,30353,0.010935318656265736,-0.03865784779191017,0.9161086082458496,5.872978210449219,2.1215531826019287,1.1833536624908447,1.8119059801101685,3.9122676849365234,0.24216464161872864,-0.9673203825950623,1.1283388137817383,1.4804027080535889
34,30371,30363,0.053816553205251694,-0.051652245223522186,0.891274631023407,-2.6546566486358643,-0.9990155696868896,1.0449309349060059,1.8108023405075073,3.9099056720733643,0.24422624707221985,-1.0556834936141968,1.1570308208465576,1.486836552619934
35,30381,30373,0.02170521952211857,-0.017372963950037956,0.9298974871635437,-8.085766792297363,-4.517216205596924,0.44962140917778015,1.8081995248794556,3.9104228019714355,0.24616976082324982,-1.0074028968811035,1.1475993394851685,1.506432056427002
36,30391,30383,-0.006391276139765978,0.10956975072622299,0.8917651772499084,-11.454232215881348,-8.290048599243164,0.5760791897773743,1.8086780309677124,3.9104812145233154,0.24663475155830383,-0.8967156410217285,1.2807695865631104,1.5574196577072144
37,30401,30393,-0.04508111998438835,0.04355049878358841,0.9343622326850891,-13.342944145202637,-8.88774585723877,1.1992937326431274,1.8067355155944824,3.910688877105713,0.2483510971069336,-0.8044201731681824,1.1415300369262695,1.5661430358886719
38,30411,30403,0.007809803821146488,-0.1747974157333374,0.9395778775215149,-13.131163597106934,-9.511056900024414,1.1304373741149902,1.807922124862671,3.9126172065734863,0.25043755769729614,-0.6562394499778748,0.8979501724243164,1.5634208917617798
39,30421,30413,0.023969892412424088,-0.2600327134132385,0.9290518760681152,-11.051279067993164,-8.306193351745605,0.971869707107544,1.8122437000274658,3.9115052223205566,0.25592461228370667,-1.0795676708221436,0.865578830242157,1.5170530080795288
40,30431,30423,-0.0019572607707232237,-0.22986456751823425,0.9267848134040833,-9.523016929626465,-9.051353454589844,1.3166457414627075,1.8141906261444092,3.912446975708008,0.25779345631599426,-0.9567415714263916,0.7489404678344727,1.5308157205581665
41,30441,30433,-0.015952233225107193,-0.1937422901391983,0.9138408303260803,-8.365811347961426,-11.744451522827148,0.7911545038223267,1.8156163692474365,3.9130020141601562,0.2595900893211365,-0.8751986622810364,0.7998762726783752,1.5619027614593506
42,30451,30443,-0.025410665199160576,-0.13358980417251587,0.902853786945343,-7.390644073486328,-13.497773170471191,1.1739954948425293,1.8162707090377808,3.9115395545959473,0.2611348032951355,-0.7467951774597168,0.7215425372123718,1.5700057744979858
43,30461,30453,0.002908232156187296,-0.0904272049665451,0.8775008320808411,-6.693584442138672,-15.137521743774414,1.6709266901016235,1.8184053897857666,3.913180112838745,0.26300862431526184,-0.6715513467788696,0.5655982494354248,1.5558233261108398
44,30471,30463,0.039698872715234756,-0.08102580159902573,0.8703674077987671,-6.475549221038818,-16.729219436645508,1.4390788078308105,1.818686604499817,3.9151060581207275,0.26458173990249634,-0.5438511967658997,0.4911006987094879,1.5643330812454224
45,30481,30473,0.049191027879714966,-0.10695412755012512,0.8856507539749146,-6.39007043838501,-17.073360443115234,1.5695536136627197,1.8220717906951904,3.9162557125091553,0.26582035422325134,-0.48784783482551575,0.5720139145851135,1.585740566253662
46,30491,30483,0.014447526074945927,-0.027196036651730537,0.9371675848960876,-6.841818332672119,-14.95309829711914,2.230212926864624,1.8245066404342651,3.916564702987671,0.2691084146499634,-0.328040212392807,0.505797803401947,1.602834939956665
47,30501,30493,0.028753234073519707,-0.13513153791427612,0.9257506132125854,-7.782057285308838,-13.637038230895996,1.7804805040359497,1.8269433975219727,3.9178664684295654,0.27040642499923706,-0.1499137133359909,0.4086696207523346,1.6210157871246338
48,30511,30503,0.012845738790929317,-0.060323573648929596,0.9540935158729553,-9.11289119720459,-13.176140785217285,1.5347483158111572,1.8284937143325806,3.9169270992279053,0.27150964736938477,-0.0733332559466362,0.446199893951416,1.643848180770874
49,30521,30513,-0.021753935143351555,-0.1626332551240921,0.9754413366317749,-10.838799476623535,-12.402947425842285,1.1565744876861572,1.829358458518982,3.918954372406006,0.275035560131073,0.22230511903762817,0.2945502698421478,1.670396089553833
50,30531,30523,-0.04254520684480667,-0.24150829017162323,0.9781363606452942,-11.343364715576172,-10.635773658752441,1.2197866439819336,1.8309826850891113,3.9192869663238525,0.27631253004074097,0.2558652460575104,0.04335414990782738,1.6592243909835815
51,30541,30533,-0.056376732885837555,-0.22385182976722717,0.9609535932540894,-10.526715278625488,-8.582045555114746,1.4703083038330078,1.8328579664230347,3.9177441596984863,0.27740558981895447,0.1877765953540802,0.11312340199947357,1.6698939800262451
52,30551,30543,-0.06244673207402229,-0.1414826214313507,0.9368488192558289,-9.865710258483887,-9.112601280212402,1.9337214231491089,1.8353222608566284,3.9179346561431885,0.2797366976737976,0.1983177661895752,-0.04840824380517006,1.674704909324646
53,30561,30553,-0.009091385640203953,-0.028376739472150803,0.9464611411094666,-8.508027076721191,-11.612706184387207,1.9233242273330688,1.8353039026260376,3.9176764488220215,0.2809685170650482,0.3951004445552826,-0.11218295246362686,1.7027783393859863
54,30571,30563,0.0029211570508778095,0.013407992199063301,0.9685990214347839,-6.718911170959473,-13.70278263092041,2.3310649394989014,1.8366674184799194,3.9168734550476074,0.2820810377597809,0.47010892629623413,-0.15469790995121002,1.7208342552185059
55,30581,30573,0.002726366277784109,0.010338285006582737,0.9674715995788574,-6.344028472900391,-15.802478790283203,2.9417436122894287,1.836951732635498,3.9168381690979004,0.2832113206386566,0.6578471660614014,-0.3301471769809723,1.7470859289169312
56,30591,30583,0.024298693984746933,-0.14375519752502441,0.9660165309906006,-4.659024238586426,-16.22783088684082,3.1060266494750977,1.8362820148468018,3.913900852203369,0.28203728795051575,0.8600038886070251,-0.1732889711856842,1.7790112495422363
57,30601,30593,0.002080207224935293,-0.21143199503421783,1.0032691955566406,-4.1744818687438965,-11.476762771606445,2.595672607421875,1.8369947671890259,3.9143195152282715,0.28298020362854004,1.0363084077835083,-0.32512158155441284,1.8110744953155518
58,30611,30603,0.0044417791068553925,-0.06036004796624184,0.9608067274093628,-4.9683451652526855,-11.454363822937012,3.0186243057250977,1.8384684324264526,3.915402412414551,0.2838808298110962,1.0702810287475586,-0.4707510769367218,1.8407365083694458
59,30621,30613,-0.01619558222591877,-0.14384618401527405,0.9738454818725586,-5.083364009857178,-7.558652400970459,2.6787636280059814,1.8371628522872925,3.914194345474243,0.28546443581581116,1.2296572923660278,-0.4574693441390991,1.8667949438095093
60,30631,30623,-0.04501470550894737,-0.16575035452842712,0.9915603995323181,-5.610770225524902,-1.639304280281067,2.577211380004883,1.837793231010437,3.913818597793579,0.28632253408432007,1.1553988456726074,-0.5490744113922119,1.8959225416183472
61,30641,30633,-0.037058275192976,-0.03777475655078888,1.0044053792953491,-5.721584796905518,-0.10294555127620697,3.1471734046936035,1.840022087097168,3.91438627243042,0.28719979524612427,1.162996530532837,-0.6071783304214478,1.9234973192214966
62,30651,30643,-0.015244757756590843,-0.010569683276116848,0.9683108329772949,-5.288397312164307,-0.5600380897521973,2.8545451164245605,1.839996337890625,3.913499593734741,0.28801068663597107,1.2507908344268799,-0.6001229882240295,1.9457073211669922
63,30661,30653,0.009573678486049175,-0.013164660893380642,0.9511014223098755,-4.440889358520508,-2.0651695728302,3.3434317111968994,1.8398631811141968,3.913949966430664,0.28886452317237854,1.3410117626190186,-0.7449582815170288,1.9870628118515015
64,30671,30663,0.026924075558781624,-0.032077230513095856,0.9439625144004822,-2.857614755630493,-4.940292835235596,3.4268999099731445,1.8394278287887573,3.9140682220458984,0.2896440327167511,1.3788363933563232,-0.6971301436424255,2.008831024169922
65,30681,30673,0.0015334440395236015,-0.04083707183599472,1.0079224109649658,-0.5572255849838257,-3.958101987838745,3.386183738708496,1.840718150138855,3.9126946926116943,0.2903934419155121,1.4149714708328247,-0.7113818526268005,2.0435898303985596
66,30691,30683,0.0031869136728346348,-0.05541929975152016,0.9973931312561035,-0.026727084070444107,-2.438405752182007,3.246755361557007,1.8401718139648438,3.9105567932128906,0.2926512360572815,1.5205676555633545,-0.6215892434120178,2.057486057281494
67,30701,30693,-0.009631247259676456,0.011665208265185356,0.9804624915122986,-0.782381534576416,1.1348135471343994,3.1157195568084717,1.8409979343414307,3.9104185104370117,0.2935178279876709,1.5011615753173828,-0.6931042671203613,2.102168083190918
68,30711,30703,0.006563836708664894,0.09010659158229828,0.9225674271583557,-2.980329751968384,4.675912857055664,3.4746081829071045,1.841862440109253,3.909809112548828,0.2942952513694763,1.4323277473449707,-0.7003906965255737,2.135495662689209
69,30721,30713,0.02733309380710125,0.13758403062820435,0.9120538830757141,-4.464376926422119,5.800739288330078,3.239368438720703,1.8421449661254883,3.9100687503814697,0.2949037551879883,1.393401861190796,-0.8185585141181946,2.1821091175079346
70,30731,30723,0.040646422654390335,0.12890082597732544,0.9455357193946838,-4.906489849090576,5.049388408660889,2.5611796379089355,1.8427255153656006,3.9091544151306152,0.29553520679473877,1.2770782709121704,-0.7133879065513611,2.1831936836242676
71,30741,30733,0.030688975006341934,-0.004581055138260126,0.9459439516067505,-3.75516676902771,3.7335522174835205,2.386791706085205,1.8426470756530762,3.9068546295166016,0.29609936475753784,1.2299100160598755,-0.7562899589538574,2.2072532176971436
72,30751,30743,-0.006901445798575878,-0.0988771915435791,0.9430708289146423,-3.1296496391296387,0.6109336018562317,1.7745391130447388,1.8429275751113892,3.907345771789551,0.29640570282936096,1.2561922073364258,-0.8685340881347656,2.240023612976074
73,30761,30753,-0.04820677638053894,-0.034557782113552094,0.9495213031768799,-3.9974844455718994,0.8477126955986023,2.5210647583007812,1.844316005706787,3.907458782196045,0.2968892753124237,1.270546555519104,-0.902911365032196,2.259310007095337
74,30771,30763,-0.003335000481456518,-0.017912844195961952,0.9437276124954224,-1.4340170621871948,0.09181104600429535,1.7981486320495605,1.8443807363510132,3.906991481781006,0.2973063588142395,1.2940831184387207,-0.9866902232170105,2.289353847503662
75,30781,30773,-0.005421746987849474,0.011297749355435371,0.983458936214447,-2.383885383605957,0.2020619958639145,2.243048906326294,1.843998908996582,3.906914710998535,0.2977006435394287,1.2778769731521606,-1.003024935722351,2.3035993576049805
76,30791,30783,-0.0316314771771431,0.16480515897274017,0.9383829832077026,-2.0496208667755127,0.7821580171585083,2.0381531715393066,1.8447977304458618,3.9060425758361816,0.29950109124183655,1.2998543977737427,-0.9868673086166382,2.314760684967041
77,30801,30793,-0.0034104594960808754,0.017007585614919662,0.9882032871246338,-1.039474368095398,2.8773677349090576,1.355074405670166,1.8460665941238403,3.906987428665161,0.2998873293399811,1.2719930410385132,-1.0490269660949707,2.340144395828247
78,30811,30803,-0.00904317107051611,0.004958122968673706,0.9995085597038269,-1.2508991956710815,9.399721145629883,0.8059731721878052,1.8461610078811646,3.907195806503296,0.30023854970932007,1.3184658288955688,-1.0214869976043701,2.331744909286499
79,30821,30813,0.05417963117361069,-0.05276140198111534,0.9823390245437622,0.1725572794675827,7.4133100509643555,0.8262644410133362,1.8440994024276733,3.906557083129883,0.29873526096343994,1.113124966621399,-1.0567103624343872,2.3603599071502686
80,30831,30823,0.024370798841118813,-0.027057399973273277,1.0096163749694824,0.5654240250587463,7.66854190826416,0.4939562678337097,1.8448301553726196,3.9076216220855713,0.29898515343666077,0.9952715039253235,-1.0031530857086182,2.3602890968322754
81,30841,30833,0.001976750325411558,0.006953934673219919,0.9892410635948181,1.5012142658233643,9.76014232635498,-0.4807652533054352,1.8435816764831543,3.904989004135132,0.2991909682750702,0.9305940270423889,-1.0173004865646362,2.36212158203125
82,30851,30843,0.025489874184131622,-0.09069933742284775,0.9325413107872009,1.0552752017974854,6.841965675354004,-0.19276924431324005,1.8425854444503784,3.906036615371704,0.2982618808746338,0.8099890947341919,-1.02457857131958,2.3654611110687256
83,30861,30853,0.0013855628203600645,-0.05313772335648537,0.9248133897781372,0.6619722247123718,3.741379499435425,0.2750900387763977,1.8416591882705688,3.905730724334717,0.29837092757225037,0.7653126120567322,-1.0333714485168457,2.37265682220459
84,30871,30863,0.0006813649088144302,-0.016048789024353027,1.0053571462631226,1.422298789024353,2.320253610610962,0.07371065020561218,1.8414133787155151,3.9068667888641357,0.29838570952415466,0.7545411586761475,-1.0174063444137573,2.3748481273651123
85,30881,30873,-0.019930114969611168,0.0369005911052227,0.9632890820503235,0.6441045999526978,4.9021315574646,1.2307709455490112,1.8403912782669067,3.9062843322753906,0.30032169818878174,0.7961715459823608,-1.017057180404663,2.373070240020752
86,30891,30883,-0.005199164617806673,0.015297341160476208,0.992540717124939,1.1434988975524902,12.449143409729004,1.338895320892334,1.8410428762435913,3.908287763595581,0.3004663288593292,0.7522311806678772,-1.0143758058547974,2.380897045135498
87,30901,30893,0.07111702859401703,-0.12194565683603287,0.9773615002632141,1.3267712593078613,20.28437042236328,0.7495160698890686,1.8413169384002686,3.9080097675323486,0.3005844056606293,0.5718123316764832,-1.0002750158309937,2.389968156814575
88,30911,30903,-0.005806157365441322,-0.011595194227993488,1.0410573482513428,3.6128926277160645,26.20758819580078,-0.0014531392371281981,1.841896653175354,3.907890558242798,0.30069097876548767,0.2599540948867798,-0.9084902405738831,2.387571334838867
89,30921,30913,0.030171673744916916,-0.06321520358324051,0.9503589272499084,3.9493930339813232,32.820648193359375,-0.5073570013046265,1.843140721321106,3.908663272857666,0.2987257242202759,-0.05434055253863335,-0.8683282732963562,2.3850526809692383
90,30931,30923,0.02020297572016716,0.11533752828836441,0.9889543056488037,2.728466749191284,28.3864688873291,0.030529171228408813,1.8406099081039429,3.9076759815216064,0.2987520396709442,-0.2623741924762726,-0.828948438167572,2.366363048553467
91,30941,30933,0.024454902857542038,0.01700376532971859,0.9757147431373596,2.3421576023101807,23.806819915771484,-0.2969423830509186,1.841483473777771,3.9087398052215576,0.2986788749694824,-0.5582595467567444,-0.8719416856765747,2.373948097229004
92,30951,30943,8.104978769551963e-05,-0.00966385193169117,1.0061696767807007,1.618795394897461,18.12000846862793,-0.4425113797187805,1.8416551351547241,3.9091739654541016,0.29799988865852356,-0.7713803648948669,-0.9211931228637695,2.373058319091797
93,30961,30953,0.03870140388607979,-0.03513944149017334,1.0024755001068115,3.150052547454834,10.980466842651367,0.643661379814148,1.841541051864624,3.9112679958343506,0.29797255992889404,-0.7947660684585571,-0.956136167049408,2.3604891300201416
94,30971,30963,0.005332374945282936,-0.02230255678296089,1.0236769914627075,5.99822473526001,6.139822006225586,0.998299777507782,1.8425151109695435,3.912677764892578,0.29784873127937317,-0.878189206123352,-0.9517509341239929,2.369250535964966
95,30981,30973,-0.009933596476912498,0.014778263866901398,1.034560203552246,8.272812843322754,4.595309734344482,0.7835910320281982,1.8433462381362915,3.913130521774292,0.2957296669483185,-0.982685387134552,-0.8236313462257385,2.3838908672332764
96,30991,30983,0.03867129608988762,-0.05877253785729408,0.9705760478973389,9.620849609375,4.713897228240967,1.430080771446228,1.8442500829696655,3.914536237716675,0.2956007122993469,-0.9914978742599487,-0.6592081189155579,2.3922877311706543
97,31001,30993,-0.014064816758036613,0.025045190006494522,1.061658263206482,6.982641696929932,7.831588268280029,1.4181935787200928,1.844253420829773,3.9135916233062744,0.29544883966445923,-1.0231482982635498,-0.5066364407539368,2.404780149459839
98,31011,31003,0.007250658702105284,-0.04239986836910248,0.9948519468307495,3.820265054702759,10.553794860839844,0.6281237602233887,1.8451658487319946,3.9156105518341064,0.2952774465084076,-1.1689883470535278,-0.552163302898407,2.4121828079223633
99,31021,31013,0.009218511171638966,-0.01508550625294447,1.0274379253387451,2.8187882900238037,11.919088363647461,0.6400848627090454,1.844191312789917,3.9153125286102295,0.29577377438545227,-1.200402021408081,-0.48433390259742737,2.414093017578125
100,31031,31023,-0.02012871950864792,0.003065459430217743,1.0385468006134033,1.1173934936523438,13.00179386138916,-0.006578392814844847,1.8439337015151978,3.914557695388794,0.29569607973098755,-1.407881498336792,-0.44464239478111267,2.4294731616973877
101,31041,31033,0.03668118640780449,-0.04789821058511734,0.9913267493247986,1.374271035194397,11.680370330810547,-0.07598277181386948,1.8432896137237549,3.9144701957702637,0.2956974506378174,-1.4534516334533691,-0.41798126697540283,2.4246771335601807
102,31051,31043,-0.0009014217066578567,-0.01811148039996624,1.032884955406189,2.0575692653656006,7.344980716705322,0.31773626804351807,1.842726469039917,3.914156675338745,0.2954562306404114,-1.4784013032913208,-0.3867412209510803,2.421464204788208
103,31061,31053,0.014931685291230679,-0.027478836476802826,1.0052353143692017,2.867338180541992,8.313047409057617,0.16786576807498932,1.8442444801330566,3.9152772426605225,0.2953849732875824,-1.6202958822250366,-0.33898597955703735,2.4285171031951904
104,31071,31063,-0.0003772806085180491,-0.05537164583802223,1.0157454013824463,3.61796498298645,6.729231834411621,-0.1523282527923584,1.8433953523635864,3.915804386138916,0.2954402267932892,-1.6047813892364502,-0.35647159814834595,2.4124672412872314
105,31081,31073,0.0383807010948658,-0.020406462252140045,1.0164629220962524,3.5157604217529297,5.611812114715576,-0.29935017228126526,1.8423479795455933,3.9154882431030273,0.29527390003204346,-1.7168869972229004,-0.36122339963912964,2.403103828430176
106,31091,31083,-0.013078173622488976,-0.010566772893071175,1.0308468341827393,3.895995616912842,3.6419026851654053,-0.23033185303211212,1.842129111289978,3.915315866470337,0.2953128218650818,-1.7156202793121338,-0.2865457534790039,2.4055535793304443
107,31101,31093,0.0074244216084480286,-0.034601129591464996,1.0378063917160034,3.810781240463257,2.826228141784668,-0.3407920002937317,1.8420100212097168,3.9161431789398193,0.2953338921070099,-1.76304030418396,-0.3598092794418335,2.3778939247131348
108,31111,31103,0.025912191718816757,-0.02553231455385685,1.0028685331344604,4.363899230957031,2.5804450511932373,-0.517699658870697,1.8411206007003784,3.915313959121704,0.2954302132129669,-1.7991960048675537,-0.2696370780467987,2.3819634914398193
109,31121,31113,-0.014272061176598072,-0.01738470420241356,1.0102728605270386,5.722705841064453,4.41448974609375,-0.5246660709381104,1.8414254188537598,3.915785312652588,0.29566723108291626,-1.824286699295044,-0.24278266727924347,2.3712332248687744
110,31131,31123,0.03409856557846069,-0.030233288183808327,0.9283518195152283,6.440897464752197,-0.7243430614471436,0.004667582456022501,1.8430426120758057,3.916293144226074,0.29565176367759705,-1.990949034690857,-0.1964329332113266,2.3707025051116943
111,31141,31133,0.027936797589063644,-0.0027954683173447847,1.015169620513916,7.304591178894043,-3.0309064388275146,0.2211856096982956,1.8432199954986572,3.915694236755371,0.29581528902053833,-1.9393315315246582,-0.06120866537094116,2.3898723125457764
112,31151,31143,-0.007526136003434658,-0.039048440754413605,1.01688814163208,7.734404563903809,-7.4470391273498535,0.751404881477356,1.8429383039474487,3.9155654907226562,0.2995053231716156,-1.839719295501709,0.07652822136878967,2.41310453414917
113,31161,31153,-0.027372082695364952,0.08253888785839081,1.0514230728149414,4.089059829711914,-4.360897541046143,1.2618309259414673,1.843607783317566,3.9169259071350098,0.2998124659061432,-1.7850594520568848,0.11858750134706497,2.4169836044311523
114,31171,31163,-0.03334740176796913,0.1359974592924118,0.9989376664161682,0.8907859921455383,-3.485507011413574,1.1858164072036743,1.8438059091567993,3.916867256164551,0.3001258075237274,-1.7558196783065796,0.10363084822893143,2.416548728942871
115,31181,31173,-0.004901538603007793,0.04559873789548874,1.0291163921356201,-1.0607268810272217,-3.2684803009033203,1.5489826202392578,1.8440334796905518,3.9169085025787354,0.3010632395744324,-1.737221121788025,0.12807439267635345,2.4372949600219727
116,31191,31183,0.018649334087967873,-0.09243922680616379,1.0065207481384277,-1.6948468685150146,-2.2697196006774902,1.7699546813964844,1.8436763286590576,3.9166126251220703,0.30145466327667236,-1.7225229740142822,0.12021303176879883,2.455129623413086
117,31201,31193,0.0017215926200151443,-0.027759449556469917,1.037828803062439,-1.5434733629226685,-1.707680583000183,2.4146981239318848,1.8438770771026611,3.9171390533447266,0.30186009407043457,-1.7113165855407715,0.030359115451574326,2.4513914585113525
118,31211,31203,0.01126460824161768,-0.06841831654310226,1.003382682800293,1.6433488130569458,-4.326262950897217,2.0567593574523926,1.844720482826233,3.918903350830078,0.3010775148868561,-1.6849697828292847,-0.03518640995025635,2.4573118686676025
119,31221,31213,0.04350392892956734,-0.16536004841327667,1.055008888244629,3.9563183784484863,-3.1982758045196533,2.4054114818573,1.8463349342346191,3.9182722568511963,0.3014304041862488,-1.714707612991333,0.032343972474336624,2.490675449371338
120,31231,31223,0.02960188128054142,-0.04570155218243599,1.0256774425506592,6.710155963897705,-3.253666639328003,2.2633280754089355,1.8470983505249023,3.919887065887451,0.3019561171531677,-1.5883766412734985,0.13866503536701202,2.533705949783325
121,31241,31233,-0.014300191774964333,0.02925332821905613,1.0236490964889526,6.961285591125488,-0.8736647367477417,1.8008582592010498,1.8511475324630737,3.920064926147461,0.3021465837955475,-1.8435699939727783,0.2685773968696594,2.560472249984741
122,31251,31243,0.026271412149071693,-0.022729650139808655,1.0086617469787598,6.420419216156006,-7.09848165512085,1.8744494915008545,1.8521636724472046,3.921283483505249,0.3007510006427765,-1.751941442489624,0.24907681345939636,2.552210569381714
123,31261,31253,-0.005927340593189001,0.001894428743980825,1.0212560892105103,4.3813371658325195,-8.501045227050781,2.3998661041259766,1.853866457939148,3.9222514629364014,0.30110013484954834,-1.6754248142242432,0.3675232529640198,2.5927515029907227
124,31271,31263,0.044217582792043686,-0.11589161306619644,1.0099942684173584,2.9504828453063965,-11.76473331451416,2.116220235824585,1.8552179336547852,3.922809600830078,0.3015338182449341,-1.550114393234253,0.2996339499950409,2.583477735519409
125,31281,31273,0.03865247592329979,-0.07353097945451736,0.9520601034164429,0.3738732933998108,-15.720154762268066,2.87703537940979,1.8564441204071045,3.9230775833129883,0.3024124801158905,-1.368649959564209,0.35693612694740295,2.6243128776550293
126,31291,31283,0.018654169514775276,-0.032809533178806305,0.9587891101837158,-0.9836147427558899,-14.088817596435547,3.4610841274261475,1.8564956188201904,3.9235544204711914,0.30292651057243347,-1.073021411895752,0.30072376132011414,2.649587869644165
127,31301,31293,0.027280595153570175,-0.06097929924726486,1.0242916345596313,-0.5090485215187073,-14.453672409057617,3.7008323669433594,1.8594056367874146,3.9235727787017822,0.303241103887558,-1.1273435354232788,0.31136801838874817,2.67457914352417
128,31311,31303,0.03848595172166824,-0.10783090442419052,1.0615544319152832,2.3426687717437744,-12.646100997924805,3.0615954399108887,1.8599153757095337,3.923311471939087,0.3041057884693146,-1.0754585266113281,0.3302503526210785,2.683326244354248
129,31321,31313,-0.016266150400042534,-0.025394873693585396,1.0506917238235474,1.8201994895935059,-8.0345458984375,3.135134220123291,1.8604570627212524,3.923295497894287,0.30467772483825684,-0.8129437565803528,0.37645959854125977,2.7371506690979004
130,31331,31323,0.03226391598582268,-0.06267721205949783,0.9440925717353821,1.5756733417510986,-5.477517604827881,2.814168691635132,1.8617016077041626,3.9237563610076904,0.30460965633392334,-0.8442144989967346,0.35472407937049866,2.7497544288635254
131,31341,31333,-0.03108665719628334,0.01690923422574997,1.021148443222046,0.5171034336090088,-3.911208152770996,2.504225969314575,1.8616130352020264,3.9236607551574707,0.3052447438240051,-0.6408551931381226,0.4017249047756195,2.7954440116882324
132,31351,31343,0.0059780096635222435,-0.040504176169633865,0.9686813950538635,0.12624414265155792,-3.0440285205841064,2.2142045497894287,1.8629543781280518,3.923832893371582,0.3061818480491638,-0.5545424818992615,0.4275776147842407,2.829169988632202
133,31361,31353,-0.04811820760369301,0.015333535149693489,0.9568728804588318,-1.3794236183166504,-2.105095148086548,2.254909038543701,1.8648022413253784,3.924388885498047,0.30655714869499207,-0.7750911116600037,0.4407006502151489,2.83164381980896
134,31371,31363,-0.0005449146265164018,-0.0297616608440876,0.9476022124290466,-1.294765830039978,-2.8611838817596436,2.062056541442871,1.8651840686798096,3.924031972885132,0.3071776330471039,-0.6174704432487488,0.4319065511226654,2.8665690422058105
135,31381,31373,-0.014825571328401566,-0.017319457605481148,0.9881757497787476,-1.9666893482208252,-6.086650371551514,2.1908602714538574,1.8660190105438232,3.923940420150757,0.3084530234336853,-0.5357859134674072,0.4189939796924591,2.892174243927002
136,31391,31383,0.03782555088400841,-0.10055529326200485,1.0391305685043335,-1.1206125020980835,-7.0970845222473145,1.7893688678741455,1.8676862716674805,3.9252521991729736,0.308694064617157,-0.7095974087715149,0.25099843740463257,2.869493007659912
137,31401,31393,0.04110673442482948,-0.055749572813510895,1.001543402671814,1.0051077604293823,-6.8034515380859375,1.5824915170669556,1.868909478187561,3.925852060317993,0.3092764616012573,-0.5429428815841675,0.257224977016449,2.898463010787964
138,31411,31403,0.013922497630119324,-0.02334156259894371,0.9344407320022583,2.3884599208831787,-7.807959079742432,1.5734933614730835,1.869513750076294,3.9259471893310547,0.3086045980453491,-0.38530105352401733,0.36653971672058105,2.9363324642181396
139,31421,31413,-0.0005965749733150005,-0.01433467585593462,0.976265013217926,1.523708462715149,-4.776001930236816,1.8153386116027832,1.870700478553772,3.925546407699585,0.30898481607437134,-0.287172794342041,0.41560205817222595,2.957782745361328
140,31431,31423,0.07817386835813522,-0.11705196648836136,0.9612210392951965,1.0707602500915527,-7.155450820922852,2.0718472003936768,1.872119426727295,3.926326036453247,0.3093024790287018,-0.2272341102361679,0.4571656584739685,2.9768669605255127
141,31441,31433,0.0605044811964035,-0.18630154430866241,1.010604739189148,0.5954694151878357,-5.149352073669434,1.7435394525527954,1.8748602867126465,3.926563024520874,0.3095545768737793,-0.23058760166168213,0.4823072850704193,2.9964985847473145
142,31451,31443,0.02295847050845623,-0.06852541863918304,0.9749358892440796,-0.44158631563186646,-5.029035568237305,1.8313530683517456,1.877922773361206,3.928745985031128,0.30947181582450867,-0.24832189083099365,0.41866305470466614,3.0020949840545654
143,31461,31453,-0.009235280565917492,-0.04238829016685486,0.9459623098373413,-2.731733560562134,-4.721733093261719,2.2585484981536865,1.8787498474121094,3.9286813735961914,0.3098204731941223,-0.11075711995363235,0.4210289418697357,3.0273361206054688
144,31471,31463,0.022598298266530037,-0.10839668661355972,0.9831128716468811,-3.4776861667633057,-2.991302251815796,1.1784166097640991,1.880203366279602,3.9290590286254883,0.3101288378238678,0.0076160491444170475,0.3862466812133789,3.0534825325012207
145,31481,31473,-0.014476987533271313,-0.031625546514987946,1.018026351928711,-3.571763277053833,-2.641869306564331,1.235334038734436,1.8822294473648071,3.929389238357544,0.3118163049221039,-0.056471820920705795,0.33535563945770264,3.057279586791992
146,31491,31483,0.003350274870172143,-0.03795462101697922,0.9674289226531982,-1.779065728187561,-2.851632833480835,1.3789530992507935,1.8830901384353638,3.928781747817993,0.31216973066329956,0.041790321469306946,0.36169981956481934,3.0772416591644287
147,31501,31493,-0.014963768422603607,-0.031006675213575363,0.9924140572547913,-0.5524514317512512,-4.562619209289551,1.7268449068069458,1.883972406387329,3.9296469688415527,0.31248533725738525,0.13495860993862152,0.3318203389644623,3.1031367778778076
148,31511,31503,0.036981839686632156,-0.14929890632629395,1.0208148956298828,-0.3463864028453827,-5.646883964538574,1.4475202560424805,1.8844109773635864,3.9301860332489014,0.3105827569961548,0.16470688581466675,0.3257512152194977,3.1175777912139893
149,31521,31513,-0.032474346458911896,-0.03929297253489494,1.0632860660552979,2.332501173019409,-2.047590494155884,1.2771357297897339,1.8852769136428833,3.9314749240875244,0.3107520341873169,0.27071940898895264,0.32970619201660156,3.144214391708374
150,31531,31523,0.059538137167692184,-0.07398109883069992,0.917834460735321,-0.061825815588235855,-0.533483624458313,1.1663258075714111,1.885928750038147,3.9314815998077393,0.3109186589717865,0.31326302886009216,0.35735952854156494,3.1646153926849365
151,31541,31533,0.007532797288149595,-0.009736488573253155,0.9732390642166138,-1.276567816734314,1.1558923721313477,0.7907607555389404,1.8889962434768677,3.9324123859405518,0.31224942207336426,0.10739375650882721,0.355863481760025,3.167428493499756
152,31551,31543,0.011810083873569965,-0.03323572501540184,0.9906125664710999,-3.1043405532836914,1.3604377508163452,0.4942878782749176,1.8892943859100342,3.93359637260437,0.31253117322921753,0.13357147574424744,0.3322478234767914,3.17885422706604
153,31561,31553,-0.0031142535153776407,0.004132322501391172,1.017305612564087,-3.6952195167541504,1.3141309022903442,0.9406856298446655,1.8901301622390747,3.933687925338745,0.31281784176826477,0.2274760752916336,0.3585420548915863,3.191159725189209
154,31571,31563,0.01662939041852951,-0.0640178769826889,0.9732300043106079,-3.223236560821533,0.4104716181755066,-0.1075197085738182,1.8912111520767212,3.934112548828125,0.313026487827301,0.24160653352737427,0.36804911494255066,3.2049734592437744
155,31581,31573,-0.039834752678871155,0.04819314181804657,0.9210864305496216,-4.617465019226074,-0.016745712608098984,0.3864622712135315,1.8925056457519531,3.9352612495422363,0.3141430616378784,0.19748087227344513,0.22100867331027985,3.204404830932617
156,31591,31583,-0.047361571341753006,0.09006471186876297,0.9773473739624023,-3.2260258197784424,-2.513422966003418,0.21560899913311005,1.8943498134613037,3.9343912601470947,0.31431499123573303,0.16847965121269226,0.22832125425338745,3.2014055252075195
157,31601,31593,-0.025454191491007805,0.023573419079184532,1.0054645538330078,-2.4318056106567383,-2.2210772037506104,0.1463562697172165,1.8957003355026245,3.9346327781677246,0.3144111931324005,0.16431589424610138,0.16966329514980316,3.203665018081665
158,31611,31603,-0.008589602075517178,-0.045681413263082504,1.0006420612335205,-1.371882438659668,-2.7968242168426514,0.3269161581993103,1.8963806629180908,3.934199333190918,0.31676799058914185,0.3143267035484314,0.19978025555610657,3.211669445037842
159,31621,31613,0.01413537748157978,-0.05710548162460327,0.969725489616394,-0.9833285212516785,-0.23775875568389893,0.4566165804862976,1.8970744609832764,3.9343342781066895,0.31704625487327576,0.38180750608444214,0.16359272599220276,3.219266414642334
160,31631,31623,-0.03504959121346474,0.10069744288921356,1.0028738975524902,-1.7334418296813965,2.3949522972106934,-0.15476953983306885,1.8990693092346191,3.9344520568847656,0.3172233998775482,0.26053646206855774,0.14173667132854462,3.2162551879882812
161,31641,31633,0.012902655638754368,0.03645825758576393,1.0131462812423706,-2.0930771827697754,1.3147344589233398,-1.0550317764282227,1.8997821807861328,3.9339311122894287,0.31771120429039,0.3528660535812378,0.1924343854188919,3.2184884548187256
162,31651,31643,-0.02800918184220791,0.06345140188932419,1.0265593528747559,-3.545319080352783,2.050816059112549,-0.20804594457149506,1.9014774560928345,3.9339983463287354,0.3179636597633362,0.2823643982410431,0.14382249116897583,3.2044711112976074
163,31661,31653,0.022158170118927956,-0.034367576241493225,0.9531269669532776,-4.374924182891846,2.336566925048828,-0.35391098260879517,1.9031782150268555,3.934735059738159,0.3182821571826935,0.2825477123260498,0.07611484825611115,3.2173895835876465
164,31671,31663,-0.014105704613029957,0.005969497375190258,1.0157880783081055,-3.708355188369751,1.2168337106704712,-0.5067402124404907,1.9056529998779297,3.9349517822265625,0.31855690479278564,0.19715170562267303,0.0761861652135849,3.20650053024292
165,31681,31673,0.009282590821385384,-0.0063064382411539555,0.9842252135276794,-3.6232001781463623,0.0923001617193222,-0.7783801555633545,1.9054080247879028,3.9344277381896973,0.3182804584503174,0.2823656499385834,0.08116472512483597,3.2032792568206787
166,31691,31683,0.01235128752887249,-0.009040086530148983,0.997170627117157,-2.834754228591919,-0.9864199757575989,-0.7791462540626526,1.907626986503601,3.9348018169403076,0.31847983598709106,0.21754708886146545,0.005221392028033733,3.197319746017456
167,31701,31693,-0.005315488204360008,-0.0017688210355117917,0.9812574982643127,-2.2025187015533447,-1.0033973455429077,-1.1924372911453247,1.9084548950195312,3.933846950531006,0.3187114894390106,0.2536727488040924,0.09479021281003952,3.178278923034668
168,31711,31703,0.008227743208408356,-0.0405486635863781,0.9766765832901001,-1.9504871368408203,-2.701138734817505,-0.9748899340629578,1.909199833869934,3.9348723888397217,0.3183799386024475,0.3703814148902893,-0.048109617084264755,3.184782028198242
169,31721,31713,-0.044061169028282166,0.05483546480536461,0.9540359973907471,-4.714590549468994,0.4193812310695648,-1.8795024156570435,1.9096283912658691,3.9339377880096436,0.3186515271663666,0.5135529637336731,-0.011403952725231647,3.173924684524536
170,31731,31723,0.03713521361351013,-0.1715579777956009,0.9888694882392883,-3.9667229652404785,1.5934453010559082,-1.0548893213272095,1.9116977453231812,3.9345271587371826,0.318744033575058,0.3579208254814148,-0.10089018195867538,3.157802104949951
171,31741,31733,0.016858000308275223,-0.062292471528053284,1.0145474672317505,-2.947993516921997,3.6702895164489746,-0.9954017996788025,1.912305235862732,3.9348268508911133,0.31572937965393066,0.4204820990562439,-0.18086878955364227,3.1607677936553955
172,31751,31743,-0.0018033954547718167,-0.07086066901683807,0.937140703201294,-2.962480306625366,4.470617294311523,-0.8387570977210999,1.9134631156921387,3.9359776973724365,0.3156314492225647,0.36119142174720764,-0.24310138821601868,3.147021770477295
173,31761,31753,0.011394660919904709,-0.030619047582149506,0.9598832130432129,-2.4679627418518066,1.658542513847351,-0.46865493059158325,1.9138596057891846,3.9347150325775146,0.31556999683380127,0.3640327751636505,-0.2198510766029358,3.132774829864502
174,31771,31763,0.0007424275390803814,-0.10127411037683487,1.0508246421813965,-1.474167823791504,4.865293979644775,-1.256605863571167,1.9158082008361816,3.9343154430389404,0.31841740012168884,0.23409274220466614,-0.19676266610622406,3.1164140701293945
175,31781,31773,0.013171598315238953,-0.074588343501091,1.0066003799438477,-0.27794286608695984,5.233887195587158,-1.6688929796218872,1.916454792022705,3.9350693225860596,0.31845274567604065,0.22699260711669922,-0.23922140896320343,3.1062562465667725
176,31791,31783,-0.006659344770014286,-0.02927027828991413,0.9837484955787659,0.0631689727306366,4.332287311553955,-1.3841259479522705,1.9174607992172241,3.9353110790252686,0.31851622462272644,0.21197602152824402,-0.2605041265487671,3.0918235778808594
177,31801,31793,-0.008592740632593632,-0.009093394502997398,1.011165976524353,-1.020046591758728,4.386433124542236,-0.9080778360366821,1.9189845323562622,3.935443162918091,0.3184819221496582,0.06216101348400116,-0.2744702398777008,3.0765457153320312
178,31811,31803,0.0452098548412323,-0.07107140123844147,0.9592404365539551,-1.1988675594329834,-0.8936739563941956,-0.7792637348175049,1.9197849035263062,3.935622453689575,0.31601738929748535,0.08719899505376816,-0.29561635851860046,3.0672831535339355
179,31821,31813,-0.015026423148810863,-0.11004529148340225,1.0490738153457642,-0.01909925788640976,-4.002292633056641,-1.3853291273117065,1.9204050302505493,3.935683012008667,0.3159347474575043,0.09177205711603165,-0.3172563910484314,3.059288501739502
180,31831,31823,-0.020478971302509308,-0.17862240970134735,1.0123770236968994,-0.552323579788208,1.0552740097045898,-1.5007706880569458,1.921208143234253,3.9367835521698,0.31579360365867615,0.20112822949886322,-0.32341912388801575,3.0545217990875244
181,31841,31833,-0.044407814741134644,-0.04963463544845581,1.031891942024231,-1.1332330703735352,1.6771844625473022,-1.1264485120773315,1.9209338426589966,3.936574697494507,0.31950923800468445,0.24886822700500488,-0.33943110704421997,3.048086166381836
182,31851,31843,0.016805583611130714,-0.013602958992123604,1.010645866394043,-0.7978888750076294,4.931259632110596,-1.605494737625122,1.9225093126296997,3.935683488845825,0.319649338722229,0.12729328870773315,-0.21225860714912415,3.038006067276001
183,31861,31853,-0.0059794164262712,0.01568654179573059,1.0253145694732666,-1.3355613946914673,5.527296543121338,-1.8354467153549194,1.922766923904419,3.9366753101348877,0.3198551833629608,0.11751045286655426,-0.2434147745370865,3.043368339538574
184,31871,31863,0.0017260763561353087,0.01484190858900547,1.0210614204406738,-0.3330416679382324,6.029949188232422,-2.934288263320923,1.9249932765960693,3.9385673999786377,0.3209330141544342,0.09226827323436737,-0.27728262543678284,3.041771411895752
185,31881,31873,-0.03205664083361626,0.019049545750021935,0.9486560225486755,-1.5786123275756836,6.00272798538208,-2.6799066066741943,1.9245973825454712,3.9405248165130615,0.3209388852119446,-0.020452085882425308,-0.3768444061279297,3.0336670875549316
186,31891,31883,-0.03436237946152687,0.01607285998761654,0.9546695351600647,-1.0225733518600464,4.706283092498779,-2.833505630493164,1.9258445501327515,3.9406239986419678,0.32120856642723083,-0.12080767005681992,-0.4023738205432892,3.0191731452941895
187,31901,31893,0.036994028836488724,-0.09079576283693314,0.9703122973442078,-0.4431822896003723,3.1429922580718994,-3.4029510021209717,1.9250881671905518,3.9408199787139893,0.3215232193470001,-0.1252707839012146,-0.41813671588897705,2.989711046218872
188,31911,31903,0.005371569190174341,-0.013580752536654472,0.989839494228363,3.305014133453369,-2.963007688522339,-3.4855918884277344,1.9262562990188599,3.9399051666259766,0.32067519426345825,-0.11781531572341919,-0.3474598228931427,2.9494099617004395
189,31921,31913,-0.040019284933805466,-0.0021321431268006563,1.03347909450531,4.912640571594238,-1.197158694267273,-3.8457326889038086,1.9269764423370361,3.939765214920044,0.32062965631484985,-0.19996897876262665,-0.307618111371994,2.9156832695007324
190,31931,31923,-0.06651955842971802,0.07173427939414978,0.9668108820915222,3.517488718032837,2.3895320892333984,-3.272465944290161,1.927193522453308,3.9393067359924316,0.3208060562610626,-0.13385945558547974,-0.2426666021347046,2.873431921005249
191,31941,31933,-0.04017816111445427,0.1733626276254654,0.9660552144050598,0.4723593294620514,2.0129244327545166,-3.5907652378082275,1.9275801181793213,3.939831256866455,0.3203941583633423,-0.10527487099170685,-0.1941741406917572,2.86216139793396
192,31951,31943,0.02243581786751747,-0.1116260439157486,0.9856284856796265,-1.2903249263763428,1.8246526718139648,-3.91521954536438,1.928857684135437,3.940838098526001,0.3203606903553009,-0.2255493700504303,-0.1907789260149002,2.8464417457580566
193,31961,31953,-0.025805501267313957,-0.04589258134365082,1.0235464572906494,-2.8284201622009277,1.0896292924880981,-4.610418796539307,1.9294649362564087,3.942150115966797,0.32044070959091187,-0.2627006769180298,-0.2880766689777374,2.8243281841278076
194,31971,31963,-0.08076512813568115,0.03615415468811989,1.0057514905929565,-3.1264753341674805,2.234074354171753,-4.715882301330566,1.9299139976501465,3.942814588546753,0.3193688690662384,-0.2900922894477844,-0.3324925899505615,2.773155689239502
195,31981,31973,-0.09706011414527893,0.09114400297403336,0.9478877186775208,-0.9631083607673645,1.0134861469268799,-4.4807891845703125,1.9304766654968262,3.94258189201355,0.3193989396095276,-0.247288316488266,-0.38053053617477417,2.737170934677124
196,31991,31983,-0.05889956280589104,0.05196383222937584,1.0092267990112305,0.895314633846283,-0.38094761967658997,-3.801799774169922,1.9320546388626099,3.9428460597991943,0.3194024860858917,-0.1950097382068634,-0.3211824893951416,2.697228193283081
197,32001,31993,0.0037287750747054815,0.00027342059183865786,1.0154199600219727,3.5643723011016846,-1.8797743320465088,-3.7502880096435547,1.9330321550369263,3.9430363178253174,0.31932491064071655,-0.281024307012558,-0.30860409140586853,2.6757423877716064
198,32011,32003,-0.04570077732205391,0.01551115233451128,1.0894993543624878,4.977303981781006,-2.2069883346557617,-4.681630611419678,1.9310991764068604,3.944089889526367,0.31965401768684387,-0.13062052428722382,-0.32713884115219116,2.6302831172943115
199,32021,32013,-0.05786977708339691,0.032019518315792084,1.062087059020996,4.5461649894714355,3.771336555480957,-4.516027450561523,1.9332382678985596,3.943899631500244,0.31957918405532837,-0.29085275530815125,-0.24584273993968964,2.6063647270202637
200,32031,32023,-0.008622296154499054,-0.007207576651126146,0.9980299472808838,3.6568610668182373,5.828183650970459,-4.74881649017334,1.9344022274017334,3.944394111633301,0.31960782408714294,-0.35449689626693726,-0.17132534086704254,2.5619843006134033
201,32041,32033,-0.037625737488269806,0.1474418044090271,0.9883314967155457,2.794085741043091,4.249362468719482,-4.3219122886657715,1.9348993301391602,3.944899082183838,0.3201683759689331,-0.36484065651893616,-0.18673951923847198,2.5252952575683594
202,32051,32043,-0.004981888458132744,0.02083936706185341,0.9707876443862915,1.0561716556549072,3.627540111541748,-4.7126946449279785,1.9360555410385132,3.945631742477417,0.32027754187583923,-0.427496999502182,-0.13258203864097595,2.486117362976074
203,32061,32053,0.0018670385470613837,-0.005005857907235622,1.0121736526489258,0.6414564847946167,-1.4198707342147827,-5.287187576293945,1.9371848106384277,3.9460742473602295,0.32035893201828003,-0.47021085023880005,-0.18056176602840424,2.440293788909912
204,32071,32063,-0.052537404000759125,0.015252563171088696,1.0546376705169678,1.0180625915527344,-2.7226006984710693,-5.26806116104126,1.9375717639923096,3.9460055828094482,0.3225649297237396,-0.37752845883369446,-0.15846963226795197,2.404106855392456
205,32081,32073,-0.01303053367882967,-0.019152801483869553,1.0015946626663208,1.0559709072113037,-3.1072163581848145,-5.863760948181152,1.938846230506897,3.9467368125915527,0.32249173521995544,-0.4891946017742157,-0.1352553516626358,2.3586440086364746
206,32091,32083,-0.06968871504068375,0.08534031361341476,1.0009751319885254,1.655264139175415,-4.44755220413208,-5.692338943481445,1.9386848211288452,3.9466257095336914,0.32284289598464966,-0.35166841745376587,-0.10801045596599579,2.2994189262390137
207,32101,32093,-0.06408785283565521,0.11624826490879059,0.9878484606742859,1.9992884397506714,-4.372225761413574,-5.679810047149658,1.9405652284622192,3.946597099304199,0.32300320267677307,-0.42610085010528564,-0.07181210815906525,2.246858835220337
208,32111,32103,-0.048736944794654846,0.11931304633617401,1.0057909488677979,3.5196645259857178,-4.847105979919434,-5.9954400062561035,1.9412124156951904,3.947299003601074,0.32081466913223267,-0.27583637833595276,-0.10733455419540405,2.1831932067871094
209,32121,32113,-0.03432673215866089,0.06754376739263535,1.0106815099716187,3.901451826095581,-6.386018753051758,-5.466742515563965,1.9403656721115112,3.94722843170166,0.3208450675010681,-0.20745031535625458,-0.11804626137018204,2.1224687099456787
210,32131,32123,-0.039483100175857544,0.047974757850170135,1.0068329572677612,4.17875862121582,-2.410823106765747,-5.393252849578857,1.9424937963485718,3.947127342224121,0.3208608627319336,-0.282250314950943,-0.04363173246383667,2.0728089809417725
211,32141,32133,-0.07817813754081726,0.12671278417110443,1.0065648555755615,3.1622066497802734,1.729089379310608,-5.397952079772949,1.9435441493988037,3.9475247859954834,0.3202914893627167,-0.24505676329135895,-0.04558197036385536,2.017213821411133
212,32151,32143,-0.08975251764059067,0.19638757407665253,0.9915655255317688,1.2879372835159302,5.9508514404296875,-4.756856918334961,1.9437695741653442,3.947355270385742,0.32036617398262024,-0.18455909192562103,0.022340748459100723,1.9644145965576172
213,32161,32153,-0.033908661454916,0.22660180926322937,0.9743459820747375,1.0516071319580078,2.9700937271118164,-4.278205394744873,1.9461257457733154,3.9484434127807617,0.3204474449157715,-0.2613614797592163,-0.015017685480415821,1.9167146682739258
214,32171,32163,-0.003260055324062705,0.06991007179021835,0.9754799604415894,1.4104633331298828,5.438023090362549,-4.279551029205322,1.945494294166565,3.9479079246520996,0.32098859548568726,-0.3094712197780609,0.0197005495429039,1.8865455389022827
215,32181,32173,0.018838128075003624,0.021127790212631226,0.9899746179580688,1.2834150791168213,2.205639600753784,-4.619144439697266,1.9465601444244385,3.948396921157837,0.32101383805274963,-0.36898577213287354,0.06089652329683304,1.859364628791809
216,32191,32183,0.039690081030130386,0.07912932336330414,1.0305424928665161,1.149734377861023,-3.3261890411376953,-4.32351541519165,1.9480252265930176,3.9497220516204834,0.3209739625453949,-0.46947580575942993,0.021806254982948303,1.835348129272461
217,32201,32193,-0.005003770347684622,0.01635616458952427,1.0159885883331299,1.858847737312317,-4.712391376495361,-4.508664131164551,1.9483669996261597,3.9511260986328125,0.3190474808216095,-0.40085840225219727,-0.01750388741493225,1.7916929721832275
218,32211,32203,-0.03529959172010422,0.06148895248770714,0.9494748711585999,1.7257887125015259,-4.834995269775391,-4.01841926574707,1.9477022886276245,3.951627016067505,0.31907883286476135,-0.23164069652557373,0.030099455267190933,1.7675933837890625
219,32221,32213,-0.09112498909235,0.23133452236652374,0.9356288313865662,1.7981443405151367,-6.702435493469238,-3.0863635540008545,1.9481680393218994,3.951683282852173,0.3190319538116455,-0.14441072940826416,0.08060513436794281,1.7058144807815552
220,32231,32223,-0.05899665132164955,0.13087503612041473,0.9731117486953735,2.1636898517608643,-5.661847114562988,-2.319115400314331,1.9496296644210815,3.9510512351989746,0.31884902715682983,-0.18795442581176758,0.0529320202767849,1.6720572710037231
221,32241,32233,-0.04859577864408493,0.0250706747174263,1.0358924865722656,2.4353244304656982,-3.915278434753418,-2.4618468284606934,1.9492238759994507,3.9501729011535645,0.3149110674858093,-0.1704809069633484,0.11395499110221863,1.6468514204025269
222,32251,32243,-0.08983706682920456,-0.005232281517237425,1.1061121225357056,3.6795365810394287,-1.6411000490188599,-2.647995948791504,1.9503625631332397,3.950862169265747,0.31449782848358154,-0.11648830771446228,0.09658727049827576,1.6080877780914307
223,32261,32253,-0.08306272327899933,-0.01751765049993992,1.082743763923645,4.415175914764404,1.408212661743164,-2.5684432983398438,1.9520584344863892,3.9502439498901367,0.3140515387058258,-0.18857507407665253,0.17619815468788147,1.5820040702819824
224,32271,32263,-0.0844329372048378,0.05728119984269142,1.0251541137695312,3.2914962768554688,3.765059471130371,-1.9201551675796509,1.9523314237594604,3.95046067237854,0.31626003980636597,-0.14517809450626373,0.18036894500255585,1.5467376708984375
225,32281,32273,-0.038781531155109406,0.11744339764118195,0.9581872820854187,0.9433742761611938,4.637637615203857,-1.7764726877212524,1.9526982307434082,3.9504897594451904,0.3161815404891968,-0.13551022112369537,0.1728752851486206,1.518815517425537
226,32291,32283,-0.0004193548811599612,0.12577426433563232,0.9679583311080933,-0.632189154624939,3.5395560264587402,-1.2344406843185425,1.9541585445404053,3.9502365589141846,0.3160235583782196,-0.2907463610172272,0.2081514149904251,1.5268352031707764
227,32301,32293,0.03015691228210926,0.17171521484851837,0.9626035094261169,-0.31220224499702454,0.6360881924629211,-1.441260576248169,1.9548792839050293,3.9514923095703125,0.31702306866645813,-0.2523156702518463,0.22535863518714905,1.5095213651657104
228,32311,32303,0.02460433915257454,-0.04575303569436073,1.0218124389648438,1.2017310857772827,-3.2505130767822266,-1.5808757543563843,1.956408977508545,3.953314781188965,0.3169742226600647,-0.2524729371070862,0.08932998031377792,1.4929587841033936
229,32321,32313,-0.0010535576147958636,-0.14021171629428864,1.0401421785354614,2.5081074237823486,-3.23356294631958,-1.0618096590042114,1.956822156906128,3.953287124633789,0.3169262111186981,-0.2023925483226776,0.14305825531482697,1.4778763055801392
230,32331,32323,0.005969316232949495,-0.07577929645776749,0.9948097467422485,2.4103305339813232,-3.4750826358795166,-0.6214599013328552,1.957541823387146,3.9525578022003174,0.3168269097805023,-0.22034937143325806,0.2137046605348587,1.4668467044830322
231,32341,32333,0.04537263512611389,-0.0479448102414608,1.0372920036315918,2.3381638526916504,-2.9446921348571777,0.39468368887901306,1.9567018747329712,3.9521071910858154,0.3155288100242615,-0.07023177295923233,0.2819973826408386,1.4633868932724
232,32351,32343,0.06037253141403198,-0.10964008420705795,1.0590795278549194,1.8465948104858398,-2.3399901390075684,-0.2782621383666992,1.9584819078445435,3.952349901199341,0.3153751790523529,-0.10034096240997314,0.3410901725292206,1.4606608152389526
233,32361,32353,0.05022747069597244,-0.13536278903484344,1.0838894844055176,-0.2925780713558197,3.5782735347747803,-1.9473084211349487,1.9605687856674194,3.9530279636383057,0.3151911795139313,-0.22441315650939941,0.30689308047294617,1.4525302648544312
234,32371,32363,0.03724687546491623,-0.015550374984741211,0.9791067242622375,-2.512397050857544,2.7383291721343994,-0.724295973777771,1.9609580039978027,3.9531056880950928,0.31583577394485474,-0.17719286680221558,0.3190697729587555,1.4356064796447754
235,32381,32373,-0.015580092556774616,0.049984414130449295,0.9749720692634583,-1.5733616352081299,3.4050748348236084,-1.8364020586013794,1.9634853601455688,3.9535014629364014,0.31585121154785156,-0.29761746525764465,0.29411396384239197,1.414591670036316
236,32391,32383,0.023237289860844612,0.0031889621168375015,0.93508380651474,-1.1090236902236938,-0.32648932933807373,-1.1491613388061523,1.9649935960769653,3.953113555908203,0.3158014118671417,-0.40948593616485596,0.2845335304737091,1.3968299627304077
237,32401,32393,-0.005570501089096069,0.01850687712430954,0.9826338291168213,0.6128864884376526,-2.3413734436035156,-0.9629731774330139,1.9656126499176025,3.9532477855682373,0.31600669026374817,-0.28773996233940125,0.285485178232193,1.389907717704773
238,32411,32403,0.01395521592348814,-0.029889455065131187,0.997282087802887,1.2075597047805786,-4.827763557434082,-1.118108868598938,1.9670215845108032,3.9531216621398926,0.3160068392753601,-0.29376572370529175,0.311349481344223,1.379380702972412
239,32421,32413,0.05157425254583359,-0.03958369046449661,0.9987013936042786,2.8085484504699707,-7.609213352203369,-0.4090951681137085,1.9674296379089355,3.953706979751587,0.3160378336906433,-0.18215544521808624,0.2653684616088867,1.3372564315795898
