,timestamp_start,timestamp_end,acc.x,acc.y,acc.z,gyro.x,gyro.y,gyro.z,stateEstimate.x,stateEstimate.y,stateEstimate.z,stabilizer.pitch,stabilizer.roll,stabilizer.yaw
0,33129,33127,0.0108944904,0.0193184577,1.0016868114,5.5092601776,10.1306257248,-0.2731691599,1.6859561205,3.8774523735,0.1918526143,6.04083834332414E-05,-1.0614905357,3.0055916309
1,33139,33137,-0.0340809375,-0.04784666,1.03627491,7.3192062378,3.9825742245,-0.2502627671,1.6890176535,3.879240036,0.1931868941,-0.1648674458,-1.033616066,3.0170140266
2,33149,33147,-0.0004971756,-0.0242317319,1.0267679691,8.3392601013,-3.6797170639,-0.2463153899,1.6924278736,3.8815689087,0.1948033273,-0.1968874633,-0.8994179368,3.0124857426
3,33159,33157,-0.0076590888,-0.0287279096,1.0076911449,8.1189279556,-7.9452309608,0.2957098186,1.6899449825,3.8831686974,0.197000131,0.3143258989,-0.9021821618,2.9461069107
4,33169,33167,0.0021173994,-0.1082655713,0.9738076925,6.7582297325,-7.2778558731,1.5192410946,1.6929028034,3.8826472759,0.1993398219,0.0156809483,-0.7533004284,3.0028412342
5,33179,33177,-0.001533114,-0.0400688201,1.0153861046,6.1523861885,-3.5921645164,0.7118097544,1.6874785423,3.881282568,0.2044045627,0.7991400957,-0.423458308,2.9047071934
6,33189,33187,-0.0095819579,-0.0604253188,0.9916958213,3.5023674965,2.4867544174,2.1256566048,1.6873877048,3.8797850609,0.2065185755,0.7199441195,-0.2900283337,2.9253265858
7,33199,33197,0.0248502214,-0.0198485833,1.0007666349,-1.8355544806,14.5823278427,1.338866353,1.6894727945,3.879509449,0.2091256231,0.4618741274,-0.3580724001,2.9714269638
8,33209,33207,-0.0027535595,0.0048468886,1.0226248503,-5.983982563,19.7190170288,1.3443052769,1.6888924837,3.8787238598,0.2118928879,0.198658064,-0.5013364553,2.997781992
9,33219,33217,0.0351035856,-0.0860684291,0.995170176,-8.5270814896,23.4828357697,0.6710823178,1.6946570873,3.88133955,0.2140230983,-0.2114599943,-0.6178342104,3.0252952576
10,33229,33227,0.0584412552,-0.0669538379,0.9571590424,-7.77389431,18.676404953,1.2892364264,1.6940784454,3.8814105988,0.2160055488,-0.4853707254,-0.7583218217,3.0331552029
11,33239,33237,-0.0201638471,-0.01330839,1.0383229256,-4.3965878487,16.0771579742,1.446721673,1.6949532032,3.8839666843,0.2194695622,-0.6746156812,-0.6461570263,3.0437572002
12,33249,33247,-0.0285615157,0.0016315747,1.0084153414,2.4283833504,4.0122022629,0.802136302,1.6944983006,3.8846275806,0.2215150297,-0.9094520211,-0.8407614231,3.0506196022
13,33259,33257,-0.0208976734,0.018316647,0.9879093766,7.5949077606,-7.1106686592,0.5756827593,1.6850754023,3.8898618221,0.2239247262,-0.8700191975,-0.6230739355,3.0644433498
14,33269,33267,-0.0498206727,-0.0167499185,0.9763528109,10.8997840881,-14.7776594162,0.5715875626,1.6863075495,3.8868846893,0.2260535061,-0.75238657,-0.3513675034,3.0845682621
15,33279,33277,-0.0863917693,0.0841415301,0.9707433581,10.0859355927,-14.8769836426,0.5073120594,1.6850575209,3.8858809471,0.2288393974,-0.5316730738,-0.2019140273,3.0912451744
16,33289,33287,0.0149196796,0.0007676224,0.9558604956,5.4416069984,-12.5624952316,0.7334740758,1.6853526831,3.8901064396,0.2310367972,-0.3282697201,-0.1591907144,3.0920989513
17,33299,33297,-0.0169899054,-0.2480384558,0.9275642037,-0.8311879039,-8.2487211227,0.2029265463,1.6857489347,3.8851027489,0.2333100885,-0.1693673134,-0.3990153074,3.0735816956
18,33309,33307,-0.0365315527,-0.1469570547,0.9436234236,-7.2329177856,-0.7317403555,0.3275443017,1.6908423901,3.8853781223,0.2370065302,-0.817209661,-0.5145899057,3.0834975243
19,33319,33317,-0.008149677,-0.0227659903,0.943025887,-8.0092515945,2.8150036335,0.1561550796,1.6815122366,3.8778927326,0.2416572273,0.2919023335,-0.0449316092,3.1206316948
20,33329,33327,0.0145170279,-0.0167448372,0.9124344587,-8.4354038239,6.0769681931,0.3930846453,1.6779536009,3.8843324184,0.2442492247,0.5138792396,-0.9185860157,3.0443882942
21,33339,33337,-0.0527600609,0.0180548765,0.9708519578,-5.1968426704,11.419672966,0.460303545,1.6789550781,3.884680748,0.2485577762,0.3484251499,-0.9993369579,3.0486428738
22,33349,33347,-0.071905382,0.0388609171,0.9791974425,0.642835021,20.5569705963,0.3710765541,1.6802423,3.8845231533,0.2512667775,0.0075016967,-1.0045017004,3.0556871891
23,33359,33357,-0.0363570787,0.0789474696,0.9492263198,10.5021219254,23.3327159882,0.375957787,1.682612896,3.8860754967,0.2536359131,-0.284190774,-0.8890811801,3.0626747608
24,33369,33367,0.0150521966,-0.0173205081,0.9161550999,16.3645744324,21.9909801483,0.394187063,1.6838414669,3.8877031803,0.2548066378,-0.6628681421,-0.8535141945,3.0604681969
25,33379,33377,0.0182001702,-0.030901948,0.9221704006,18.4042778015,17.6659832001,0.1799209714,1.6875314713,3.8906424046,0.2568271756,-0.9826532006,-0.6540948153,3.065808773
26,33389,33387,0.0434271656,-0.0320507325,0.9291586876,20.2059211731,5.8655309677,-0.9476226568,1.6888165474,3.8903794289,0.2589109242,-1.1766217947,-0.2776992917,3.0813920498
27,33399,33397,0.0224748272,-0.0246329159,0.8874692917,16.7516593933,-4.3323154449,-1.5164840221,1.6918188334,3.890737772,0.2607200444,-1.2682865858,-0.0627419949,3.0747320652
28,33409,33407,0.0181228146,-0.0378943719,0.9040449858,11.579117775,-12.3674345016,-1.636479497,1.6908471584,3.8935513496,0.2632954717,-1.1864365339,-0.1291134804,3.0295901299
29,33419,33417,-0.0284889024,0.0138233751,0.936847806,5.8222222328,-16.6590137482,-1.8829866648,1.690505743,3.894097805,0.2650733888,-0.9853058457,0.0220250152,3.0170931816
30,33429,33427,0.0252276249,-0.0247677248,0.8728157282,2.1128363609,-17.4360771179,-2.3092498779,1.6893820763,3.8930613995,0.2667731345,-0.7442876697,0.1549061984,3.0064499378
31,33439,33437,0.0302696452,0.0044495049,0.8930883408,-0.4196064472,-14.6029233932,-2.2845880985,1.6915384531,3.893671751,0.2673496604,-0.7935484052,0.0823703483,2.9690856934
32,33449,33447,0.0346953869,-0.0237233695,0.8764771819,0.0468887538,-9.5237646103,-2.1143393517,1.6899117231,3.8937630653,0.2687696517,-0.587644577,0.1248464435,2.9546608925
33,33459,33457,0.0210208297,-0.0457759425,0.881898284,1.6939967871,-4.3012032509,-1.8847767115,1.6920944452,3.8950920105,0.2700327039,-0.6193718314,0.1037544608,2.9290904999
34,33469,33467,0.0003115791,-0.0156029258,0.9082275033,3.1681139469,0.5705718398,-1.6460975409,1.6939647198,3.8955919743,0.2735572457,-0.6440325379,0.1150225401,2.9074728489
35,33479,33477,0.1832867265,-0.0380357243,0.8612148166,5.3904385567,5.3820466995,-1.7015548944,1.6955938339,3.8968830109,0.2747575641,-0.6842142344,0.1583196074,2.891453743
36,33489,33487,0.0830785632,-0.0451290719,0.8893104196,7.192574501,0.1230472624,-1.5723524094,1.6968873739,3.8971822262,0.2757746279,-0.8701640368,0.1616844684,2.8597621918
37,33499,33497,-0.0213799067,0.0119688772,0.9155054688,9.1663389206,-5.774471283,-1.460490942,1.6968528032,3.8964164257,0.2768345773,-0.8286130428,0.3431588113,2.8628849983
38,33509,33507,-0.0343199521,-0.0478492714,0.9144875407,6.8499898911,-0.7018891573,-1.8225809336,1.6973098516,3.8954803944,0.277064532,-0.7999905348,0.4566135406,2.850553751
39,33519,33517,0.0252388511,-0.0477815717,0.9107265472,4.5719285011,4.4894833565,-2.2319381237,1.6981295347,3.8958902359,0.2778736949,-0.7660652995,0.4628255367,2.8230805397
40,33529,33527,-0.0151584176,0.0251269322,0.9245857,3.3363969326,5.3930373192,-2.041400671,1.6981709003,3.8968715668,0.2785944343,-0.8121781349,0.5125015378,2.8006634712
41,33539,33537,-0.0147058265,0.0168451499,0.9175462723,1.447822094,9.4626207352,-2.0054626465,1.7022579908,3.8965055943,0.281298399,-1.1198095083,0.6004573703,2.7716407776
42,33549,33547,0.0195409004,-0.01312951,0.9414499402,-0.5173121095,10.1719665527,-2.5874733925,1.7019795179,3.8968572617,0.2820590734,-1.1506909132,0.5772532821,2.7533922195
43,33559,33557,0.0175777879,-0.0339251794,0.9098690748,-2.0958502293,6.2746415138,-2.4087617397,1.7028927803,3.8979377747,0.2828243673,-1.1791971922,0.6006893516,2.7393598557
44,33569,33567,0.0474691279,0.0440789834,0.9899170399,-2.4559795856,7.8579993248,-2.7351374626,1.7027221918,3.9003794193,0.2838254571,-1.2273117304,0.2361619622,2.6547930241
45,33579,33577,-0.0209064186,0.0773308277,0.9822750688,3.4655539989,-0.4542126954,-2.388676405,1.7027131319,3.9005746841,0.2845260799,-1.2410777807,0.2332356274,2.6312625408
46,33589,33587,0.0140601881,-0.0166626498,0.9469015598,8.8014593124,-3.0346617699,-2.2223784924,1.7039512396,3.9001703262,0.2851977944,-1.2405748367,0.4040602148,2.6261069775
47,33599,33597,0.0222393814,-0.0291491617,0.9404096603,11.2840137482,0.5428708196,-2.1625211239,1.7037234306,3.8992323875,0.2843017578,-1.1338539124,0.6313740015,2.6346724033
48,33609,33607,0.0479088761,-0.0738107488,0.934527576,11.8500051498,-4.4307441711,-1.9480904341,1.7039003372,3.9000239372,0.2846765816,-1.1882684231,0.6550754309,2.5875558853
49,33619,33617,-0.0109173618,-0.022511987,0.9495843649,9.0134954453,-3.676810503,-1.5212152004,1.703150034,3.9001178741,0.2850333154,-1.1294951439,0.7415396571,2.5669102669
50,33629,33627,-0.0196153447,-0.0231039114,0.9730081558,6.1686758995,-2.3161370754,-1.8354847431,1.7039860487,3.9003221989,0.2853804529,-1.0892118216,0.924482584,2.5699300766
51,33639,33637,0.0061141555,-0.0115614487,0.9374466538,2.8129694462,-0.3575750887,-2.011298418,1.7051656246,3.9029307365,0.2888708115,-1.0818617344,0.8289712667,2.5223941803
52,33649,33647,-0.0109202117,-0.0398045704,0.9667512774,-0.2679098248,-0.1979000419,-2.311630249,1.7055302858,3.902790308,0.2893126309,-1.0864619017,0.9118659496,2.5113830566
53,33659,33657,0.0252477881,-0.0475165583,0.9697405696,-2.2247171402,-0.4029219747,-1.8851327896,1.7055879831,3.9013261795,0.2897753716,-1.0149073601,1.0145212412,2.5171692371
54,33669,33667,0.0733892098,-0.0756523237,0.9569443464,-3.0942206383,-1.1236557961,-2.6785411835,1.7070612907,3.9010589123,0.2916809916,-1.160877943,1.0070129633,2.4746191502
55,33679,33677,-0.0058795707,-0.0204420742,0.9919484854,-3.8401155472,-0.9088478088,-2.4912106991,1.7097651958,3.902752161,0.2919811308,-1.2843466997,0.9112824202,2.4174466133
56,33689,33687,0.0008366391,-0.0892795175,0.9682279229,-3.3661720753,-4.4276270866,-2.4110968113,1.7104549408,3.9010622501,0.2922753394,-1.2964049578,0.8841740489,2.3878247738
57,33699,33697,0.0064408313,-0.0552534834,0.9976170659,-1.5531110764,-4.3677120209,-2.6866760254,1.7110567093,3.9007437229,0.2943068147,-1.2838995457,0.8675057888,2.3586263657
58,33709,33707,0.0158289876,-0.0321724266,0.944640398,0.1021411717,-7.3764166832,-2.5741505623,1.7127076387,3.9005038738,0.2952353656,-1.1612108946,0.8805041909,2.3446824551
59,33719,33717,-0.0127611607,-0.0067956573,0.9827745557,1.7375348806,-10.2020797729,-2.5632576942,1.7134582996,3.9001069069,0.2952592373,-1.0745235682,0.9160408974,2.3237452507
60,33729,33727,0.0076827751,-0.0321914107,0.9524713755,1.3023289442,-11.8973455429,-2.5434651375,1.7146905661,3.9017131329,0.2957735062,-0.8690095544,0.8915661573,2.3048415184
61,33739,33737,-0.0403003022,0.0210224334,0.9968755245,0.6143659949,-13.8511238098,-2.5931611061,1.7150278091,3.9014351368,0.2975510657,-0.6511887908,0.931624949,2.2982385159
62,33749,33747,-0.0187155176,0.0426148064,0.9781668782,-1.858763814,-9.1376590729,-2.2350926399,1.7186689377,3.9016735554,0.2978193462,-0.823797822,0.940063417,2.2293798923
63,33759,33757,-0.0201952886,-0.0024179469,0.9697539806,-4.1067233086,-6.4688034058,-2.0643436909,1.7190350294,3.9011399746,0.2983683944,-0.6506360769,0.9099369645,2.2212224007
64,33769,33767,0.0041097919,-0.0446636193,0.9632837772,-5.9928135872,-5.4573378563,-2.0174529552,1.7200635672,3.9011144638,0.3019155264,-0.5179741383,0.9164946079,2.2182247639
65,33779,33777,0.017539978,0.1492904425,0.9667520523,-5.9161801338,-5.1131906509,-2.3700284958,1.7208695412,3.9019496441,0.3024562001,-0.4886113107,0.8908474445,2.1995630264
66,33789,33787,0.0098074302,0.010012107,0.9593174458,-4.6892828941,-4.703250885,-2.2324602604,1.7240797281,3.9020736217,0.3030118942,-0.4511951804,0.8030508757,2.168078661
67,33799,33797,-0.0233464204,-0.0059801145,0.9726247787,-5.019431591,-4.8267769814,-2.3844957352,1.7255533934,3.9034574032,0.3043983877,-0.2735913694,0.7167189717,2.1623802185
68,33809,33807,0.0098020537,-0.0084614083,0.9531565309,-5.5700879097,-4.4200429916,-2.3352949619,1.7282109261,3.9029021263,0.3048328757,-0.4015413225,0.6381852627,2.1073930264
69,33819,33817,-0.0282561425,0.0365667865,0.9371196628,-5.6370668411,-3.3861548901,-2.5218369961,1.7297962904,3.9009139538,0.3052980304,-0.3767277598,0.6958803535,2.0910215378
70,33829,33827,-0.0575751215,0.0474543236,0.9767913818,-4.8944740295,-5.3252830505,-2.0355837345,1.730502367,3.9014158249,0.3061973751,-0.2691940963,0.604300499,2.073536396
71,33839,33837,-0.0092598759,0.0013645511,0.9470809102,-5.1030030251,-5.4409947395,-2.1016004086,1.7311422825,3.9006764889,0.3071767688,-0.222280845,0.5923582911,2.0553679466
72,33849,33847,0.023986686,-0.020180352,0.9457410574,-4.8634772301,-4.9907956123,-2.2077000141,1.7333981991,3.9018161297,0.307616353,-0.1001744121,0.5756038427,2.0471627712
73,33859,33857,-0.0085437559,0.015897464,0.9662147164,-4.2705254555,-3.3350703716,-2.1049232483,1.7342320681,3.9017899036,0.308088094,0.0793546811,0.4815829396,2.0409445763
74,33869,33867,0.0124540329,-0.0295409542,0.9328215718,-3.6850364208,-1.0400272608,-2.3707346916,1.7357962132,3.9019486904,0.3099162579,-0.085153833,0.4082165658,1.9919048548
75,33879,33877,-0.014520824,-0.0101381028,0.9545243382,-2.6528153419,1.1817088127,-1.6798166037,1.7365647554,3.9010312557,0.3104065955,0.0269700252,0.4173013866,1.9848765135
76,33889,33887,-0.0146054272,-0.0217264406,0.9381147027,-2.9880580902,1.8703393936,-1.9172860384,1.738856554,3.8993031979,0.3107566237,0.0249023419,0.4367066324,1.9627510309
77,33899,33897,-0.0268566348,-0.0094353072,0.960278511,-3.3210630417,-0.3450929224,-1.7249673605,1.7414604425,3.9004228115,0.3116543889,-0.0608717091,0.3720599711,1.9365357161
78,33909,33907,-0.013205857,0.0830923542,0.9107480049,-4.3120150566,0.8221695423,-1.1481684446,1.7426931858,3.8998565674,0.3119206727,-0.0469381846,0.3683064282,1.9247723818
79,33919,33917,0.0241374802,0.0112493513,0.9586786628,-5.2365040779,-0.4094743431,-1.0852187872,1.7425276041,3.8998615742,0.3122197688,0.0468377322,0.3497794271,1.9232343435
80,33929,33927,-0.0137084527,0.0307174716,0.9730173349,-5.9189219475,-0.8095021248,-1.2993642092,1.7423542738,3.9016861916,0.3154683709,0.0708387271,0.2256263494,1.9212332964
81,33939,33937,0.0207092166,-0.049906522,0.9183416367,-5.0089330673,-1.6179068089,-1.3143041134,1.7444578409,3.9011068344,0.3158112466,0.1035448387,0.1941865236,1.9007256031
82,33949,33947,-0.0164973941,-0.0138960313,0.9611701965,-4.8664617538,0.0002669325,-1.2224885225,1.7459330559,3.9005699158,0.3161163628,0.204422757,0.1575113088,1.894182086
83,33959,33957,0.0027405599,-0.0019421828,0.9547168016,-4.5558419228,1.1979798079,-1.0026900768,1.7497195005,3.8993601799,0.3161975443,-0.0243686326,0.1360200942,1.8608462811
84,33969,33967,-0.0008856218,-0.0065381164,0.9438692927,-4.0992546082,1.2089985609,-1.5982052088,1.7488620281,3.8995599747,0.3159196973,-0.0187657624,0.037452735,1.8529043198
85,33979,33977,-0.0626825392,-0.0045072637,0.9455544353,-5.052423954,-0.0674124286,-1.4267749786,1.7493047714,3.8993065357,0.316049844,0.0775439143,-0.0584996268,1.8459513187
86,33989,33987,-0.029745426,0.0029641916,0.9525898099,-4.4780130386,-0.6812356114,-1.3819007874,1.7521049976,3.8986170292,0.3159664869,-0.0554865636,-0.0025225678,1.8211500645
87,33999,33997,0.0297612622,-0.0439883024,0.9335542321,-3.195420742,-0.8739400506,-0.8218722939,1.7519413233,3.8991336823,0.3183848858,0.0571284443,-0.0904067978,1.8158825636
88,34009,34007,-0.0348479971,0.0162209999,0.9873225093,-2.2996842861,-2.2910425663,-0.4722033441,1.7527208328,3.898365736,0.318451196,0.0860652849,-0.0863705054,1.8044826984
89,34019,34017,-0.0426413864,-0.0433642566,0.9574450254,-2.2551221848,-0.6477647424,-0.727545321,1.754057169,3.899566412,0.3184702992,0.1223260239,-0.1449858993,1.8003959656
90,34029,34027,-0.0064537199,-0.0180486459,0.9752483368,-2.2366473675,2.7488081455,-1.2925345898,1.7557687759,3.900800705,0.3203162849,0.202143833,-0.2001661807,1.7932925224
91,34039,34037,-0.0233997926,0.0259008426,0.9771027565,-1.0179436207,1.7330863476,-1.3665204048,1.7563760281,3.8986933231,0.3203780651,0.1489156783,-0.1681551039,1.777361393
92,34049,34047,0.0133086052,-0.0009386651,0.9480829239,-0.5171994567,0.6858430505,-1.4071946144,1.7562121153,3.8989493847,0.3204556704,0.1177295595,-0.1997080147,1.7648540735
93,34059,34057,0.0338989682,-0.0460012257,0.9437895417,-1.0042463541,4.2326812744,-0.9662914276,1.7572951317,3.9001176357,0.3204545975,0.0706295893,-0.2333955765,1.7531274557
94,34069,34067,-0.0382483862,0.0235903654,0.9812597632,-0.2857502103,0.7562312484,-0.7488501668,1.7576626539,3.8991656303,0.32099545,0.1045198143,-0.1887461096,1.7394939661
95,34079,34077,-0.0277678538,0.0876189023,0.9312840104,-0.4471599162,2.1571464539,-0.5803940296,1.7588214874,3.899872303,0.3209459186,0.165001139,-0.2069150805,1.7398525476
96,34089,34087,0.0181219205,-0.0384676531,0.9194278121,-0.1853809655,3.1004624367,-0.5703068376,1.7602570057,3.8997616768,0.320866555,0.121801503,-0.1531410366,1.7302638292
97,34099,34097,-0.0345076546,0.0115326755,0.9844664335,-0.3567207158,5.4900822639,-0.7548161745,1.7620655298,3.8998126984,0.3224691749,-0.0096392697,-0.1810218841,1.7287766933
98,34109,34107,0.0024197027,-0.0386660732,0.9485254884,-1.0399729013,4.9905033112,-1.0175542831,1.7620915174,3.8993225098,0.3224282265,-0.0625330061,-0.2168649584,1.7113326788
99,34119,34117,0.0035764899,0.010226395,0.956926465,-2.0110757351,5.0391163826,-1.0112823248,1.7647123337,3.9011666775,0.3222612143,-0.0981673226,-0.2430414855,1.7138744593
100,34129,34127,0.0117957639,-0.018928675,0.9522313476,-2.9409239292,4.1213054657,-1.674413085,1.7659080029,3.9021470547,0.3237842023,-0.0260715652,-0.2904812992,1.7017503977
101,34139,34137,-0.0097833173,0.0191731025,0.9672345519,-3.1627724171,-0.4151626825,-1.1027952433,1.7657631636,3.9004688263,0.3237450123,0.0581887923,-0.1964113414,1.6749098301
102,34149,34147,-0.028417686,0.0146686072,0.97779423,-3.2208602428,-0.8310047984,-1.1482667923,1.7694891691,3.90279603,0.3234906495,-0.1937681735,-0.270694375,1.6787670851
103,34159,34157,0.0039816848,-0.0300946068,0.9357380867,-2.7466444969,-0.6925442815,-1.11614573,1.769523859,3.9039740562,0.3233310878,-0.1740117818,-0.3383037448,1.6696069241
104,34169,34167,-0.0052354611,-0.0041446453,0.982706964,-2.6137945652,-0.7807643414,-1.4134972095,1.770391345,3.9039959908,0.324721694,-0.1555754989,-0.3974159658,1.6592415571
105,34179,34177,-0.0256578512,0.0028099965,0.9705141187,-0.440389812,-0.6383012533,-1.3598065376,1.7724745274,3.903860569,0.3244113028,-0.2878554463,-0.4487356544,1.6555029154
106,34189,34187,0.010282632,-0.024576284,0.9602576494,1.7083892822,-0.0421557389,-1.4468026161,1.7717266083,3.9024517536,0.3244128227,-0.112540327,-0.3853488863,1.6283974648
107,34199,34197,-0.0031892476,0.0094369808,0.9668629766,3.6557068825,-2.0969240665,-1.2355729342,1.7727031708,3.9023461342,0.3258728087,-0.1102095991,-0.3711375296,1.614833951
108,34209,34207,0.0312175639,-0.0299352035,0.9373008609,3.6913406849,-1.4232492447,-0.7131634951,1.7729407549,3.9019591808,0.325745821,-0.0220818408,-0.3262531161,1.5986920595
109,34219,34217,0.0252071638,0.0132245477,0.9294071198,1.6723573208,3.4756474495,-0.5702090859,1.7741744518,3.9017441273,0.3255028725,-0.0363943279,-0.2848082781,1.5915486813
110,34229,34227,0.048253417,-0.086703591,0.9407904148,-0.2624286711,6.1355085373,-0.2160504013,1.7747855186,3.9017896652,0.3255112767,-0.0123004066,-0.2686894238,1.5836045742
111,34239,34237,0.0255868621,-0.0670113042,0.9482332468,-1.9629420042,2.9992554188,-0.3534832299,1.7751955986,3.9017410278,0.3252221644,-0.0355145745,-0.2839500904,1.5799930096
112,34249,34247,0.0089763515,0.0253691282,0.9695838094,-3.4285547733,5.3704180717,-0.3000975549,1.7755652666,3.9024839401,0.3248816729,-0.0396648496,-0.3298548162,1.5755912066
113,34259,34257,-0.0377708487,0.0104509853,0.9886178374,-3.4135653973,5.7686057091,-0.498386085,1.7776497602,3.9016625881,0.3244739771,-0.1432462633,-0.3177568316,1.5745970011
114,34269,34267,0.0092952847,-0.0429228097,0.9561176896,-1.5900844336,6.1124796867,-0.132332623,1.7780315876,3.9032251835,0.3238970935,-0.2517410219,-0.3830096126,1.5820770264
115,34279,34277,0.0028002521,0.0135934027,0.9636134505,0.3990172744,4.190407753,-0.2267258018,1.7784837484,3.9026136398,0.3234491646,-0.2758512795,-0.4153724611,1.5722078085
116,34289,34287,0.0052020014,-0.0373334959,0.9567145109,2.2405347824,3.4395918846,-0.2029350847,1.7791830301,3.9026041031,0.3229346573,-0.3586016893,-0.4137376845,1.5729962587
117,34299,34297,-0.0166860614,-0.0078014187,0.9779875875,3.3526415825,1.264608264,-0.4505470991,1.7806037664,3.90204072,0.3247699142,-0.4160681665,-0.3795349598,1.5712965727
118,34309,34307,0.0199480895,-0.0077869445,0.9656549096,2.7717943192,-0.0017586792,-0.1002175435,1.7803052664,3.9015953541,0.324475795,-0.2852971256,-0.3315471709,1.5576423407
119,34319,34317,1.40216104682622E-06,-0.0345133021,0.9694071412,1.8452659845,-0.7306277752,-0.2844987214,1.7814782858,3.901599884,0.3239997923,-0.3780460358,-0.2921166122,1.5618208647
120,34329,34327,-0.0050238408,-0.0135475667,0.9729472399,1.4278745651,-2.917547226,0.1598420143,1.7819551229,3.9019823074,0.3264607191,-0.304920584,-0.2691678703,1.5537437201
121,34339,34337,0.0153229181,-0.0946208164,0.9895957708,-0.3304327428,-0.60904634,-0.2832629383,1.782700181,3.9018878937,0.3261119425,-0.3043752909,-0.2638385594,1.5517319441
122,34349,34347,-0.0327266157,-0.0488351658,0.9825615287,-1.2674261332,2.1098616123,-0.648340404,1.786749959,3.9023263454,0.3256723285,-0.4798894823,-0.3575714529,1.5491626263
123,34359,34357,-0.0080978647,-0.000581024,0.9947900176,-0.332207799,3.5879299641,-0.4149577618,1.7865235806,3.9016828537,0.3249228001,-0.4379430115,-0.3708864152,1.5318071842
124,34369,34367,0.029871719,-0.0210224409,0.9424298406,0.1670105159,6.6674785614,-0.3752526641,1.7875645161,3.9024207592,0.3245430589,-0.4173106551,-0.3718580902,1.5240057707
125,34379,34377,0.0412336178,-0.0119579937,0.9383333921,2.4383299351,1.8598165512,0.070416376,1.7878649235,3.9033029079,0.3241694868,-0.3992416263,-0.3480659723,1.5342537165
126,34389,34387,0.0369617157,-0.0210378915,0.9306532145,4.5723404884,-0.8976261616,0.1255076677,1.7894091606,3.9039139748,0.3236533105,-0.4161592722,-0.2932531834,1.5356011391
127,34399,34397,-0.0056945356,0.0034861297,0.9720366001,5.0124974251,-3.169703722,0.299334228,1.7913234234,3.9055473804,0.325568229,-0.4074748158,-0.3711837232,1.5400227308
128,34409,34407,-0.0429661945,0.0143646682,1.0135387182,3.6856882572,-0.6464658976,0.6560364962,1.7928879261,3.9052507877,0.3250856996,-0.4621263444,-0.283528477,1.5487856865
129,34419,34417,0.0023904662,0.0079376288,0.9631130695,3.0950374603,0.1640246809,0.9730926752,1.7929532528,3.9051122665,0.3246869445,-0.3760472238,-0.2141387761,1.5514247417
130,34429,34427,0.0067004692,-0.0308027901,0.9592467546,3.6926441193,0.0289706308,1.4529730082,1.7945183516,3.9049947262,0.3244339824,-0.4546060562,-0.2263178229,1.5567250252
131,34439,34437,-0.0156102628,-0.0256027989,0.9839781523,3.4474945068,-0.1763347387,1.3617049456,1.7952371836,3.9055452347,0.3239982128,-0.3687365949,-0.1509464085,1.5674085617
132,34449,34447,0.0241257269,0.0831600949,0.9828407764,4.7482481003,-2.8169186115,0.7294214964,1.7963984013,3.9055616856,0.323541522,-0.3035240173,-0.0888953507,1.5705440044
133,34459,34457,-0.0243183021,-0.0344308876,0.9712123871,1.5875831842,0.4270071983,1.4400824308,1.7988983393,3.9070174694,0.3236154914,-0.449632287,-0.1755880266,1.5797293186
134,34469,34467,0.0354450457,-0.0124441758,0.9716364145,1.86203444,-0.0511793494,0.9399713278,1.7980984449,3.9071726799,0.32313779,-0.451610744,-0.1284752041,1.5921709538
135,34479,34477,-0.0479851514,0.0598083325,0.9579119086,1.1225728989,0.7402119637,1.3173818588,1.799646616,3.90691185,0.3226057887,-0.4610501826,-0.0871125236,1.6017473936
136,34489,34487,-0.011752164,-0.0384634361,0.9906551838,0.6300399899,-1.080478549,1.1176326275,1.8001585007,3.9071354866,0.3220014274,-0.5452826619,-0.0592566915,1.6215327978
137,34499,34497,-0.0006398612,-0.0816886127,0.9788094759,-1.2115963697,-0.4551530778,0.7258229852,1.8004426956,3.9070770741,0.3214683235,-0.4582449496,-0.0557218529,1.6281946898
138,34509,34507,-0.0023116558,0.0031911172,1.0010006428,0.5228120685,-5.5154738426,0.5603970885,1.8013643026,3.9067919254,0.3208765686,-0.4388018847,-0.0614450239,1.6275473833
139,34519,34517,0.0113210557,-0.0298171416,0.9655421376,-0.5972678065,-1.4606925249,0.9298391342,1.8024427891,3.9073371887,0.3201949596,-0.4281242192,-0.0464615524,1.6428034306
140,34529,34527,-0.0026871909,-0.0705744624,0.9711682796,0.2755686343,-5.6570906639,0.9173887372,1.8037550449,3.9076628685,0.323458463,-0.4185578525,-0.1093321741,1.6432440281
141,34539,34537,-0.0153285163,0.0156992488,1.0080246925,1.0114439726,-4.5233306885,1.0788319111,1.8055876493,3.9086549282,0.3229932487,-0.3856491745,-0.0848866105,1.6651703119
142,34549,34547,0.0201549083,-0.063823469,0.9853681326,2.2967269421,-2.6023793221,0.6350787282,1.8063340187,3.9084484577,0.3226710856,-0.2256920934,-0.0524837077,1.6741520166
143,34559,34557,-0.0105933622,-0.0652331859,0.9772059321,2.936496973,0.1465838701,0.1132000536,1.8069727421,3.9075431824,0.321834445,-0.1808747351,-0.0026684781,1.6741863489
144,34569,34567,-0.0030558216,0.0596269704,0.9991905689,2.2902414799,3.8506424427,-0.1961746216,1.8072063923,3.9073367119,0.321398139,-0.0970204547,0.0554044358,1.676025629
145,34579,34577,0.0293868016,0.0471146442,0.9194605947,2.0580251217,1.5727723837,-0.2489660382,1.8086143732,3.9068505764,0.3208650649,-0.208766371,0.1030735001,1.6705070734
146,34589,34587,-0.0180475824,0.0067953691,0.998839736,0.9456375837,3.4920291901,-0.2618084252,1.8116793633,3.9084737301,0.320227623,-0.3581105173,0.0009389575,1.6676667929
147,34599,34597,0.0023234305,-0.0329407118,0.9868074059,-0.4288125038,1.1178338528,-1.2156552076,1.8118292093,3.9074454308,0.3234158754,-0.3066185117,0.033455804,1.6529927254
148,34609,34607,-0.0149801169,-0.0289463438,0.9662889242,-1.6743813753,-1.4778020382,-1.3697735071,1.8133759499,3.9075574875,0.3229946196,-0.3853946328,0.0406071879,1.6422735453
149,34619,34617,-0.0319738276,-0.0044082627,1.0064098835,-2.7701544762,-4.9510269165,-1.5082677603,1.813603878,3.9066755772,0.3227649331,-0.2581246197,0.1003288627,1.6296759844
150,34629,34627,0.0552157424,0.0093857255,0.9570657611,-3.2698845863,-7.5268411636,-1.1744948626,1.8145965338,3.90726614,0.323466599,-0.2270099968,-0.0118493298,1.6057864428
151,34639,34637,0.022345826,-0.0175829437,0.9621500969,-2.3972289562,-7.4486479759,-1.9109485149,1.8156648874,3.9076566696,0.3231145442,-0.1591624469,-0.0495975837,1.5922734737
152,34649,34647,-0.0080385488,-0.0920523629,0.9512079358,-0.6430340409,-4.9653987885,-1.2751543522,1.8173706532,3.9075520039,0.3227454424,-0.0333069302,-0.0718296468,1.5760141611
153,34659,34657,-0.0282322224,0.0357450023,1.0154217482,3.2896585464,-2.2834539413,-0.9333543777,1.8184078932,3.9077041149,0.3218600452,-0.0231185444,-0.0542459227,1.563221097
154,34669,34667,0.0316935293,-0.0409412161,0.9315428138,5.7868227959,-0.6763656735,-1.1245903969,1.818690896,3.9075312614,0.3214867711,0.100773178,0.0187197924,1.5608059168
155,34679,34677,-0.0344111659,0.0606608093,1.0139636993,6.6233315468,2.5131480694,-1.4634671211,1.8193444014,3.9067983627,0.3210107088,0.1092735678,0.1280368268,1.5410852432
156,34689,34687,0.0014615493,0.0093059326,0.9434232712,5.2028746605,4.5256762505,-1.6028641462,1.8211253881,3.9080653191,0.3229578137,-0.0993081033,0.0887612179,1.5276674032
157,34699,34697,0.0168874376,0.0647399053,0.9889927506,4.3017158508,2.3200721741,-1.7801909447,1.8212418556,3.9069445133,0.3226223588,-0.0906988904,0.1826224476,1.5093408823
158,34709,34707,0.0300641265,-0.0007937785,0.9541178346,3.1273713112,1.700070858,-2.0652215481,1.8219025135,3.9081058502,0.3222663105,-0.0537871793,0.1832216531,1.4841972589
159,34719,34717,0.0446465239,-0.0624066815,0.9649806023,0.7495315671,-0.0475433432,-1.7111599445,1.8227874041,3.9075152874,0.3218377531,-0.0630351156,0.237115413,1.4649009705
160,34729,34727,0.0419621877,-0.0702042803,0.9611831903,-0.5485134721,-2.4032814503,-2.0403804779,1.8241343498,3.9078621864,0.3238519132,-0.0524703935,0.1836004853,1.4397683144
161,34739,34737,-0.0038442165,0.025555253,0.9767550826,-2.2069280148,-4.2734103203,-2.2595150471,1.8254659176,3.9071378708,0.3234618306,-0.0976476669,0.2556178272,1.4173747301
162,34749,34747,0.0561090745,-0.1138277203,0.9322026372,-0.6365507841,-6.1226334572,-2.9132797718,1.8265939951,3.9068388939,0.3230326176,-0.0923364311,0.23595272,1.388894558
163,34759,34757,-0.0267999619,-0.0119648492,1.0106707811,1.2499793768,-6.7998805046,-3.3284270763,1.825932622,3.9070611,0.3242310584,0.1015476659,0.240673542,1.3639088869
164,34769,34767,0.0159177817,-0.0039226119,0.9149958491,3.5536358356,-6.8706026077,-3.6725585461,1.8269990683,3.90807724,0.3238036335,-0.0246133432,0.1957795769,1.336841464
165,34779,34777,-0.0131268697,0.0384332947,1.0121303797,4.1017389297,-7.9637522697,-3.8442065716,1.8258570433,3.9067773819,0.3235217035,0.1823400557,0.2647349536,1.2848409414
166,34789,34787,-0.0259331223,0.0426343642,1.000108242,1.3468971252,-9.8684120178,-4.9751315117,1.8264422417,3.906837225,0.3254437745,0.3231614232,0.3268075585,1.2461122274
167,34799,34797,-0.0150673045,-0.0380776897,0.9692088962,-1.5312012434,-10.2774534225,-4.9802994728,1.8284205198,3.9066717625,0.3251449764,0.3352803886,0.3458078206,1.2048637867
168,34809,34807,-0.0198374819,-0.0190282892,0.9792608023,-4.0739183426,-7.5674295425,-5.1037211418,1.8290432692,3.9078037739,0.3248705268,0.4983021319,0.3185570836,1.1451538801
169,34819,34817,-0.0044688839,0.0028478806,0.9927862287,-6.0340161324,-4.7397828102,-5.2003030777,1.8320688009,3.9079015255,0.3244993091,0.3917753994,0.2517125607,1.0920404196
170,34829,34827,0.0124917347,-0.0368085951,0.9850242734,-6.4858899117,-2.1066401005,-5.7125701904,1.8316246271,3.9078149796,0.3278819919,0.5448642373,0.1610079855,1.0444303751
171,34839,34837,-0.0221095122,-0.0379021093,1.0018806458,-6.4093947411,-0.4212664068,-6.0691695213,1.8324584961,3.9082984924,0.32775262,0.5613702536,0.0644093677,0.9911800027
172,34849,34847,-0.0090481648,-0.0260273721,0.9822220206,-3.7431616783,0.1113996133,-6.1540265083,1.833370924,3.9073872566,0.3276215494,0.4871407449,0.0546577424,0.9134040475
173,34859,34857,0.0061059478,-0.0068828301,0.9698502421,0.1908017099,0.4403903186,-6.6474599838,1.8335431814,3.9082560539,0.3283454776,0.5664835572,0.0093813976,0.8639960289
174,34869,34867,-0.0317818411,-0.0297299121,0.9992581606,2.4877076149,0.8886576891,-7.4023051262,1.8348076344,3.9080998898,0.3282332122,0.5662154555,0.0208508652,0.7936965227
175,34879,34877,0.0135703981,0.0784423053,0.9691259265,4.5293765068,2.1027853489,-7.9470500946,1.834512949,3.9072875977,0.3281594217,0.6274029016,0.0737790838,0.700273037
176,34889,34887,0.0327949375,0.0600735024,0.9202057719,5.0725269318,4.124437809,-8.565112114,1.8365861177,3.9073958397,0.3304070234,0.5735087991,0.1538812518,0.6230120063
177,34899,34897,-0.0594902709,0.0480896756,0.9974294901,2.3394422531,6.6881957054,-8.6555013657,1.8373523951,3.9073431492,0.3303616047,0.5506492257,0.1526383907,0.541431725
178,34909,34907,-0.0623014942,0.0711281076,0.9986686707,-0.0696281195,12.1720457077,-8.0453166962,1.8381448984,3.907610178,0.3303009272,0.4764242768,0.1786615402,0.4562216699
179,34919,34917,-0.0165444054,-0.1408819258,0.9367004633,-1.8120983839,13.6298837662,-6.8846373558,1.8393915892,3.9067211151,0.3318438828,0.3607652485,0.2420732528,0.3606223762
180,34929,34927,0.0323481299,-0.1251945496,0.9273549318,-1.5939933062,8.8657751083,-5.8452439308,1.8398214579,3.9071395397,0.3318716288,0.2336870134,0.207011506,0.2892030776
181,34939,34937,0.0266615935,0.0056802128,0.943205893,0.8530709743,7.4171142578,-5.8318934441,1.8409348726,3.9072911739,0.3318223059,0.1528332978,0.1835702211,0.2421266139
182,34949,34947,-0.0047256202,-0.0044691884,0.934276402,7.0868926048,2.1013274193,-5.6179718971,1.8405863047,3.9058785439,0.3317546248,0.1796841025,0.2129389942,0.1748290807
183,34959,34957,-0.0967978537,-0.0039881459,0.979421258,10.401140213,2.754585743,-5.1111984253,1.8410052061,3.9058983326,0.3330668211,0.152635023,0.328245014,0.1073878855
184,34969,34967,0.0433186404,0.0042889216,0.9229551554,12.3572616577,6.0580196381,-4.6060414314,1.8394449949,3.9055521488,0.3329796493,0.196858719,0.4235060811,0.0654637739
185,34979,34977,0.0114192767,-0.0006620181,0.9304245114,8.0528097153,9.498093605,-4.7967209816,1.8401433229,3.9057052135,0.3327996731,0.0484338738,0.5306611657,0.0207161605
186,34989,34987,-0.0554362163,-0.0144379912,0.9363572598,1.886505127,3.1235563755,-4.3640232086,1.8413386345,3.9067647457,0.333058089,-0.0498427153,0.5626841187,-0.0088728704
187,34999,34997,-0.1462884694,-0.0116295079,0.9879280925,-7.5149216652,8.228012085,-3.6463444233,1.8414191008,3.9064025879,0.3327827156,-0.1285339892,0.5568922758,-0.055303134
188,35009,35007,-0.0039521423,0.0104954122,0.9437246323,-12.2538089752,5.6785058975,-3.4566493034,1.8400452137,3.9076421261,0.3326247334,-0.0657406151,0.4228847027,-0.0788087621
189,35019,35017,0.0107371574,0.0091764657,0.9419305325,-13.6135177612,2.0531065464,-3.3690588474,1.8414506912,3.9080944061,0.3308112919,-0.1966307759,0.2975995839,-0.1107198
190,35029,35027,-0.0260392502,-0.001932538,0.9609571695,-9.5674581528,-7.9002132416,-2.942882061,1.8415054083,3.9081981182,0.3303130269,-0.2410659641,0.2406282127,-0.1367566139
191,35039,35037,-0.0290748924,0.0043147807,0.9635238051,-0.631991446,-5.4836525917,-2.5631289482,1.8420995474,3.9080483913,0.3298171461,-0.1181986704,0.1799414158,-0.1482217163
192,35049,35047,0.0550309196,-0.0184620377,0.9226502776,10.8648042679,-4.4826545715,-1.0415701866,1.842784524,3.9073724747,0.329186976,-0.1269173175,0.1822595745,-0.191976279
193,35059,35057,0.0700293481,-0.0269768108,0.9199407697,16.2218914032,-2.9652280807,0.8206602335,1.8436181545,3.9069070816,0.3259344399,-0.0515855961,0.3617387414,-0.2001357079
194,35069,35067,0.1828401834,-0.0200356953,0.8788045645,18.9836387634,-7.3038783073,2.2696406841,1.8441932201,3.9068331718,0.3251115978,0.0526454262,0.4895275235,-0.1882498413
195,35079,35077,0.0629005358,-0.0166997276,0.9373570085,13.7361907959,2.9462652206,3.2335453033,1.845564127,3.9068861008,0.3240788579,0.053063117,0.7024098635,-0.1904350817
196,35089,35087,-0.0046744435,0.0426933691,0.9776670933,4.5070362091,6.3721561432,4.6519527435,1.8467570543,3.9067754745,0.3250725567,-0.0593645982,0.731790185,-0.1610264033
197,35099,35097,-0.0088158948,0.0466161408,0.9770972729,-6.9882407188,13.8423089981,4.574719429,1.8481119871,3.9073867798,0.3239900172,-0.1728658527,0.6744875312,-0.121114403
198,35109,35107,-0.021730328,-0.0216497779,0.9089794159,-13.7607860565,15.0217981339,4.9249558449,1.8482037783,3.9076623917,0.3228878975,-0.2926429808,0.58565557,-0.0672465414
199,35119,35117,0.0223825555,-0.007971799,0.9571749568,-15.9758462906,14.2912406921,5.7116055489,1.8497872353,3.9075191021,0.3250272274,-0.4897871912,0.4815770388,-0.0133889047
200,35129,35127,0.00775707,0.0057006287,0.9884698391,-10.9662132263,9.3332271576,6.416009903,1.8509018421,3.9069874287,0.3240686059,-0.6423794031,0.374299705,0.029408399
201,35139,35137,-0.0289618,0.0337889679,1.0133897066,-4.9768671989,3.0188217163,7.6694946289,1.8518265486,3.9077768326,0.3231298923,-0.6998755932,0.2050088942,0.1074327677
202,35149,35147,0.0140382433,0.0215940718,0.9536629319,1.3280185461,0.7576580644,8.7671871185,1.8510828018,3.9064223766,0.322257936,-0.6604062319,0.2273387313,0.1771172434
203,35159,35157,-0.072499834,0.1089748889,1.0056215525,4.2163043022,-0.2120923847,10.3835859299,1.8533014059,3.9064862728,0.3229058683,-0.7562955618,0.2542079091,0.2601189315
204,35169,35167,0.0015232981,0.0710721985,0.94591856,3.7998831272,2.4957351685,12.0038490295,1.8533841372,3.9054355621,0.3220340908,-0.7182539105,0.3059889078,0.3589978516
205,35179,35177,-0.048517745,0.0804731399,1.0144654512,3.0875926018,-2.7582650185,12.6012125015,1.8536971807,3.9056563377,0.3211688399,-0.6953904033,0.3423733413,0.4900251627
206,35189,35187,0.0204272307,-0.0096436068,0.973020196,-2.5906310081,-0.3318921626,13.0080490112,1.8545581102,3.9066839218,0.3180743158,-0.7055359483,0.3465254009,0.6421123147
207,35199,35197,0.0084643383,-0.0227157939,0.9792889357,-8.9093227386,-0.2079514563,13.2872886658,1.8547286987,3.9060018063,0.3170040846,-0.7123593688,0.3223653138,0.7642982602
208,35209,35207,-0.0261416174,0.019233359,0.964941144,-13.1461677551,3.1500556469,13.6568498611,1.8543170691,3.9059221745,0.315985769,-0.6475701928,0.2045260221,0.8980743289
209,35219,35217,-0.0479265228,0.0750560611,1.0097587109,-11.1594810486,3.2367999554,13.8331041336,1.8544297218,3.9058992863,0.3198496699,-0.6416211128,0.0529955775,1.0342698097
210,35229,35227,0.0143532911,-0.0207045153,0.9756831527,-9.1459722519,8.395160675,14.2114915848,1.8548679352,3.9057319164,0.3190359175,-0.6687117815,-0.0627329126,1.1737656593
211,35239,35237,0.0033432785,0.033758793,0.9432045817,-6.6375412941,15.1252422333,14.7675800323,1.8552891016,3.9049797058,0.31820485,-0.7731689811,-0.1253845841,1.3066247702
212,35249,35247,-0.0240188297,-0.0586979948,0.9711551666,-3.1683454514,17.4156761169,13.9605436325,1.857867837,3.9055116177,0.3227892518,-1.1346936226,-0.2183630764,1.4470801353
213,35259,35257,-0.0627062544,0.0274961013,1.0207246542,-0.7720979452,13.2981214523,13.3659582138,1.858397603,3.9050517082,0.32228598,-1.2506819963,-0.1884337068,1.5855405331
214,35269,35267,-0.0833256021,0.0271579642,1.0469868183,4.156484127,2.2131762505,12.6134004593,1.8575934172,3.9031698704,0.3219461739,-1.1996108294,-0.1138928235,1.7084302902
215,35279,35277,-0.0558960401,-0.005727726,0.9814996123,0.4108283818,-1.0468856096,13.1561460495,1.8578360081,3.9029817581,0.321441859,-1.2391890287,-0.0834279954,1.8344203234
216,35289,35287,-0.0202853084,-0.1055530235,1.0317792892,-2.7312934399,-8.104268074,12.2919473648,1.8592387438,3.9026267529,0.3231662214,-1.2714627981,-0.1059159264,1.9468356371
217,35299,35297,0.032034155,-0.0852897018,0.9421314597,-7.4501523972,-5.1722445488,11.8430395126,1.8585976362,3.9019784927,0.3229252696,-1.0654805899,-0.183046639,2.0482664108
218,35309,35307,0.0131930476,-0.0456893444,0.9802985191,-8.5324306488,-9.3066978455,11.2774410248,1.8609521389,3.9018342495,0.3224152923,-1.1808620691,-0.2440834641,2.1682269573
219,35319,35317,0.0092800474,0.0164401922,0.9438943267,-9.112651825,-5.1998138428,9.5968103409,1.862349391,3.9012758732,0.3203786314,-1.1861755848,-0.335150063,2.2675259113
220,35329,35327,-0.0555012897,0.090160653,0.9738726616,-8.0422763824,-0.2631262243,8.3255739212,1.8618996143,3.9019577503,0.319953233,-1.0275864601,-0.4970521629,2.3570754528
221,35339,35337,-0.1048188806,0.0359698609,0.9815071821,-4.1728701591,3.824493885,6.7953190804,1.8636417389,3.9009976387,0.3194425702,-1.0015211105,-0.4595595002,2.4554612637
222,35349,35347,-0.0929973423,0.0487735644,0.9944415092,-3.1526632309,9.8414840698,5.4112644196,1.8647279739,3.9013483524,0.3213371634,-1.015385747,-0.5432499051,2.4987220764
223,35359,35357,0.0312315151,-0.0630763918,0.9031540751,-2.7570624352,12.0972604752,4.5389523506,1.865593195,3.9002344608,0.3208903372,-1.1033712626,-0.5242827535,2.5654599667
224,35369,35367,-0.0202683397,0.006845247,0.9626896381,-2.265283823,11.7384052277,3.2147827148,1.8664876223,3.8991806507,0.3204039931,-1.2152637243,-0.4267122149,2.6253631115
225,35379,35377,0.0408637039,0.0142621761,0.9588900208,-1.9907979965,8.2396249771,1.6743150949,1.8666299582,3.8992249966,0.3198798299,-1.2932454348,-0.4804082513,2.650510788
226,35389,35387,0.0269851722,-0.088764593,0.9492762685,-3.9672250748,3.8442585468,0.2886507809,1.8680197001,3.8990781307,0.321760267,-1.3897008896,-0.5482501984,2.6496260166
227,35399,35397,0.0250046235,0.0273625255,0.9310820103,-1.9586260319,0.2793311775,-0.2698792815,1.8704208136,3.8996086121,0.3210828006,-1.5508710146,-0.6054589748,2.6474261284
228,35409,35407,0.0303119514,0.0316117145,0.9853743911,1.5186874866,-6.8043599129,-1.7771123648,1.8702067137,3.8997452259,0.3208467662,-1.353017211,-0.6368066669,2.641474247
229,35419,35417,-0.0600883886,0.0085232919,0.9930737019,2.1718683243,-10.3124828339,-2.7228085995,1.870097518,3.8996376991,0.3224545121,-1.2188042402,-0.6174758673,2.6412072182
230,35429,35427,0.0362794921,-0.1024033949,0.9224448204,0.0742885023,-7.0637612343,-3.5590729713,1.8739665747,3.9003221989,0.3217507303,-1.4267295599,-0.6025498509,2.6364495754
231,35439,35437,-0.0160012394,0.0187839642,0.9879629612,2.5601050854,-8.5395841599,-5.0535707474,1.874802947,3.8988170624,0.3213992417,-1.2377189398,-0.5067077875,2.592343092
232,35449,35447,0.0201184805,-0.0561777242,0.9454782009,3.7464022636,-8.3406238556,-6.1728286743,1.8763237,3.8988907337,0.3215166926,-1.2166844606,-0.4798268378,2.5335054398
233,35459,35457,0.0206520315,-0.0007873988,0.9281125069,2.3470318317,-5.4186263084,-7.9777321815,1.8785955906,3.8992605209,0.3210271895,-1.1013928652,-0.4271115065,2.498606205
234,35469,35467,-0.0233135931,0.0760663822,0.9147152901,1.0550603867,-4.5528359413,-7.9578557014,1.8796770573,3.8986198902,0.3204329014,-1.0119765997,-0.4026841223,2.405412674
235,35479,35477,-0.0235037133,0.020470731,0.9497414827,1.3320207596,-8.0041885376,-7.8067727089,1.8801164627,3.8977301121,0.3198403418,-0.855099678,-0.3938963115,2.2980105877
236,35489,35487,-0.0689621568,0.0045784023,0.9799611568,1.1779328585,-8.35160923,-7.2329506874,1.8840476274,3.8973577023,0.3185894191,-1.0434373617,-0.3851124644,2.2302093506
237,35499,35497,-0.0460409336,-0.0637312531,0.9910897613,1.411888957,-8.0262756348,-7.4366106987,1.8840028048,3.8973824978,0.3180577457,-0.7819847465,-0.3809455931,2.1431925297
238,35509,35507,-0.0368879102,0.124100782,1.0320745707,0.4764214754,-4.6479725838,-6.5271053314,1.8859473467,3.8969101906,0.3171018064,-0.8541836739,-0.3701032102,2.0534057617
239,35519,35517,0.0060818815,0.0988305062,0.9347984791,2.4069435596,-4.6030783653,-5.5187091827,1.8863426447,3.8964326382,0.3135684729,-0.7085524201,-0.3589374125,1.9946619272
240,35529,35527,-0.0252990462,0.0025973311,1.0042420626,2.5392622948,-5.0643959045,-4.9880580902,1.8878831863,3.8969700336,0.3126055598,-0.6412075758,-0.3268831372,1.9562815428
241,35539,35537,0.0264738351,-0.0286283363,0.9580483437,2.3083717823,-6.2124500275,-4.6960206032,1.890055418,3.897405386,0.3115371168,-0.6401830912,-0.2969403267,1.9274929762
242,35549,35547,-0.0676708445,0.0096249627,0.9989022613,2.0494921207,-8.7865962982,-4.999045372,1.8915109634,3.8974540234,0.3128013909,-0.560133636,-0.2750666142,1.8593978882
243,35559,35557,-0.0416563153,0.0181066394,0.9566217065,2.6042313576,-9.2248802185,-4.6923618317,1.891477704,3.8994069099,0.3118416965,-0.514816463,-0.2480692565,1.8964655399
244,35569,35567,-0.0582043007,0.0230037719,1.0396842957,6.009223938,-12.4474515915,-4.3558149338,1.8934178352,3.8987658024,0.3108836114,-0.4444662035,-0.1956722587,1.8372710943
245,35579,35577,-0.0034122898,-0.0433123186,0.9963120222,7.8021388054,-10.6084823608,-4.3550992012,1.8945879936,3.8985981941,0.3100502491,-0.2710802555,-0.0990176797,1.7971291542
246,35589,35587,-0.0270580743,0.0136572151,1.0208677053,8.5043544769,-9.2481536865,-3.7374577522,1.8955705166,3.8980853558,0.3127599359,-0.0788917989,0.0316478163,1.7545883656
247,35599,35597,0.0470984131,-0.0881919786,0.9720891714,4.0094571114,-4.1755475998,-3.4150958061,1.8978568316,3.8993051052,0.3120428622,-0.1467596591,-0.0275239162,1.7247083187
248,35609,35607,0.0444357954,-0.0821838528,0.9571735263,-0.569165349,-0.9287957549,-3.0800068378,1.898966074,3.8999330997,0.3114483058,-0.0144545157,-0.0002558069,1.7066204548
249,35619,35617,0.0308996886,-0.1737711579,0.9528874755,-3.0161092281,-1.6290128231,-3.7712366581,1.901538372,3.8993387222,0.3125876486,-0.0714386851,-0.028131254,1.6488152742
250,35629,35627,0.0155322673,-0.0224213488,0.9839934111,-3.7814185619,1.4266135693,-3.6384160519,1.9037587643,3.8995580673,0.311838299,-0.1378253549,-0.0823525116,1.6133067608
251,35639,35637,0.0198822301,0.0857465342,1.0247228146,-1.8811352253,-2.929049015,-3.0692565441,1.9054055214,3.8987355232,0.3111977279,-0.123029016,-0.0487483032,1.5783202648
252,35649,35647,0.0768826231,-0.0316681452,0.9853488207,0.3284141123,-5.9499530792,-4.0411996841,1.906140089,3.8992938995,0.3143626451,0.0331714861,-0.0731030852,1.5411431789
253,35659,35657,-0.0493166931,0.0783162117,0.9978049397,1.4356229305,-10.7761116028,-2.758528471,1.9090846777,3.8994245529,0.3138445318,0.0084047718,-0.0655619279,1.5105224848
254,35669,35667,0.0126828561,-0.0093099,0.9828671217,1.9782429934,-12.4829597473,-2.3232486248,1.9107321501,3.8991119862,0.3135373592,0.2056739926,-0.0450717472,1.4919312
255,35679,35677,-0.0165558718,-0.0233459435,0.9757127166,1.5433915854,-12.0678033829,-1.3365035057,1.9118288755,3.8999423981,0.3126961887,0.3167488277,-0.0233608726,1.471653223
256,35689,35687,-0.0469976477,0.0100792879,1.0006439686,1.2767758369,-10.3005371094,-0.7874773741,1.913838625,3.8995480537,0.3121356666,0.3558273315,-0.0014928823,1.45946455
257,35699,35697,-0.011237436,-0.0172491074,0.9942076802,0.2927546501,-7.3417015076,-0.070922859,1.914305687,3.8997950554,0.3116971552,0.5123714805,0.0004256419,1.467264533
258,35709,35707,-0.0249169338,0.0269165486,0.9772050381,-1.4720880985,-4.5104694366,0.95290941,1.9144217968,3.9000148773,0.3113692701,0.7533372045,-0.0167346615,1.4694064856
259,35719,35717,-0.0678078681,-0.1153637171,0.9873975515,-2.6021158695,0.1851028204,2.274528265,1.9184709787,3.9004120827,0.311619103,0.4531872869,-0.0496422388,1.4758605957
260,35729,35727,0.0150178345,-0.042160444,0.9604505301,-2.0503568649,4.0697612762,3.3794219494,1.9213203192,3.8985102177,0.3112762868,0.5247133374,-0.0069944169,1.4579250813
261,35739,35737,-0.0013788121,0.0538636446,0.963219285,0.0795991793,1.3744521141,2.9213533401,1.9221819639,3.8982322216,0.3107371628,0.483743161,0.0436417833,1.4921131134
262,35749,35747,-0.0707704723,0.0518980809,0.9689294696,1.2871593237,-1.7646983862,3.3667984009,1.9234611988,3.8983345032,0.3124245107,0.5570542812,0.0320380479,1.5281698704
263,35759,35757,-0.0534831695,0.0274544731,0.914460659,-1.2828574181,-1.9533089399,3.3485748768,1.9249382019,3.8986010551,0.3119786978,0.5772654414,0.0227531269,1.5742717981
264,35769,35767,-0.0400982089,0.0190008655,0.9873301983,-2.2236127853,-2.9428915977,2.5292253494,1.92550385,3.8986938,0.3115020394,0.6066374779,-0.0195461269,1.6054064035
265,35779,35777,-0.05285668,-0.0273410827,1.0060687065,-0.0638573095,-8.1567745209,2.1295816898,1.9267261028,3.8995645046,0.3102922142,0.6522289515,-0.0603852533,1.6685103178
266,35789,35787,-0.078268297,-0.0279885922,0.9867070913,-2.4969658852,-1.2644773722,1.4031296968,1.9272748232,3.900141716,0.3097130358,0.7191356421,-0.0823094323,1.7109110355
267,35799,35797,-0.0210727379,-0.1056202129,0.9498541355,-2.3109748363,0.3281504512,0.7790020704,1.9289491177,3.8997554779,0.3091026545,0.7105278373,-0.0500027165,1.713514924
268,35809,35807,-0.030951079,0.0464683548,0.990739584,-0.4603702426,1.9604309797,0.464329958,1.930670619,3.9003360271,0.3084243834,0.6874834895,-0.0953592733,1.7397919893
269,35819,35817,-0.0166305788,-0.0343073346,0.9569091797,2.5395526886,1.0069237947,0.0524783731,1.9311980009,3.9002530575,0.3047304749,0.7012361884,-0.1055805981,1.7449178696
270,35829,35827,-0.0292960647,-0.0532275438,0.9558736086,1.9867973328,3.1252160072,1.1338222027,1.9337226152,3.9010272026,0.3037540913,0.5633860826,-0.1473543048,1.7605056763
271,35839,35837,-0.041642759,-0.0091117322,1.0061466694,1.8919739723,0.566059947,2.6205761433,1.9345157146,3.9011449814,0.3029304743,0.5740057826,-0.1183052585,1.7812610865
272,35849,35847,0.0114419069,-0.0545350015,0.9870660305,2.8953597546,0.3977234662,1.9494527578,1.9343395233,3.9015653133,0.3067731261,0.6844676137,-0.0816528946,1.8241852522
273,35859,35857,0.04297968,-0.0137325739,0.9394723773,5.5159258842,-4.1694698334,2.9355251789,1.9353049994,3.9011852741,0.3061726391,0.7485936284,0.0569043718,1.8528784513
274,35869,35867,-0.0014483837,-0.0082335332,0.9851870537,5.6375517845,-5.6156487465,3.6915261745,1.936922431,3.9009916782,0.3054077923,0.7232421637,0.1366094053,1.8866403103
275,35879,35877,0.0166609921,-0.0526542738,0.9442901611,3.7595863342,-5.8258628845,2.9891841412,1.9380949736,3.9006774426,0.3055593073,0.7894753218,0.2018724978,1.9196331501
276,35889,35887,-0.0249186885,0.0039461763,1.0111602545,-0.0492795035,-2.8754651546,3.4735870361,1.9407520294,3.9000930786,0.3047320247,0.6961297989,0.221357137,1.9258753061
277,35899,35897,0.0561083071,0.0137491599,1.0068635941,-2.7400488853,-3.7536315918,3.0589358807,1.9414246082,3.9001965523,0.3041155636,0.7934857011,0.1838683039,1.9627791643
278,35909,35907,0.0545520484,-0.0396619029,0.9515350461,-5.1732587814,-4.2684178352,2.683719635,1.9421803951,3.9002063274,0.3064414859,0.9007405639,0.0969654098,1.9865196943
279,35919,35917,-0.0154413292,0.020614339,1.0121555328,-6.1304860115,-3.754904747,2.7088062763,1.9440324306,3.90122509,0.3058663607,0.8544931412,0.0603943765,2.0604526997
280,35929,35927,0.0022400776,-0.0160390213,0.9954227209,-5.1501245499,-1.6130815744,2.9319667816,1.944149375,3.9005255699,0.305447042,1.0246208906,0.02427065,2.0708093643
281,35939,35937,0.0013118715,-0.0462562703,0.9755849838,-4.75477314,0.0822214857,2.9062302113,1.9470052719,3.8997507095,0.3047690988,0.8497332931,-0.000448325,2.1579291821
282,35949,35947,-0.0037289103,0.0888169184,0.9867321253,-3.1395597458,1.1708583832,2.7599160671,1.9458200932,3.9026675224,0.305401355,0.9237188101,-0.0989139378,2.2284700871
283,35959,35957,0.0202540737,-0.0112457164,0.9714097977,-1.6185634136,1.5364533663,2.9666368961,1.946403265,3.9038701057,0.3049022555,0.9416115284,-0.1592265666,2.3034477234
284,35969,35967,-0.0487452857,0.0465333275,1.0067406893,0.8542970419,0.2043225914,3.3029658794,1.9474657774,3.9026370049,0.3043951094,0.9614272118,-0.0214683209,2.3050999641
285,35979,35977,0.0075607519,-0.0399329327,0.9579369426,1.6724413633,1.0454655886,3.8840181828,1.9509751797,3.9013614655,0.3043507338,0.911913991,-0.0251261536,2.2916283607
286,35989,35987,-0.0062209764,-0.0208587684,0.9729477167,0.537743628,1.2293775082,4.5742893219,1.9525827169,3.9001042843,0.3037357628,0.8532528877,0.0472822227,2.3909041882
287,35999,35997,-0.0166712459,0.0089851217,1.0131803751,-2.1316411495,2.5804488659,4.4719376564,1.9520671368,3.9022054672,0.3031270802,0.8594480157,0.0896469653,2.4622163773
288,36009,36007,0.0253797024,-0.0416047834,0.9635756612,-4.9029026031,3.6877708435,3.5972936153,1.9524493217,3.9020268917,0.3034551442,0.9172162414,-0.001591485,2.4962153435
289,36019,36017,-0.0421362519,0.0568854511,0.9759386182,-7.5147953033,5.0190215111,2.9657466412,1.9532189369,3.9017059803,0.3029012978,0.8959906697,-0.0441979207,2.5269927979
290,36029,36027,-0.0057943314,-0.0148582421,0.9816833138,-7.8296713829,6.9447050095,2.1920964718,1.9551553726,3.9016060829,0.3022599816,0.7580092549,-0.1207767501,2.5490751266
291,36039,36037,-0.0105077066,-0.0181557257,0.968747735,-7.6799402237,8.5703649521,1.9339447021,1.9549075365,3.9014365673,0.3017913997,0.8166329265,-0.2810488045,2.5728402138
292,36049,36047,-0.0002693851,-0.1227174699,1.0256437063,-6.6988897324,9.9623498917,1.7691483498,1.9560726881,3.9019021988,0.3044089675,0.676287353,-0.3544002473,2.6207187176
293,36059,36057,0.039506577,-0.061042551,0.9465132952,-5.9857449532,10.5918827057,1.1818943024,1.9575173855,3.9025092125,0.3038704693,0.455984354,-0.4735083878,2.6852509975
294,36069,36067,-0.0903645828,0.0142902052,1.0135375261,-4.9266872406,9.2458381653,0.8363569975,1.958271265,3.9036180973,0.303511411,0.4013649523,-0.4970849156,2.7215895653
295,36079,36077,-0.0484068207,0.1085085571,0.9379858971,-5.7996997833,7.0501713753,0.5894844532,1.9590492249,3.904818058,0.3032757342,0.3572023511,-0.6040325761,2.7738621235
296,36089,36087,-0.0334622934,0.0646505728,1.0110188723,-4.8642601967,3.3969843388,0.3252193034,1.9591701031,3.9036343098,0.3029094338,0.3615476787,-0.5505678654,2.7596919537
297,36099,36097,0.0217322093,-0.0108903842,0.9775211811,-2.3570773602,-0.3514375985,-0.4791905582,1.9577488899,3.9056339264,0.3024721146,0.4128034711,-0.6358084679,2.8435900211
298,36109,36107,-0.0273799282,0.0144341206,0.9865969419,-1.4635637999,-2.6333212852,-0.5423415303,1.9588985443,3.905356884,0.3054755628,0.311740756,-0.5985369086,2.848025322
299,36119,36117,-0.0609620549,0.1301929355,1.0364074707,3.1126098633,-2.9699840546,-0.2663702965,1.9588965178,3.9057979584,0.3052463531,0.3821645379,-0.6080065966,2.8635401726
300,36129,36127,0.0290236231,-0.0072371941,0.9773073792,4.6815781593,1.7977639437,0.0123454351,1.9608482122,3.9053032398,0.3049352169,0.3544306755,-0.5514593124,2.8562235832
301,36139,36137,-0.0511540845,0.0759014711,0.9660000801,3.3158147335,1.9919723272,2.2030951977,1.9608113766,3.9056046009,0.3047302961,0.4124310911,-0.5697212815,2.8406608105
302,36149,36147,0.0163846873,-0.0397954248,0.9504002929,2.841886282,2.333630085,2.8220541477,1.9627372026,3.9053430557,0.3044185042,0.3097240627,-0.527022481,2.8797414303
303,36159,36157,-0.0100944554,-0.0107068587,0.9746044874,-0.1888174862,3.6100080013,4.1554188728,1.9637029171,3.904753685,0.3040427566,0.2749656439,-0.5060662031,2.8879885674
304,36169,36167,-0.0043757008,-0.036281988,0.9777581692,-3.10414505,-1.7663607597,6.113448143,1.964058876,3.9051980972,0.3036623299,0.2289659083,-0.5582624078,2.9505455494
305,36179,36177,-0.0517430641,-0.0172457527,1.0017479658,-6.5381546021,4.6270489693,6.5282225609,1.9644191265,3.9049639702,0.3037675321,0.2798344493,-0.6521611214,2.9928922653
306,36189,36187,0.0102650188,-0.0764660686,0.9925177097,-5.9058008194,5.0325245857,7.693002224,1.9655650854,3.9055490494,0.3033432961,0.2062834203,-0.7559764385,3.0463097095
307,36199,36197,0.0526049584,0.0226116292,0.946126461,-5.5408053398,6.463719368,8.3210372925,1.9671052694,3.9046278,0.3029503822,0.1080592126,-0.7024677396,3.1404469013
308,36209,36207,0.1037136689,0.0049075354,0.9119691253,-4.0488476753,5.2369213104,8.7182502747,1.9673067331,3.9049787521,0.3022627234,0.1540757567,-0.7981589437,3.2470142841
309,36219,36217,-0.0269652288,0.1019779891,0.9723244905,-3.7088389397,3.2887182236,9.7586269379,1.9687201977,3.9065153599,0.3016135097,-0.0693473965,-0.8662506342,3.381408453
310,36229,36227,0.0012796125,-0.0336749554,0.9629039764,-1.2723724842,2.3732693195,9.3601179123,1.9700905085,3.9065711498,0.3010400236,-0.1024644747,-0.9060572982,3.4704735279
311,36239,36237,0.0494907796,-0.0961713418,0.9652510285,0.6140342355,0.7251290679,9.0489206314,1.9703397751,3.9065806866,0.3024153709,-0.067500785,-0.9212121367,3.5411074162
312,36249,36247,-0.0063153063,0.0760847479,0.949072063,1.2248688936,-1.5342311859,8.7857809067,1.9710232019,3.9063179493,0.3018912077,-0.0399822444,-0.9041731358,3.6307182312
313,36259,36257,0.0083242487,0.0122984294,0.9389110208,4.4473829269,-1.0707739592,7.5015716553,1.9721144438,3.9066162109,0.3014159799,0.0679622293,-0.8511314392,3.7332980633
314,36269,36267,-0.0370864347,-0.0357782915,1.0295834541,6.9694328308,2.6345973015,6.5868835449,1.9740592241,3.9078249931,0.3007119,-0.0253090803,-0.8315250874,3.8486602306
315,36279,36277,-0.0578451157,-0.0527780354,0.9943003058,8.3960447311,8.3590297699,4.6294884682,1.97427845,3.9083693027,0.299092412,-0.0731217936,-0.7625762224,3.9265589714
316,36289,36287,-0.0278802663,-0.0170675591,0.9930858612,10.7641172409,4.2298545837,3.2710459232,1.9751756191,3.9089338779,0.2984597087,-0.0906889215,-0.663245976,3.9801688194
317,36299,36297,-0.00267156,-0.0298174955,0.9901827574,11.202123642,-3.6341326237,2.7693474293,1.9759480953,3.9087936878,0.297814697,-0.051056385,-0.6218894124,3.9638044834
318,36309,36307,0.0009341419,-0.0499509461,0.9789109826,8.5398702621,0.4761049747,2.1050055027,1.9790303707,3.9089548588,0.3008941114,-0.2572240233,-0.510043025,4.0458083153
319,36319,36317,-0.0497186035,0.0073301243,1.0072920322,6.2360315323,-2.4771444798,1.175318718,1.9782699347,3.9097895622,0.3005232215,-0.1694481373,-0.3708308637,4.0706553459
320,36329,36327,0.0067478353,-0.0931637958,0.9669597745,2.9874699116,1.8975769281,0.3031485677,1.979254961,3.9108734131,0.2999740243,-0.2297895104,-0.3532288074,4.1105709076
321,36339,36337,-0.0152187655,0.0497695953,0.9728707075,-1.7758239508,0.4754219353,-0.0181362852,1.9801217318,3.9112079144,0.3025143147,-0.1543921381,-0.3100011647,4.1150565147
322,36349,36347,-0.0639376715,0.074105978,0.9938907623,-4.4292855263,-4.1094779968,-1.0055323839,1.9798238277,3.9113287926,0.3022328317,-0.0571334362,-0.3500171304,4.0953102112
323,36359,36357,-0.0175361149,-0.0160278957,0.9718654156,-9.4415035248,-0.7113682032,-1.604143858,1.9812264442,3.9123733044,0.3018371165,-0.1064711288,-0.5289291143,4.0947165489
324,36369,36367,-0.0550097637,0.0515539087,0.9972871542,-6.6144633293,1.2329908609,-2.1412987709,1.9823067188,3.9146773815,0.3013628125,-0.1513811648,-0.7140228748,4.1021828651
325,36379,36377,-0.081196256,0.0061951275,1.000847578,0.6787486672,-2.3383803368,-2.6745383739,1.982625246,3.9148588181,0.3023159504,-0.120073095,-0.7243143916,4.0778594017
326,36389,36387,-0.0653377995,0.0649788603,0.976108849,9.0936756134,-6.5607709885,-1.7289258242,1.9832741022,3.9153757095,0.3021201193,-0.0275105815,-0.6002981663,4.0941152573
327,36399,36397,-0.0204266664,0.0359456763,1.0018212795,17.260761261,-4.1904067993,-1.6512426138,1.9835466146,3.9150538445,0.3019039631,0.0349704996,-0.3336290121,4.1173424721
328,36409,36407,-0.0232361313,-0.0348573215,0.9882053137,24.1397666931,-6.582947731,-0.4107755423,1.9850347042,3.9153146744,0.3008806407,-0.0033678,-0.1060363948,4.0992126465
329,36419,36417,-0.0515353046,-0.0205070451,1.0008641481,22.8894252777,-5.8926033974,0.966124177,1.9852238894,3.9149374962,0.3005807996,0.089167878,0.1553698629,4.1020460129
330,36429,36427,0.029438382,-0.098309733,0.9532548785,13.2424259186,4.5453410149,2.4416615963,1.9857392311,3.9152464867,0.3003277183,0.1905853748,0.2562760711,4.0659842491
331,36439,36437,0.0637925267,-0.0945345238,0.9759418368,5.1702184677,2.9243211746,2.2945570946,1.9864301682,3.9177889824,0.3025979698,0.180457294,0.135992676,4.0918974876
332,36449,36447,-0.0713958368,-0.0388247781,1.0000989437,-2.9461400509,7.5828342438,3.5272357464,1.9880392551,3.9183022976,0.3023099303,0.01629523,0.207756564,4.1408314705
333,36459,36457,-0.1014441922,-0.0192399323,0.9010264277,-9.4309825897,12.5782928467,4.7711005211,1.9896415472,3.9192941189,0.3020016551,-0.1355857253,0.1522514522,4.1760587692
334,36469,36467,-0.0601598024,-0.0075047282,0.934787631,-9.3689517975,7.8637042046,5.1863203049,1.9912580252,3.9194045067,0.3015982807,-0.27770105,0.0423777513,4.2250595093
335,36479,36477,0.0034053021,0.0043881303,0.9436783791,-8.4314785004,5.7026276588,4.513522625,1.991725564,3.9195604324,0.3017481565,-0.2997351587,-0.0670152009,4.276248455
336,36489,36487,-0.0333327763,0.0347951725,1.0110607147,-6.6501550674,4.1801919937,4.0015392303,1.9924896955,3.9208476543,0.3013792038,-0.3024373353,-0.162957862,4.3358831406
337,36499,36497,-0.023831103,0.0061454829,0.986436367,-0.5727520585,-0.5619601011,3.4318237305,1.9933592081,3.9216799736,0.3010984063,-0.2550604641,-0.1790362895,4.3938789368
338,36509,36507,0.0297006909,-0.0580390468,1.0239559412,5.8691139221,0.2675915956,1.604860425,1.9956178665,3.9220166206,0.3048365712,-0.4000447094,-0.0912137628,4.4194641113
339,36519,36517,0.037009947,-0.042151317,0.9576252103,10.2698640823,-0.2965619564,1.4752522707,1.9958728552,3.9233183861,0.3047315776,-0.3681395054,0.0191189125,4.4989171028
340,36529,36527,0.0631059781,-0.025871478,0.9966474771,12.327381134,-2.7400074005,-0.3366491199,1.9957462549,3.9233484268,0.3046916127,-0.2554408908,0.1728582978,4.5316324234
341,36539,36537,0.0045978171,-0.0417931303,0.9647082686,9.9050388336,-4.4851036072,-1.4510718584,1.9966522455,3.9252786636,0.3056227267,-0.2488787919,0.255550921,4.5566210747
