,timestamp_start,timestamp_end,acc.x,acc.y,acc.z,gyro.x,gyro.y,gyro.z,stateEstimate.x,stateEstimate.y,stateEstimate.z,stabilizer.pitch,stabilizer.roll,stabilizer.yaw
0,32047,32043,-0.005773711483925581,-0.030733956024050713,1.0828707218170166,-7.645312786102295,-19.859304428100586,1.6050916910171509,1.7350717782974243,3.90786075592041,0.16836172342300415,-0.6598842740058899,0.5544398427009583,1.3367971181869507
1,32057,32053,-0.05350532755255699,-0.023258479312062263,1.099679708480835,-7.917442321777344,-22.80327606201172,1.690840721130371,1.7318663597106934,3.909229040145874,0.1698596328496933,-0.49869304895401,0.5375260710716248,1.3578721284866333
2,32067,32063,-0.04205416515469551,-0.005968283396214247,1.0501515865325928,-8.60270881652832,-17.28215980529785,1.650041937828064,1.7308480739593506,3.9057343006134033,0.17130427062511444,-0.339809387922287,0.34606972336769104,1.352476716041565
3,32077,32073,-0.0169997438788414,0.0023934002965688705,1.0528672933578491,-9.4856595993042,-11.768773078918457,1.7947800159454346,1.731047511100769,3.904665946960449,0.17319822311401367,-0.0666576698422432,0.23897255957126617,1.376915693283081
4,32087,32083,-0.016399318352341652,-0.06820158660411835,1.0754021406173706,-8.394164085388184,-11.632487297058105,1.1209344863891602,1.7298977375030518,3.903364658355713,0.1749080866575241,-0.0703972652554512,0.28780341148376465,1.3893039226531982
5,32097,32093,-0.00636009406298399,-0.02702239714562893,1.0740078687667847,-5.413879871368408,-9.603014945983887,1.2392427921295166,1.7307801246643066,3.902148485183716,0.17665614187717438,0.12339209765195847,0.10822904855012894,1.4005520343780518
6,32107,32103,-0.011821700260043144,0.04757694900035858,1.031021237373352,-4.068793296813965,-9.627395629882812,2.40669846534729,1.7303634881973267,3.9014711380004883,0.17699803411960602,0.288246214389801,0.05128113925457001,1.4204328060150146
7,32117,32113,-0.027200791984796524,0.05643567442893982,1.064140796661377,-3.354875087738037,-6.515552043914795,1.773676872253418,1.729082465171814,3.9012975692749023,0.17879775166511536,0.4076654613018036,0.019034335389733315,1.4425867795944214
8,32127,32123,0.01987575739622116,-0.05344989150762558,1.0261744260787964,-2.4684925079345703,-6.25333833694458,2.011322259902954,1.7305256128311157,3.900167465209961,0.180613175034523,0.35191625356674194,-0.07330024242401123,1.4521783590316772
9,32137,32133,-0.003609579289332032,-0.059678371995687485,1.0838531255722046,-2.63645076751709,-4.993720531463623,1.665401816368103,1.7314289808273315,3.9011635780334473,0.18403653800487518,0.372935950756073,-0.14806018769741058,1.4704461097717285
10,32147,32143,-0.006403996609151363,-0.09055941551923752,1.1027802228927612,-2.7135541439056396,-5.231863021850586,1.7019357681274414,1.7316592931747437,3.9023003578186035,0.18618476390838623,0.5585449934005737,0.15929734706878662,1.48963463306427
11,32157,32153,0.019887639209628105,-0.054606352001428604,1.056564450263977,-1.4966439008712769,-5.726896286010742,1.947879672050476,1.729111671447754,3.89992618560791,0.18840602040290833,0.42067137360572815,0.1200486272573471,1.5002895593643188
12,32167,32163,-0.016222596168518066,-0.007214874029159546,1.0338134765625,-3.117414951324463,-5.489185333251953,1.9470000267028809,1.7305692434310913,3.900836229324341,0.19060583412647247,0.6076966524124146,0.16234968602657318,1.5224885940551758
13,32177,32173,-0.024321122094988823,-0.028399797156453133,1.1036053895950317,-5.733510494232178,-7.445752143859863,1.8812367916107178,1.7307156324386597,3.8993515968322754,0.19020234048366547,0.7080962657928467,0.16973033547401428,1.5431808233261108
14,32187,32183,0.018307412043213844,-0.08306869864463806,1.0026812553405762,-7.338318824768066,-9.858213424682617,1.562337875366211,1.7310250997543335,3.9012033939361572,0.19232259690761566,0.9102064371109009,-0.020466262474656105,1.5798240900039673
15,32197,32193,-0.014853277243673801,0.007079032249748707,1.0288889408111572,-9.71076774597168,-3.621497392654419,1.5368843078613281,1.7329264879226685,3.9025332927703857,0.1946977972984314,1.06629478931427,-0.1495046615600586,1.6046983003616333
16,32207,32203,0.07709960639476776,0.01087149791419506,0.9530208706855774,-10.55036735534668,0.651961088180542,1.5510151386260986,1.732580304145813,3.9026172161102295,0.19583861529827118,0.9972898364067078,-0.21999509632587433,1.613779067993164
17,32217,32213,0.030461179092526436,0.028790976852178574,1.0178148746490479,-8.243040084838867,1.1238471269607544,1.5488916635513306,1.7339648008346558,3.902148723602295,0.19804050028324127,0.9051347970962524,-0.2136348932981491,1.6126435995101929
18,32227,32223,0.029996618628501892,-0.014913998544216156,1.0213594436645508,-5.906729221343994,-1.1353108882904053,1.6711812019348145,1.7359405755996704,3.900468587875366,0.2001616358757019,0.9051946997642517,-0.33883702754974365,1.6351075172424316
19,32237,32233,-0.041303522884845734,-0.03173275291919708,1.0215203762054443,-3.4968018531799316,-0.7568038105964661,1.606393575668335,1.735526442527771,3.9000160694122314,0.20255066454410553,1.0443366765975952,-0.11732040345668793,1.614518165588379
20,32247,32243,0.07040666043758392,-0.05401081591844559,1.00243079662323,-2.4421582221984863,-0.6864185333251953,1.4950110912322998,1.7350995540618896,3.896650552749634,0.20467950403690338,1.0804433822631836,-0.20741082727909088,1.6391738653182983
21,32257,32253,-0.02496766485273838,0.02334689535200596,0.9959568977355957,-3.002457618713379,-2.588637113571167,1.8998795747756958,1.7305185794830322,3.890946388244629,0.20683562755584717,1.2738319635391235,-0.19747690856456757,1.6414772272109985
22,32267,32263,-0.014617051929235458,0.027935493737459183,0.9901108145713806,-6.110548496246338,-0.5389955639839172,1.5964770317077637,1.729007363319397,3.890204906463623,0.20886999368667603,1.302672266960144,-0.36253276467323303,1.684054970741272
23,32277,32273,0.009057157672941685,-0.03958234190940857,0.9495999813079834,-9.58206844329834,3.7386927604675293,1.1208010911941528,1.7290724515914917,3.8898162841796875,0.21083949506282806,1.284350872039795,-0.4104110896587372,1.6998140811920166
24,32287,32283,-0.0019549287389963865,-0.006431859452277422,0.9645702838897705,-9.350178718566895,3.1958224773406982,1.5698752403259277,1.728468418121338,3.8894574642181396,0.21301080286502838,1.2931841611862183,-0.4970859885215759,1.710662603378296
25,32297,32293,0.010691547766327858,-0.0390746183693409,0.953441321849823,-8.505495071411133,5.981466770172119,1.5402495861053467,1.7284395694732666,3.888272523880005,0.2150266319513321,1.2783808708190918,-0.5802410244941711,1.722074270248413
26,32307,32303,-0.003382384777069092,-0.026832235977053642,0.9915880560874939,-7.2879438400268555,9.994794845581055,1.19188392162323,1.728489875793457,3.8883893489837646,0.21669122576713562,1.148268699645996,-0.7914125323295593,1.763663649559021
27,32317,32313,0.02542310766875744,-0.01987135410308838,0.9683846235275269,-5.054107666015625,12.483525276184082,1.2034136056900024,1.7300059795379639,3.8890838623046875,0.21877485513687134,0.9043747186660767,-1.0998237133026123,1.827921986579895
28,32327,32323,0.06190440058708191,-0.04539914429187775,0.9466807842254639,-2.029348134994507,11.24596118927002,1.0047284364700317,1.7325236797332764,3.889833450317383,0.2207716554403305,0.6588272452354431,-1.2543829679489136,1.8649139404296875
29,32337,32333,0.08933031558990479,-0.14610816538333893,0.9668276309967041,2.950652837753296,7.295248508453369,0.9901642203330994,1.7341283559799194,3.8912267684936523,0.22365699708461761,0.8020853996276855,-1.268450379371643,1.8548096418380737
30,32347,32343,0.026424510404467583,-0.14226682484149933,0.9987590909004211,8.976968765258789,0.9304643869400024,0.6145722270011902,1.7320655584335327,3.8909668922424316,0.22577859461307526,1.3377379179000854,-0.47621262073516846,1.675924301147461
31,32357,32353,-0.03132336959242821,-0.06194354221224785,1.026824951171875,11.640974044799805,-2.3360536098480225,1.4621888399124146,1.726853370666504,3.883850336074829,0.228436678647995,1.2938376665115356,-0.42658594250679016,1.6895942687988281
32,32367,32363,-0.01785583421587944,0.009580552577972412,1.0107396841049194,9.321215629577637,2.7877695560455322,2.617311716079712,1.7250982522964478,3.883201837539673,0.23061685264110565,1.1962045431137085,-0.3480420708656311,1.7175872325897217
33,32377,32373,0.014258336275815964,0.09556013345718384,0.9844808578491211,3.171757936477661,7.241738796234131,2.931793689727783,1.7258576154708862,3.8826403617858887,0.23267173767089844,1.0475142002105713,-0.38951990008354187,1.7778124809265137
34,32387,32383,0.0006599033367820084,0.07072147727012634,0.969957172870636,-7.641757011413574,17.69999122619629,1.4921187162399292,1.7265805006027222,3.883302927017212,0.23510268330574036,0.962091326713562,-0.5256324410438538,1.8392730951309204
35,32397,32393,0.05570375174283981,0.10638636350631714,0.9198323488235474,-14.277830123901367,23.003192901611328,1.0730551481246948,1.726523995399475,3.8840839862823486,0.23731091618537903,0.6057435870170593,-0.6465677618980408,1.8793420791625977
36,32407,32403,0.0623779371380806,0.09625446051359177,0.9325157999992371,-15.692181587219238,19.773340225219727,0.8719723224639893,1.726017713546753,3.8831682205200195,0.237582266330719,0.3816349506378174,-0.6965118646621704,1.8767452239990234
37,32417,32413,0.003193974494934082,-0.0008610455552116036,0.973475992679596,-14.784638404846191,20.19476890563965,0.7498869895935059,1.7269752025604248,3.8824706077575684,0.2393726110458374,0.09219427406787872,-0.9241770505905151,1.8985551595687866
38,32427,32423,0.02425798960030079,0.008972398936748505,0.9897660613059998,-9.118308067321777,12.763680458068848,0.6280319094657898,1.7272316217422485,3.8820621967315674,0.24110713601112366,0.14995601773262024,-1.1772958040237427,1.899614691734314
39,32437,32433,0.013123080134391785,0.013822386041283607,0.9711514115333557,-2.715759515762329,5.367114067077637,0.7033605575561523,1.7249798774719238,3.8827476501464844,0.24087724089622498,-0.30308014154434204,-1.3994710445404053,1.9449032545089722
40,32447,32443,-0.042724743485450745,0.06058279424905777,0.9661284685134888,4.308645725250244,0.5097341537475586,1.066245436668396,1.7276052236557007,3.883974552154541,0.24247613549232483,-0.39157137274742126,-1.3478327989578247,1.950662612915039
41,32457,32453,-0.07383193075656891,0.10736235231161118,0.9624566435813904,11.018332481384277,-2.9482879638671875,1.4244818687438965,1.7278040647506714,3.8833167552948,0.24409152567386627,-0.18489910662174225,-1.4806157350540161,1.9493706226348877
42,32467,32463,-0.04797516390681267,0.07370701432228088,0.9361959099769592,15.32690715789795,-6.298295497894287,1.9372045993804932,1.725618839263916,3.884784460067749,0.24566441774368286,-0.1679750680923462,-1.2684823274612427,1.9635305404663086
43,32477,32473,-0.051747169345617294,0.04648609086871147,0.9595275521278381,16.62310791015625,-7.374047756195068,2.2359962463378906,1.7253127098083496,3.883622646331787,0.24874909222126007,0.1808014065027237,-1.0075688362121582,1.945439100265503
44,32487,32483,-0.07612825185060501,0.0302305668592453,0.9913444519042969,13.953564643859863,-2.1750850677490234,2.4615492820739746,1.722659945487976,3.8825926780700684,0.2502652406692505,0.19298890233039856,-0.8980890512466431,1.9755693674087524
45,32497,32493,0.003733823774382472,-0.052522923797369,0.9452685713768005,10.077402114868164,1.3800678253173828,2.3426125049591064,1.7237098217010498,3.8830223083496094,0.2518478035926819,0.13818185031414032,-0.6818217039108276,2.009760856628418
46,32507,32503,-0.055500030517578125,-0.044606659561395645,0.9886856079101562,4.9613752365112305,6.319937229156494,1.5208837985992432,1.7250049114227295,3.883418083190918,0.25343599915504456,0.006432113703340292,-0.5502758026123047,2.0449602603912354
47,32517,32513,-0.08305775374174118,-0.008943403139710426,1.0029891729354858,-0.0661335438489914,10.796716690063477,0.9694547653198242,1.7266342639923096,3.8832905292510986,0.2549564838409424,-0.05084377899765968,-0.6493520736694336,2.057360887527466
48,32527,32523,-0.08979590982198715,0.07620332390069962,0.9974438548088074,-3.4690840244293213,13.69007682800293,1.1533153057098389,1.7259100675582886,3.884683847427368,0.25650471448898315,-0.16574804484844208,-0.6579151153564453,2.0707855224609375
49,32537,32533,-0.058381088078022,0.16945338249206543,0.9532782435417175,-4.23275089263916,14.173550605773926,1.3734138011932373,1.7268460988998413,3.8868460655212402,0.2567952871322632,-0.37111276388168335,-0.7048615217208862,2.0887515544891357
50,32547,32543,0.014759748242795467,0.33785948157310486,0.9245385527610779,-1.4052207469940186,11.18948745727539,1.3179137706756592,1.7276877164840698,3.887030839920044,0.25820162892341614,-0.47651803493499756,-0.6699200868606567,2.099893569946289
51,32557,32553,0.03695835545659065,0.23937582969665527,0.9408935904502869,2.4624009132385254,6.164331912994385,1.231442928314209,1.7269712686538696,3.886384963989258,0.2595841586589813,-0.665390133857727,-0.7386394739151001,2.1189403533935547
52,32567,32563,0.02953866682946682,0.0800468698143959,0.9611086845397949,8.17854118347168,-0.48774591088294983,1.1343306303024292,1.7287001609802246,3.8869845867156982,0.2619471251964569,-0.7513312101364136,-0.6498695611953735,2.138200044631958
53,32577,32573,0.00339839281514287,-0.022260814905166626,0.97188800573349,11.032508850097656,-5.240472316741943,1.1751296520233154,1.7294116020202637,3.88665771484375,0.26324567198753357,-0.6691970229148865,-0.5646463632583618,2.142080068588257
54,32587,32583,-0.053125329315662384,-0.11153868585824966,0.9634196758270264,11.540974617004395,-9.692214012145996,0.5576640963554382,1.7285362482070923,3.887598752975464,0.2645323574542999,-0.5944631099700928,-0.3717474043369293,2.1596810817718506
55,32597,32593,-0.0745789185166359,-0.07387354969978333,0.9588040709495544,8.300372123718262,-7.1909708976745605,1.2765170335769653,1.7289879322052002,3.886528491973877,0.26577532291412354,-0.5028510093688965,-0.20307764410972595,2.1724026203155518
56,32607,32603,-0.07621487975120544,0.016990594565868378,0.9406270384788513,3.578097105026245,-3.320848226547241,1.4237016439437866,1.7285456657409668,3.8858580589294434,0.26880526542663574,-0.5267966389656067,-0.45748066902160645,2.1593985557556152
57,32617,32613,-0.0636729747056961,0.02045016922056675,0.9410602450370789,-0.8161803483963013,1.1382886171340942,1.3009382486343384,1.7289111614227295,3.8888986110687256,0.2702360451221466,-0.5200148820877075,-0.3851746916770935,2.1764776706695557
58,32627,32623,-0.036237020045518875,0.0198244396597147,0.9875319600105286,-2.502243995666504,3.8290393352508545,1.6599417924880981,1.7284517288208008,3.888686180114746,0.27149078249931335,-0.41886985301971436,-0.44367334246635437,2.1799368858337402
59,32637,32633,0.005453796125948429,-0.03197843208909035,0.9495478272438049,-0.9326424598693848,4.800040245056152,1.5339077711105347,1.7270677089691162,3.88985538482666,0.2724684476852417,-0.5075741410255432,-0.43305397033691406,2.2020740509033203
60,32647,32643,-0.0370219424366951,-0.008817283436655998,0.9886305332183838,4.900042533874512,0.527126133441925,1.233976125717163,1.7275334596633911,3.8898985385894775,0.27362897992134094,-0.5911785364151001,-0.46070054173469543,2.215893268585205
61,32657,32653,-0.08356931060552597,-0.00173936877399683,1.024101734161377,7.753330230712891,3.6852409839630127,0.5176103115081787,1.7273887395858765,3.8913650512695312,0.27474290132522583,-0.660533607006073,-0.4840044677257538,2.2235841751098633
62,32667,32663,-0.013271530158817768,-0.016854388639330864,0.9723902344703674,12.501083374023438,-1.3915719985961914,0.34557023644447327,1.7283176183700562,3.892618179321289,0.273741751909256,-0.7091400623321533,-0.3591918349266052,2.2350082397460938
63,32677,32673,-0.09507831186056137,0.17216968536376953,0.9614229798316956,13.914320945739746,-2.1476657390594482,1.0636258125305176,1.7277649641036987,3.8925819396972656,0.27475282549858093,-0.701438844203949,-0.18402963876724243,2.245166540145874
64,32687,32683,-0.01928659901022911,0.023478208109736443,0.9537138938903809,13.330282211303711,-2.4251954555511475,1.5993863344192505,1.728666067123413,3.892965078353882,0.27570369839668274,-0.5919107794761658,-0.06653375923633575,2.2510225772857666
65,32697,32693,0.015538272447884083,0.06162475422024727,0.9678069949150085,12.076944351196289,-7.046045303344727,1.5988878011703491,1.7284064292907715,3.8934195041656494,0.2766081988811493,-0.5420728325843811,0.11371422559022903,2.271791934967041
66,32707,32703,0.0072184898890554905,-0.16588972508907318,0.9873430132865906,8.242470741271973,-4.487204551696777,1.6345813274383545,1.728628158569336,3.8934500217437744,0.2793963849544525,-0.5363800525665283,0.25288859009742737,2.2888925075531006
67,32717,32713,0.005407670047134161,-0.10594021528959274,0.9646938443183899,4.7078680992126465,-5.195148468017578,1.001847267150879,1.7293994426727295,3.893681049346924,0.2803196609020233,-0.535293698310852,0.260117769241333,2.292846202850342
68,32727,32723,-0.04955582693219185,-0.07321014255285263,0.9704288244247437,1.7286802530288696,-4.540223121643066,0.4280538856983185,1.7299437522888184,3.8951828479766846,0.28124508261680603,-0.4675857126712799,0.360739141702652,2.310703992843628
69,32737,32733,-0.09358606487512589,-0.05263547971844673,0.939283549785614,-1.5568710565567017,-2.8744640350341797,0.3677648901939392,1.7304052114486694,3.895197868347168,0.2810012996196747,-0.33104273676872253,0.40221866965293884,2.322709798812866
70,32747,32743,0.011207195930182934,-0.0518852137029171,0.9264629483222961,-2.8964457511901855,-1.2062175273895264,0.8536921143531799,1.7293403148651123,3.894434928894043,0.2817542552947998,-0.2993656098842621,0.32974231243133545,2.3228533267974854
71,32757,32753,-0.037493396550416946,0.005470875650644302,0.9629737138748169,-2.3698618412017822,-0.8881348371505737,0.5165346264839172,1.7300976514816284,3.895573854446411,0.2824517488479614,-0.35511600971221924,0.3241182267665863,2.328251600265503
72,32767,32763,-0.016543960198760033,-0.04879153519868851,0.9888799786567688,0.8474037647247314,-2.620044231414795,0.8952299952507019,1.7311726808547974,3.8957982063293457,0.28636613488197327,-0.3205093741416931,0.3373371958732605,2.3402018547058105
73,32777,32773,-0.027207838371396065,-0.0716579481959343,0.9992530345916748,4.449199676513672,-3.8164970874786377,0.6819269061088562,1.7308229207992554,3.895514726638794,0.2871885895729065,-0.2142343521118164,0.39902588725090027,2.3567745685577393
74,32787,32783,-0.05647370591759682,-0.016310375183820724,1.016526699066162,5.199759006500244,-0.18569311499595642,0.1881248950958252,1.7301256656646729,3.8955776691436768,0.2881242036819458,-0.2803400158882141,0.4983637034893036,2.3582022190093994
75,32797,32793,0.004446216858923435,-0.02297898381948471,0.9774672389030457,5.824674129486084,-2.4468467235565186,0.2991468906402588,1.7305524349212646,3.8950846195220947,0.2890077829360962,-0.11888601630926132,0.5263168811798096,2.370967149734497
76,32807,32803,-0.02259896881878376,0.08319540321826935,0.9659324884414673,3.8148257732391357,-0.4170338213443756,0.38401803374290466,1.7290388345718384,3.896012783050537,0.2876731753349304,-0.12382383644580841,0.6265646815299988,2.37636137008667
77,32817,32813,0.03283325955271721,0.03910348191857338,0.9174497723579407,0.5626139044761658,1.087850570678711,0.7643249034881592,1.7291704416275024,3.8948516845703125,0.2876752018928528,-0.1514129638671875,0.5190545320510864,2.3724324703216553
78,32827,32823,0.015286941081285477,0.07587675750255585,0.969825804233551,-2.895233392715454,-1.0242323875427246,0.07110360264778137,1.7294337749481201,3.8960442543029785,0.2884090840816498,-0.08283455669879913,0.5320595502853394,2.3853094577789307
79,32837,32833,0.03731364384293556,0.08211211115121841,0.9367899894714355,-3.489591121673584,-0.3893686532974243,-0.15006911754608154,1.728742241859436,3.8956971168518066,0.285180926322937,-0.09798957407474518,0.57392418384552,2.387676477432251
80,32847,32843,-0.037474945187568665,-0.04339771345257759,0.9627972841262817,-1.710312843322754,-1.595781922340393,-0.22529423236846924,1.7290607690811157,3.8949410915374756,0.28544607758522034,-0.10410561412572861,0.5457961559295654,2.384103298187256
81,32857,32853,-0.09167177975177765,-0.07994972914457321,1.0191830396652222,-0.6134225130081177,0.8859331011772156,-0.024377873167395592,1.728972315788269,3.895493984222412,0.28568369150161743,-0.14304275810718536,0.5287323594093323,2.380652666091919
82,32867,32863,-0.09952815622091293,-0.04757723957300186,1.0015722513198853,-2.887813091278076,13.351990699768066,0.47526031732559204,1.729231595993042,3.895109176635742,0.28693923354148865,-0.20524680614471436,0.5048311948776245,2.3807997703552246
83,32877,32873,0.03257033973932266,-0.023425409570336342,1.0001362562179565,-2.4614346027374268,17.890323638916016,0.720994770526886,1.7289186716079712,3.8958966732025146,0.2872292697429657,-0.4799467921257019,0.6219844222068787,2.382114887237549
84,32887,32883,0.025135550647974014,0.06970222294330597,1.0009175539016724,-2.056396007537842,22.499576568603516,0.2920486330986023,1.7306796312332153,3.8945910930633545,0.2874940037727356,-0.7473815679550171,0.5797138214111328,2.3787522315979004
85,32897,32893,0.025351518765091896,0.026653673499822617,0.999077320098877,-2.0815179347991943,21.51393699645996,0.16893847286701202,1.731650471687317,3.894603967666626,0.2904545068740845,-0.8028836846351624,0.5361340045928955,2.401867151260376
86,32907,32903,0.011359808966517448,0.014140828512609005,1.0038310289382935,-3.121757745742798,18.24124526977539,-0.5367418527603149,1.7308869361877441,3.8950579166412354,0.29103243350982666,-1.1440638303756714,0.4892105162143707,2.385693073272705
87,32917,32913,0.028280412778258324,-0.04759255051612854,0.938967227935791,-2.5961053371429443,11.535120964050293,-1.1096762418746948,1.731528401374817,3.8943488597869873,0.29140782356262207,-0.999910295009613,0.4344506859779358,2.414661407470703
88,32927,32923,0.0020015493500977755,-0.06350868940353394,0.9362002015113831,-3.47470760345459,7.192448616027832,-0.8681255578994751,1.7291085720062256,3.895209550857544,0.29221001267433167,-1.1698921918869019,0.38298651576042175,2.395364284515381
89,32937,32933,0.010199365206062794,-0.08576811105012894,0.9905059933662415,-3.853353261947632,1.795015811920166,-0.8092738389968872,1.7303463220596313,3.8951199054718018,0.2916540801525116,-1.1769988536834717,0.32303327322006226,2.3892982006073
90,32947,32943,0.022869978100061417,-0.1738196313381195,1.0240187644958496,-2.3687219619750977,-1.484181523323059,-1.0254045724868774,1.7297405004501343,3.8953442573547363,0.29196697473526,-1.2053618431091309,0.270874559879303,2.3767895698547363
91,32957,32953,-0.0031034788116812706,-0.15089623630046844,1.0297831296920776,-0.49416452646255493,0.43132534623146057,-1.2879045009613037,1.730737566947937,3.8960494995117188,0.29223698377609253,-1.2260007858276367,0.24368833005428314,2.3617281913757324
92,32967,32963,0.008908995427191257,-0.07321327924728394,1.0157803297042847,-0.8392363786697388,6.307877540588379,-1.9053995609283447,1.7309743165969849,3.8959238529205322,0.29405295848846436,-1.3030318021774292,0.2272559106349945,2.343086004257202
93,32977,32973,0.039400529116392136,0.014146323315799236,0.9538609385490417,0.8004867434501648,8.885808944702148,-1.3571608066558838,1.7321796417236328,3.8964791297912598,0.294475793838501,-1.4441815614700317,0.23440036177635193,2.32226300239563
94,32987,32983,0.002536659361794591,-0.01960362121462822,0.9949429631233215,0.10410046577453613,15.167386054992676,-1.20186185836792,1.7315865755081177,3.8975677490234375,0.29485374689102173,-1.3828524351119995,0.32981616258621216,2.337519645690918
95,32997,32993,0.030618123710155487,-0.07679293304681778,0.9873911738395691,-0.00436868891119957,13.090799331665039,-1.1840938329696655,1.7303365468978882,3.896714925765991,0.29456010460853577,-1.6004952192306519,0.3296422064304352,2.3180623054504395
96,33007,33003,0.01574055105447769,-0.0991843193769455,1.0236239433288574,0.06513886153697968,8.773882865905762,-1.1701987981796265,1.731243371963501,3.897407054901123,0.2948821485042572,-1.6902480125427246,0.3230695426464081,2.3087892532348633
97,33017,33013,-0.009253031574189663,-0.05329350009560585,1.0196534395217896,-0.7736579179763794,6.222873687744141,-0.9364992380142212,1.7302463054656982,3.8966288566589355,0.2952520549297333,-1.813908576965332,0.3073085844516754,2.294034719467163
98,33027,33023,-0.045899759978055954,0.030706625431776047,1.0005950927734375,-2.9450128078460693,5.590253829956055,-0.24348986148834229,1.7303138971328735,3.895949602127075,0.29557910561561584,-1.8956416845321655,0.34779807925224304,2.2971951961517334
99,33037,33033,0.010163034312427044,0.025575364008545876,1.0255473852157593,-3.117893934249878,1.7503547668457031,-0.4872083067893982,1.7304110527038574,3.893850803375244,0.2962404191493988,-1.9341024160385132,0.28152450919151306,2.2891879081726074
100,33047,33043,0.019604891538619995,-0.04397854581475258,0.9730350375175476,-3.237755298614502,-1.9181091785430908,-0.7286945581436157,1.7288304567337036,3.892749309539795,0.2966824173927307,-1.9035496711730957,0.21545851230621338,2.2794923782348633
101,33057,33053,-0.01596951298415661,-0.022443756461143494,1.0066642761230469,-3.091583490371704,-4.453804016113281,-0.6084876656532288,1.728629231452942,3.8926279544830322,0.29711076617240906,-1.898514986038208,0.31482189893722534,2.2998147010803223
102,33067,33063,-0.04322705417871475,0.057650454342365265,1.0061479806900024,-1.9544050693511963,-5.770785331726074,-0.5568296313285828,1.7290480136871338,3.8913111686706543,0.29592180252075195,-1.7672080993652344,0.2560650408267975,2.288958787918091
103,33077,33073,0.02564661204814911,-0.1001555472612381,1.0104608535766602,-2.4336066246032715,-5.579962730407715,-0.5771922469139099,1.72892427444458,3.8913440704345703,0.2962758243083954,-1.810191035270691,0.19659177958965302,2.268390655517578
104,33087,33083,0.034998975694179535,-0.18638454377651215,1.0415208339691162,-2.055931806564331,-2.2658770084381104,-0.7269009351730347,1.7292242050170898,3.890393018722534,0.29652857780456543,-1.8544296026229858,0.22116400301456451,2.2679786682128906
105,33097,33093,0.01558629795908928,-0.07710805535316467,0.992642343044281,-2.2998595237731934,-0.4781365692615509,-1.2398808002471924,1.7306369543075562,3.890164375305176,0.29714423418045044,-1.7709649801254272,0.24692314863204956,2.2744245529174805
106,33107,33103,0.006867299787700176,0.096981942653656,0.985543966293335,-3.9828591346740723,1.3189573287963867,-1.4185452461242676,1.7306694984436035,3.8897619247436523,0.29754820466041565,-1.7463428974151611,0.16032759845256805,2.2492353916168213
107,33117,33113,0.031182188540697098,0.019322594627738,0.9858340620994568,-4.113633632659912,-0.41943612694740295,-0.9375087022781372,1.730170726776123,3.889314889907837,0.29794782400131226,-1.8774018287658691,0.0717822015285492,2.218942403793335
108,33127,33123,-0.021317219361662865,-0.004352630581706762,1.0185848474502563,-4.482575416564941,-2.150954008102417,-1.0541093349456787,1.731345534324646,3.8890979290008545,0.2971287965774536,-1.875245451927185,-0.017877843230962753,2.1977248191833496
109,33137,33133,0.015062671154737473,-0.029612861573696136,0.9840793609619141,-4.648078918457031,-2.990474224090576,-1.0449373722076416,1.7324341535568237,3.8884823322296143,0.2974083423614502,-1.7560845613479614,-0.03028935194015503,2.2010581493377686
110,33147,33143,-0.013559448532760143,-0.1381550282239914,1.0193244218826294,-3.241514205932617,-5.846579074859619,-0.5252896547317505,1.7322694063186646,3.8888235092163086,0.2977960705757141,-1.8484388589859009,-0.027209656313061714,2.1955528259277344
111,33157,33153,0.02812223508954048,-0.16971196234226227,0.9979501366615295,-1.0178272724151611,-7.992617607116699,-0.4749004542827606,1.7336912155151367,3.8879799842834473,0.2980022430419922,-1.646019458770752,-0.08023054897785187,2.1884841918945312
112,33167,33163,0.002830563811585307,0.006639966741204262,0.9827137589454651,0.36888378858566284,-9.163829803466797,-0.24679405987262726,1.7327990531921387,3.888106107711792,0.2996289134025574,-1.5901052951812744,-0.017123239114880562,2.1995689868927
113,33177,33173,-0.012757774442434311,0.02755950577557087,1.0035407543182373,1.6906161308288574,-8.11311149597168,-0.276394248008728,1.7331711053848267,3.8874495029449463,0.2999628186225891,-1.7587776184082031,-0.019282016903162003,2.1872599124908447
114,33187,33183,0.03124408982694149,-0.047102510929107666,0.9622870683670044,0.5146366953849792,-6.198967933654785,0.282023549079895,1.7362136840820312,3.8874552249908447,0.3001226484775543,-1.5259504318237305,-0.01704493537545204,2.1867101192474365
115,33197,33193,0.05544164776802063,-0.06760206818580627,0.9842798113822937,-0.5964438319206238,-8.209300994873047,-0.7538868188858032,1.7356534004211426,3.887395143508911,0.298086941242218,-1.6258312463760376,0.04052358120679855,2.196380853652954
116,33207,33203,-0.05906149744987488,0.09395816177129745,0.994545042514801,-4.255614757537842,-8.17534065246582,-0.6985334753990173,1.7373573780059814,3.886375904083252,0.2981395721435547,-1.4532815217971802,-0.026186209172010422,2.177760124206543
117,33217,33213,0.0020810032729059458,-0.015050377696752548,0.97119140625,-5.101386547088623,-6.773438930511475,-1.1157842874526978,1.737604022026062,3.886514663696289,0.29840758442878723,-1.2908575534820557,-0.13426893949508667,2.159198760986328
118,33227,33223,-0.003361056325957179,0.04041238874197006,0.987829327583313,-5.838089466094971,-4.9014892578125,-1.0260279178619385,1.7375367879867554,3.8866779804229736,0.3013632297515869,-1.3841454982757568,-0.17181114852428436,2.15236234664917
119,33237,33233,0.033490195870399475,0.04127374663949013,0.9455851912498474,-4.3681488037109375,-8.28499698638916,-0.6659515500068665,1.7398957014083862,3.886843204498291,0.3015322983264923,-1.1694729328155518,-0.26921936869621277,2.137277603149414
120,33247,33243,0.012583434581756592,0.006481954827904701,0.9669487476348877,-1.8564589023590088,-7.452226638793945,-0.6017748713493347,1.739230990409851,3.8869457244873047,0.301937460899353,-1.0781679153442383,-0.18210667371749878,2.153766632080078
121,33257,33253,0.022321293130517006,-0.03227967768907547,0.9883872866630554,-0.15855897963047028,-9.318070411682129,-0.5283651947975159,1.7403576374053955,3.8852579593658447,0.30217230319976807,-1.1421514749526978,-0.2179001122713089,2.141881227493286
122,33267,33263,-0.01244632713496685,0.04335133358836174,0.9752110242843628,1.661241888999939,-10.072673797607422,-0.4371165335178375,1.7424217462539673,3.884415864944458,0.3021652400493622,-1.0256247520446777,-0.22068539261817932,2.136353015899658
123,33277,33273,-0.06429333984851837,0.08350972086191177,1.0232172012329102,0.5629661679267883,-7.843803405761719,0.10731550306081772,1.743308424949646,3.884244680404663,0.3023337125778198,-0.8538604974746704,-0.22518974542617798,2.1358442306518555
124,33287,33283,-0.034507375210523605,0.11898647993803024,0.9779981970787048,-0.7788301706314087,-6.738766670227051,0.3673010468482971,1.7440919876098633,3.884186267852783,0.3026173710823059,-0.856674075126648,-0.32033777236938477,2.125314950942993
125,33297,33293,-0.01689249463379383,0.003046951023861766,1.0128085613250732,-2.0150463581085205,-6.310666561126709,0.5913242697715759,1.7448831796646118,3.883981704711914,0.3041514456272125,-0.6292775869369507,-0.27611657977104187,2.1351876258850098
126,33307,33303,0.012242218479514122,0.0026576111558824778,1.0225311517715454,-0.972854495048523,-8.975809097290039,-0.1306958645582199,1.7445471286773682,3.883413553237915,0.30455026030540466,-0.6959294080734253,-0.3125501275062561,2.1380836963653564
127,33317,33313,-0.005220347084105015,-0.06199302524328232,0.9991025328636169,-1.1107792854309082,-6.546933174133301,0.08258423954248428,1.7471973896026611,3.883180618286133,0.30474618077278137,-0.749684751033783,-0.33860838413238525,2.1387593746185303
128,33327,33323,0.036019451916217804,-0.05759751796722412,0.9882878065109253,-0.9750658273696899,-6.528062343597412,-0.38846397399902344,1.7490278482437134,3.8831474781036377,0.30660516023635864,-0.6688668727874756,-0.29270604252815247,2.1461825370788574
129,33337,33333,-0.011100787669420242,-0.013988788239657879,1.0063823461532593,-1.2080483436584473,-7.372466564178467,0.37389588356018066,1.7487049102783203,3.883166551589966,0.3069458603858948,-0.4251228868961334,-0.3197202980518341,2.1375844478607178
130,33347,33343,0.04395828768610954,-0.12387450784444809,0.9917362928390503,-1.1756484508514404,-9.002490997314453,-0.23789530992507935,1.7479323148727417,3.8829143047332764,0.30750903487205505,-0.5549029111862183,-0.2742471694946289,2.1451504230499268
131,33357,33353,0.015281317755579948,-0.12002187222242355,1.0452769994735718,-0.8864824175834656,-7.381112098693848,-1.1491289138793945,1.7506399154663086,3.8817522525787354,0.3077355921268463,-0.29725387692451477,-0.3062024712562561,2.1302883625030518
132,33367,33363,0.006011918652802706,-0.039973851293325424,0.995428204536438,0.22669604420661926,-7.023301124572754,-1.6893476247787476,1.7503937482833862,3.8813962936401367,0.30910173058509827,-0.360155314207077,-0.3242392838001251,2.1213135719299316
133,33377,33373,0.00018078902212437242,0.03410777822136879,0.982615053653717,1.764014482498169,-5.232629299163818,-1.9497634172439575,1.7529306411743164,3.8811697959899902,0.3094733655452728,-0.19100132584571838,-0.3130522072315216,2.0991647243499756
134,33387,33383,0.06951276957988739,-0.0027864871080964804,0.9239215850830078,4.001890182495117,-5.525921821594238,-1.5942798852920532,1.7535719871520996,3.881118059158325,0.31004664301872253,-0.10269942879676819,-0.264395147562027,2.0795323848724365
135,33397,33393,0.05300901457667351,-0.024556832388043404,0.955479085445404,5.52206563949585,-7.339849948883057,-1.234573483467102,1.7543736696243286,3.8807361125946045,0.3120553195476532,-0.14368455111980438,-0.33407047390937805,2.0675079822540283
136,33407,33403,0.00555594963952899,-0.11255286633968353,0.9920165538787842,5.940718650817871,-9.953052520751953,-1.4635369777679443,1.7567670345306396,3.8814468383789062,0.3124188482761383,-0.08118507266044617,-0.2331894189119339,2.05389142036438
137,33417,33413,0.005432384554296732,-0.17589206993579865,1.0052993297576904,4.352582931518555,-6.847631454467773,-1.6989591121673584,1.7592267990112305,3.8810510635375977,0.3128841519355774,0.1872112900018692,-0.15259261429309845,2.0294525623321533
138,33427,33423,0.015831604599952698,-0.05349584296345711,0.9867414832115173,2.6095516681671143,-5.513067245483398,-1.6276476383209229,1.7586607933044434,3.8807036876678467,0.3123404383659363,0.028300296515226364,-0.177761510014534,2.0224456787109375
139,33437,33433,-0.00012911319208797067,0.09889140725135803,0.9860572814941406,-0.027190471068024635,-2.0900380611419678,-2.0273256301879883,1.7625627517700195,3.8809573650360107,0.3125848174095154,0.20957829058170319,-0.16578985750675201,1.9992338418960571
140,33447,33443,-0.009581777267158031,0.03654118627309799,0.9841969609260559,-1.0212719440460205,-0.18227605521678925,-2.5183327198028564,1.7628941535949707,3.8813977241516113,0.3130863904953003,0.21427197754383087,-0.16919824481010437,1.9748657941818237
141,33457,33453,0.021194467321038246,0.04308940842747688,1.0047690868377686,0.5430281162261963,0.5975428819656372,-3.3732686042785645,1.765613079071045,3.881329298019409,0.31198856234550476,0.11954532563686371,-0.16548152267932892,1.9462977647781372
142,33467,33463,0.01850036345422268,0.016220364719629288,1.0111737251281738,2.8254523277282715,0.9279003739356995,-3.8151793479919434,1.7678864002227783,3.8810877799987793,0.312144011259079,0.25008922815322876,-0.12573297321796417,1.9038939476013184
143,33477,33473,0.026812870055437088,0.017342764884233475,0.9622088670730591,6.36409854888916,0.5700506567955017,-3.4509811401367188,1.7678803205490112,3.8809115886688232,0.31252115964889526,0.1478108912706375,-0.10948155075311661,1.876785397529602
144,33487,33483,-0.0196142066270113,0.1210206001996994,0.9596130847930908,7.831169605255127,-0.6595059633255005,-3.091834306716919,1.7706451416015625,3.8808493614196777,0.3126860558986664,0.1316138356924057,-0.05208362638950348,1.8734514713287354
145,33497,33493,-0.023235414177179337,0.1362549066543579,0.9403891563415527,9.581917762756348,-3.172748327255249,-2.445840358734131,1.772416114807129,3.880627155303955,0.3136720359325409,0.2116476446390152,0.01881318725645542,1.8379886150360107
146,33507,33503,-0.04477841034531593,0.06407304853200912,1.0022475719451904,10.01707649230957,-4.459064483642578,-2.7323157787323,1.7729824781417847,3.8804826736450195,0.3139273226261139,0.14407874643802643,0.10091584175825119,1.8142234086990356
147,33517,33513,-0.079597607254982,-0.08957954496145248,0.9939019680023193,6.280640602111816,-5.516995906829834,-2.9086923599243164,1.7750638723373413,3.881227970123291,0.3140145540237427,0.4215832054615021,0.3397204279899597,1.750001311302185
148,33527,33523,-0.07166483253240585,-0.05274294689297676,1.014582872390747,2.0857512950897217,-6.9181623458862305,-3.5211591720581055,1.7740787267684937,3.88053035736084,0.31462541222572327,0.5809440016746521,0.3504728376865387,1.7463668584823608
149,33537,33533,-0.08631469309329987,0.06137499585747719,0.964970052242279,-1.5362135171890259,-10.283726692199707,-2.959897994995117,1.7737222909927368,3.880563974380493,0.3149220943450928,0.4960196614265442,0.36950555443763733,1.714044213294983
150,33547,33543,0.0017001521773636341,-0.018142685294151306,0.9796148538589478,-5.638044357299805,-5.964499473571777,-2.611377716064453,1.776341438293457,3.8807151317596436,0.3150389492511749,0.6900315880775452,0.2889523208141327,1.6658238172531128
151,33557,33553,-0.026663636788725853,0.04061545804142952,1.0129207372665405,-6.499562740325928,-4.101127624511719,-2.1811890602111816,1.7777481079101562,3.8814101219177246,0.3158186972141266,0.6739462614059448,0.24348707497119904,1.6662259101867676
152,33567,33563,-0.08597186207771301,0.06633520871400833,1.0582939386367798,-5.056801795959473,-1.544568419456482,-1.555531620979309,1.7787086963653564,3.881671190261841,0.315982460975647,0.6969279646873474,0.22687934339046478,1.6364212036132812
153,33577,33573,-0.08835406601428986,0.06818161904811859,1.0800641775131226,-0.7942540645599365,2.6283411979675293,-0.002303278772160411,1.7801388502120972,3.8806185722351074,0.316169798374176,0.6737004518508911,0.23647408187389374,1.6055281162261963
154,33587,33583,-0.0005335390451364219,-0.08210583031177521,1.001572608947754,0.8910062909126282,2.136552095413208,0.9696773886680603,1.7819892168045044,3.879690408706665,0.3163796365261078,0.7656739354133606,0.209726944565773,1.601987600326538
155,33597,33593,-0.011436567641794682,0.14115159213542938,0.9659458994865417,0.13199609518051147,0.27453139424324036,1.638365387916565,1.781907081604004,3.8800644874572754,0.312412828207016,0.8424475193023682,0.20606935024261475,1.6194202899932861
156,33607,33603,0.03422805294394493,0.1675506830215454,0.9086782336235046,1.707701563835144,-5.342083930969238,3.0473203659057617,1.7826979160308838,3.880356788635254,0.31252729892730713,0.8647593855857849,0.28434205055236816,1.6236560344696045
157,33617,33613,-0.03762833774089813,0.051842089742422104,1.0171657800674438,0.28296566009521484,2.03444504737854,4.121840000152588,1.7832812070846558,3.879969358444214,0.3125474154949188,0.7797229886054993,0.28744733333587646,1.6385926008224487
158,33627,33623,0.010922987014055252,-0.06426196545362473,0.9807403087615967,-0.29336002469062805,-1.7212105989456177,4.756839752197266,1.7853610515594482,3.8791937828063965,0.3126348555088043,0.908839225769043,0.35605064034461975,1.6668750047683716
159,33637,33633,0.09357091039419174,-0.12769928574562073,0.9850183725357056,-3.2993643283843994,2.6482176780700684,5.176438331604004,1.785928726196289,3.8786070346832275,0.31266409158706665,0.8006438612937927,0.28391560912132263,1.7697683572769165
160,33647,33643,0.06333655118942261,-0.19334159791469574,0.9867673516273499,-7.34092903137207,7.151828765869141,4.919493198394775,1.7869703769683838,3.878967523574829,0.31263095140457153,0.8486954569816589,0.2937861979007721,1.7694870233535767
161,33657,33653,0.03496270999312401,0.04517296701669693,0.9736471772193909,-11.759151458740234,11.085433959960938,4.481337547302246,1.787937045097351,3.8785154819488525,0.3130784332752228,0.8074154853820801,0.21388573944568634,1.8262183666229248
162,33667,33663,-0.002787606790661812,0.0356709249317646,0.9851475954055786,-15.793607711791992,8.807098388671875,4.74044132232666,1.7887585163116455,3.878645420074463,0.3130366802215576,0.7049821615219116,-0.15403816103935242,1.9498865604400635
163,33677,33673,0.07385335117578506,-0.0886014997959137,1.0120347738265991,-14.72200870513916,5.318867206573486,3.650576591491699,1.7885326147079468,3.8795692920684814,0.313035249710083,0.7302390336990356,-0.040234118700027466,1.925955891609192
164,33687,33683,0.037718359380960464,-0.11464709043502808,1.0293880701065063,-10.290664672851562,4.302192211151123,2.4600436687469482,1.7893675565719604,3.8780317306518555,0.3130243122577667,0.6938873529434204,-0.14251592755317688,1.9542986154556274
165,33697,33693,0.01723281294107437,-0.1718789041042328,0.996223509311676,-5.819012641906738,4.884644985198975,2.505298376083374,1.7897530794143677,3.878004312515259,0.3137012720108032,0.6730677485466003,-0.3371153771877289,2.009852170944214
166,33707,33703,-0.004145714920014143,-0.11927872896194458,0.985305905342102,-2.053818464279175,7.2074689865112305,2.0495083332061768,1.7903313636779785,3.8783373832702637,0.31373339891433716,0.6321033239364624,-0.4398432970046997,2.0401880741119385
167,33717,33713,0.018766144290566444,-0.06923387199640274,0.9741289615631104,-3.635023593902588,10.629631996154785,2.0911240577697754,1.7909411191940308,3.8790886402130127,0.3137637972831726,0.46987420320510864,-0.505559504032135,2.0606884956359863
168,33727,33723,0.08190637826919556,-0.10944699496030807,0.9885112643241882,-5.493393898010254,10.393792152404785,1.726258397102356,1.7917139530181885,3.878643035888672,0.3148638606071472,0.36176425218582153,-0.5085521340370178,2.0762243270874023
169,33737,33733,0.08977226167917252,-0.18184268474578857,1.043521523475647,-10.719759941101074,6.207491397857666,0.8292026519775391,1.7930667400360107,3.878347158432007,0.31494197249412537,0.35242733359336853,-0.4146627187728882,2.073326349258423
170,33747,33743,0.060550324618816376,-0.12127052992582321,0.9771272540092468,-16.087963104248047,1.687017798423767,-0.7657877802848816,1.7928786277770996,3.877016305923462,0.31511998176574707,0.3289772570133209,-0.5639649033546448,2.0951082706451416
171,33757,33753,-0.01515217311680317,0.048395007848739624,1.0241448879241943,-17.279743194580078,-0.23281225562095642,-1.764822244644165,1.7937159538269043,3.8767900466918945,0.31480205059051514,0.3499166965484619,-0.7723361253738403,2.0913212299346924
172,33767,33763,-0.03732631355524063,0.02721516415476799,1.0417799949645996,-14.813033103942871,-2.9458582401275635,-2.677457571029663,1.7934988737106323,3.8774142265319824,0.3148665428161621,0.33551400899887085,-0.7517116069793701,2.0426275730133057
173,33777,33773,0.05935419350862503,-0.025706365704536438,0.9846475124359131,-7.073319911956787,5.031153678894043,-4.100944995880127,1.7947673797607422,3.875270128250122,0.31501930952072144,0.3636564314365387,-0.9824498891830444,2.033094644546509
174,33787,33783,0.16816607117652893,0.0777430310845375,0.9058141112327576,3.345064401626587,13.579240798950195,-5.566189765930176,1.7953110933303833,3.8763010501861572,0.312343567609787,0.19766946136951447,-1.0676751136779785,2.0000483989715576
175,33797,33793,0.09185832738876343,0.0008300072513520718,0.9354945421218872,11.102785110473633,17.370317459106445,-6.668151378631592,1.7970142364501953,3.8755671977996826,0.3121509253978729,0.1585322767496109,-0.9966201782226562,1.9226285219192505
176,33807,33803,0.015622273087501526,-0.09285420179367065,1.007237195968628,14.659529685974121,16.299510955810547,-7.288297653198242,1.7977573871612549,3.8746156692504883,0.3120518922805786,-0.07524485141038895,-0.8969948291778564,1.8610334396362305
177,33817,33813,-0.00986400805413723,-0.015077345073223114,1.012513518333435,12.185149192810059,14.104491233825684,-8.44660758972168,1.7979658842086792,3.874264717102051,0.3118191659450531,-0.13746993243694305,-0.6959179043769836,1.7707850933074951
178,33827,33823,-0.04525282233953476,0.03976723551750183,1.0357792377471924,5.863468647003174,11.025596618652344,-8.691468238830566,1.7982048988342285,3.873307466506958,0.31385236978530884,-0.240758016705513,-0.6297653317451477,1.69725501537323
179,33837,33833,0.023289291188120842,0.021357299759984016,0.9785270094871521,-2.7664992809295654,2.982769727706909,-9.621017456054688,1.79826819896698,3.8741707801818848,0.3138418197631836,-0.2641129493713379,-0.6719032526016235,1.6068159341812134
180,33847,33843,0.019751254469156265,0.10577592998743057,0.9980030655860901,-9.460721969604492,-3.1117186546325684,-10.507478713989258,1.79851496219635,3.874910593032837,0.3138924539089203,-0.35239267349243164,-0.7543044686317444,1.5123379230499268
181,33857,33853,-0.0231692623347044,0.09589794278144836,1.0503112077713013,-13.51159381866455,-7.846524238586426,-11.591182708740234,1.7990636825561523,3.875309467315674,0.313162237405777,-0.2501910626888275,-0.8524442315101624,1.4020930528640747
182,33867,33863,0.006743679288774729,-0.05196724459528923,0.9837160706520081,-13.924848556518555,-8.647407531738281,-11.709135055541992,1.7986849546432495,3.875596046447754,0.31311920285224915,-0.1726798564195633,-0.9192588925361633,1.2873196601867676
183,33877,33873,-0.006328926421701908,-0.1536596566438675,1.0420986413955688,-9.429960250854492,-6.370960235595703,-11.315875053405762,1.7978320121765137,3.875037431716919,0.31305891275405884,-0.25020959973335266,-1.1228420734405518,1.192804217338562
184,33887,33883,0.01524276565760374,-0.21607354283332825,1.0400173664093018,-1.6943845748901367,-0.2520201802253723,-10.338176727294922,1.8000996112823486,3.8756508827209473,0.31160762906074524,-0.13673928380012512,-1.1464029550552368,1.0725599527359009
185,33897,33893,0.01212414912879467,-0.15094317495822906,1.0693786144256592,5.0252556800842285,6.13631534576416,-10.372366905212402,1.800076961517334,3.8749659061431885,0.31158995628356934,-0.20824168622493744,-1.1323615312576294,0.9758240580558777
186,33907,33903,0.017005080357193947,-0.08593829721212387,1.046964406967163,10.061530113220215,10.543841361999512,-9.841107368469238,1.8012980222702026,3.8743202686309814,0.31156453490257263,-0.13287761807441711,-1.0174534320831299,0.8525586724281311
187,33917,33913,-0.03086213767528534,-0.03809325769543648,1.058061122894287,12.600666999816895,10.009330749511719,-8.832282066345215,1.7998517751693726,3.8734216690063477,0.3117496967315674,-0.2772892415523529,-0.9158473014831543,0.7567958831787109
188,33927,33923,0.010182572528719902,-0.023869749158620834,1.0100681781768799,12.27863883972168,9.865900993347168,-8.542121887207031,1.8009519577026367,3.873412609100342,0.31015050411224365,-0.33841589093208313,-0.7897641062736511,0.6598806977272034
189,33937,33933,-0.07355079799890518,-0.08989806473255157,1.0508978366851807,8.265387535095215,6.792599678039551,-8.673099517822266,1.8011696338653564,3.872720241546631,0.31024864315986633,-0.4452296197414398,-0.767662525177002,0.5701540112495422
190,33947,33943,-0.10434184223413467,-0.10368365794420242,1.0873953104019165,2.9966371059417725,4.61121940612793,-9.091259002685547,1.801200270652771,3.873659372329712,0.31034231185913086,-0.5073137879371643,-0.6495671272277832,0.48294582962989807
191,33957,33953,-0.0943533182144165,-0.15557250380516052,1.079967975616455,-1.4227062463760376,5.425675392150879,-9.484723091125488,1.801096796989441,3.873347759246826,0.30862051248550415,-0.5478630661964417,-0.6144605875015259,0.39275044202804565
192,33967,33963,0.012051079422235489,-0.07367534190416336,0.9967504739761353,-3.3454203605651855,4.570662021636963,-9.855042457580566,1.8014037609100342,3.873427629470825,0.30872321128845215,-0.5834856629371643,-0.7936897277832031,0.2958623468875885
193,33977,33973,-0.024093737825751305,-0.10007677227258682,1.0669910907745361,-5.120275020599365,2.9569921493530273,-10.153964042663574,1.8014111518859863,3.8752169609069824,0.30888086557388306,-0.6079992651939392,-0.7538448572158813,0.19528551399707794
194,33987,33983,-0.004040839150547981,-0.01646512560546398,1.0353471040725708,-1.8305444717407227,5.890465259552002,-9.786230087280273,1.8009870052337646,3.8746612071990967,0.3090887665748596,-0.6309168934822083,-0.8008114099502563,0.08760552108287811
195,33997,33993,-0.0006856864201836288,-0.021776124835014343,0.9992104768753052,4.255705833435059,7.398176193237305,-9.334169387817383,1.801393747329712,3.874408483505249,0.30932357907295227,-0.6973264217376709,-0.8575534224510193,-0.011980102397501469
196,34007,34003,0.007276733405888081,0.022840730845928192,1.0383645296096802,9.679644584655762,8.837299346923828,-8.171390533447266,1.8018853664398193,3.874904155731201,0.30955877900123596,-0.7842930555343628,-0.7314327359199524,-0.10134007036685944
197,34017,34013,-0.0016907601384446025,-0.04395044222474098,0.9881026744842529,15.982575416564941,9.450084686279297,-5.886775016784668,1.8026323318481445,3.874415159225464,0.30984175205230713,-0.8901826739311218,-0.5138318538665771,-0.1759997457265854
198,34027,34023,0.021471597254276276,-0.022110866382718086,1.0005930662155151,18.710006713867188,9.886894226074219,-4.576992988586426,1.8035370111465454,3.873230457305908,0.31091219186782837,-1.0061547756195068,-0.5388314723968506,-0.24501194059848785
199,34037,34033,0.012387613765895367,-0.02250577323138714,0.9931597709655762,18.67707061767578,9.708595275878906,-3.0637574195861816,1.8048616647720337,3.8751754760742188,0.31121817231178284,-1.0414609909057617,-0.27583253383636475,-0.29784271121025085
200,34047,34043,-0.034598562866449356,0.0559130534529686,1.000502347946167,16.169530868530273,9.795936584472656,-1.8115205764770508,1.8057721853256226,3.873769998550415,0.311615526676178,-1.1583598852157593,-0.2688862085342407,-0.35014107823371887
201,34057,34053,-0.03633449226617813,0.04472249001264572,0.997852087020874,10.93199348449707,8.287095069885254,-0.7832813858985901,1.8063734769821167,3.875520944595337,0.31171733140945435,-1.2595863342285156,0.012393412180244923,-0.36295920610427856
202,34067,34063,0.0067971572279930115,-0.0313931442797184,0.9698687195777893,10.03615665435791,6.817726135253906,-0.28816235065460205,1.806272029876709,3.875519037246704,0.3120761215686798,-1.3412694931030273,0.1472128927707672,-0.3590742349624634
203,34077,34073,-0.0032051405869424343,0.06835829466581345,0.9547820687294006,9.277144432067871,6.435949325561523,-0.07350126653909683,1.8073289394378662,3.875563383102417,0.31237804889678955,-1.5620659589767456,0.023575197905302048,-0.38355752825737
204,34087,34083,-0.02739018015563488,0.05968499928712845,0.9980814456939697,9.142971992492676,3.6125941276550293,0.3022860586643219,1.8086518049240112,3.8778645992279053,0.3126717805862427,-1.583581566810608,0.14915934205055237,-0.38311120867729187
205,34097,34093,-0.006721749436110258,0.03441614657640457,1.0013424158096313,9.52293872833252,4.472166538238525,0.9374332427978516,1.8095234632492065,3.878455400466919,0.31299182772636414,-1.5836154222488403,0.27275028824806213,-0.36624234914779663
206,34107,34103,0.03993577882647514,-0.12460874021053314,0.9382664561271667,11.805479049682617,2.386950731277466,1.5655039548873901,1.810299038887024,3.8786940574645996,0.31332576274871826,-1.6528035402297974,0.33513063192367554,-0.3563448190689087
207,34117,34113,0.06158432364463806,-0.14588937163352966,0.937982976436615,14.965055465698242,-4.211807727813721,1.7283657789230347,1.811226725578308,3.879647731781006,0.31361767649650574,-1.655725359916687,0.5204241275787354,-0.340740442276001
208,34127,34123,-0.12659169733524323,0.06483376771211624,0.9840753078460693,13.936529159545898,-3.2716598510742188,1.9985315799713135,1.811848759651184,3.8792970180511475,0.3138253390789032,-1.605900526046753,0.7202616333961487,-0.3057563602924347
209,34137,34133,-0.04324882850050926,0.06622084230184555,0.962533175945282,11.119831085205078,-3.8679747581481934,2.332310199737549,1.8121129274368286,3.879215717315674,0.3139924705028534,-1.6943931579589844,0.6591629981994629,-0.33215421438217163
210,34147,34143,0.0031758006662130356,0.07338548451662064,0.9366568922996521,5.692089080810547,-3.9837470054626465,2.866274356842041,1.814967155456543,3.881507635116577,0.3140600919723511,-1.542517066001892,0.8625878095626831,-0.2867565453052521
211,34157,34153,0.026975225657224655,0.0038325630594044924,0.9551776647567749,2.8076629638671875,-4.66462516784668,2.0197300910949707,1.8146984577178955,3.881070137023926,0.3127923607826233,-1.4778457880020142,0.9864280223846436,-0.24887606501579285
212,34167,34163,-0.011385675519704819,0.0024704227689653635,1.0013281106948853,-0.3029695451259613,-3.574967861175537,1.4870513677597046,1.8152902126312256,3.881347894668579,0.31275734305381775,-1.6350512504577637,0.9711295962333679,-0.24567767977714539
213,34177,34173,0.017895609140396118,-0.0395364984869957,0.9600680470466614,-2.0209081172943115,-1.290122628211975,1.1730479001998901,1.8181930780410767,3.8820858001708984,0.3124682903289795,-1.4836385250091553,0.9916827082633972,-0.21613410115242004
214,34187,34183,-0.006550920195877552,-0.06797101348638535,0.9905775785446167,-2.1630971431732178,-1.7446458339691162,1.0700849294662476,1.8173257112503052,3.882066249847412,0.31430143117904663,-1.509787678718567,0.9851744771003723,-0.20692390203475952
215,34197,34193,0.020504573360085487,-0.09718386083841324,0.9668949246406555,-1.0900639295578003,-3.1926233768463135,1.301448941230774,1.818701148033142,3.8821563720703125,0.3142114579677582,-1.5973522663116455,0.9022428393363953,-0.22175756096839905
216,34207,34203,0.00019759242422878742,-0.03686372935771942,1.0020395517349243,-1.8975337743759155,-4.621605396270752,0.5559963583946228,1.8207463026046753,3.8828365802764893,0.3140449523925781,-1.4207504987716675,0.906583309173584,-0.19430410861968994
217,34217,34213,0.015838980674743652,-0.02748701721429825,0.9813777208328247,0.0022534197196364403,-7.137027740478516,0.9286048412322998,1.8206007480621338,3.8830583095550537,0.3158040940761566,-1.3093397617340088,0.9146234393119812,-0.17222286760807037
218,34227,34223,-0.015604671090841293,-0.018117448315024376,0.9938644170761108,0.8746997117996216,-8.48803424835205,1.5113568305969238,1.8205664157867432,3.883479595184326,0.3158927857875824,-1.3924155235290527,0.941200852394104,-0.16981033980846405
219,34237,34233,0.00754663348197937,-0.03747151792049408,0.9957675337791443,1.8531302213668823,-8.594823837280273,1.9391710758209229,1.8227331638336182,3.883298873901367,0.31580254435539246,-1.2081090211868286,0.9831111431121826,-0.140675351023674
220,34247,34243,-0.02841338701546192,-0.06852630525827408,1.0341211557388306,2.5802273750305176,-10.244815826416016,2.175568103790283,1.8228505849838257,3.882831573486328,0.31594738364219666,-1.2430962324142456,1.0348315238952637,-0.1365593671798706
221,34257,34253,-0.03768392652273178,-0.051576271653175354,0.9985842704772949,1.0229021310806274,-10.276815414428711,2.2463808059692383,1.8253246545791626,3.8822808265686035,0.31515583395957947,-1.2559324502944946,1.0735957622528076,-0.11797329038381577
222,34267,34263,0.014917557127773762,-0.015901487320661545,0.9916717410087585,-2.591027021408081,-8.178544998168945,2.8447065353393555,1.826296091079712,3.8829572200775146,0.3150281310081482,-1.1159021854400635,1.0748655796051025,-0.09203215688467026
223,34277,34273,-0.01637665554881096,-0.01918177679181099,1.0088438987731934,-6.599994659423828,-7.704237461090088,3.130183219909668,1.827755093574524,3.8831162452697754,0.3150746822357178,-1.1478148698806763,1.0932906866073608,-0.07982878386974335
224,34287,34283,0.008693212643265724,-0.014509226195514202,0.988394558429718,-8.640656471252441,-8.168035507202148,3.6182639598846436,1.8302496671676636,3.8827402591705322,0.31347528100013733,-1.0203391313552856,0.9763193726539612,-0.044883646070957184
225,34297,34293,0.027771562337875366,-0.03877173736691475,0.9861764311790466,-10.298080444335938,-8.544330596923828,3.5638506412506104,1.8315538167953491,3.8836874961853027,0.31346359848976135,-0.7311659455299377,0.9020209908485413,0.027273526415228844
226,34307,34303,0.007862991653382778,-0.03225533291697502,0.9744649529457092,-10.712132453918457,-12.010229110717773,3.4915170669555664,1.8307673931121826,3.8835599422454834,0.3136223554611206,-0.9673822522163391,0.8031830191612244,-0.0004807135264854878
227,34317,34313,-0.004458910785615444,-0.07936529070138931,1.0086196660995483,-8.00680923461914,-10.702849388122559,3.6877834796905518,1.8352185487747192,3.8833370208740234,0.3120456337928772,-0.6981579661369324,0.7176413536071777,0.06794462352991104
228,34327,34323,0.06842297315597534,0.07383014261722565,0.9390049576759338,-6.096001148223877,-5.877655982971191,4.130082607269287,1.8334482908248901,3.8819289207458496,0.3119664490222931,-0.47339287400245667,0.731276273727417,0.12186429649591446
229,34337,34333,0.04658670350909233,0.05809476599097252,0.9554013609886169,-4.529026508331299,-8.714158058166504,4.171424388885498,1.8339226245880127,3.882277488708496,0.31188076734542847,-0.5308250188827515,0.6968289613723755,0.1670166701078415
230,34347,34343,-0.019063184037804604,0.01920306496322155,1.0360321998596191,-4.693233013153076,-7.842259883880615,4.593932151794434,1.8347030878067017,3.8834986686706543,0.311469703912735,-0.3949444591999054,0.6000424027442932,0.27362287044525146
231,34357,34353,-6.222492083907127e-05,0.007962959818542004,1.025423526763916,-4.101438999176025,-8.58282470703125,4.490196704864502,1.8351268768310547,3.8845810890197754,0.3118349611759186,-0.4152686893939972,0.5863251686096191,0.30962109565734863
232,34367,34363,-0.06372078508138657,0.07476947456598282,1.042850136756897,-5.652628421783447,-8.264761924743652,4.587707042694092,1.837538480758667,3.883908748626709,0.3115749657154083,-0.42366185784339905,0.4863871932029724,0.3331265449523926
233,34377,34373,-0.07034841179847717,0.08483003079891205,0.975074291229248,-8.453917503356934,-8.41174602508545,5.691288948059082,1.840457797050476,3.8838846683502197,0.3113131821155548,-0.4223307967185974,0.5824838876724243,0.3067189157009125
234,34387,34383,-0.052585333585739136,-0.007563181221485138,1.019378662109375,-9.54882526397705,-8.170947074890137,5.452764987945557,1.8437529802322388,3.881209135055542,0.30889376997947693,-0.11272145807743073,0.47702455520629883,0.4149096608161926
235,34397,34393,0.023816464468836784,-0.03903723135590553,0.998371422290802,-8.573942184448242,-8.850707054138184,5.842309474945068,1.8431317806243896,3.8807554244995117,0.3089293837547302,0.024325700476765633,0.3683258891105652,0.4645804762840271
236,34407,34403,-0.007511305622756481,-0.02666396088898182,0.9911205768585205,-9.7549409866333,-11.38068675994873,5.282861709594727,1.8440251350402832,3.880599021911621,0.3086998462677002,-0.046715982258319855,0.25719326734542847,0.4812167286872864
237,34417,34413,-0.011516059748828411,-0.04015074297785759,1.0307822227478027,-10.136816024780273,-8.123908042907715,5.266749382019043,1.8476488590240479,3.879798412322998,0.3105089068412781,0.04999547824263573,0.28630197048187256,0.5321508049964905
238,34427,34423,0.021007314324378967,-0.04829029738903046,0.968050479888916,-8.040234565734863,-5.239591598510742,5.5485124588012695,1.8493996858596802,3.877641439437866,0.3103257119655609,0.10475456714630127,0.09016848355531693,0.5664059519767761
239,34437,34433,0.025708284229040146,0.05783946067094803,1.0097264051437378,-4.648534297943115,-6.007215976715088,6.1218767166137695,1.8510063886642456,3.878110408782959,0.31018751859664917,0.20524859428405762,0.09536504000425339,0.6253750324249268
