,timestamp_start,timestamp_end,acc.x,acc.y,acc.z,gyro.x,gyro.y,gyro.z,stateEstimate.x,stateEstimate.y,stateEstimate.z,stabilizer.pitch,stabilizer.roll,stabilizer.yaw
0,45175,45164,-0.01411946676671505,-0.04392224922776222,0.9756761789321899,-3.378767728805542,5.121416091918945,-0.5463243722915649,1.7860652208328247,3.8388233184814453,0.17573179304599762,0.7058327198028564,-0.6142600774765015,2.733971357345581
1,45185,45174,0.027198070660233498,0.08444546163082123,1.0598407983779907,-1.4783704280853271,5.156754016876221,-1.2824161052703857,1.7899974584579468,3.8434407711029053,0.1777903288602829,0.6752222776412964,-0.6548970341682434,2.7281432151794434
2,45195,45184,0.02951415441930294,0.04321974143385887,1.0465977191925049,0.8656549453735352,2.316969633102417,-1.442900538444519,1.7905960083007812,3.845336437225342,0.17993061244487762,0.7172492742538452,-0.6590924859046936,2.716305732727051
3,45205,45194,-0.005965607240796089,-0.030727067962288857,1.016173243522644,4.8051228523254395,-2.1945245265960693,-1.5603727102279663,1.792191505432129,3.8471107482910156,0.18234634399414062,0.8811045289039612,-0.6163443326950073,2.6863653659820557
4,45215,45204,0.0299124326556921,-0.03713233023881912,0.9996271729469299,7.932060241699219,-11.407983779907227,-0.5533736944198608,1.7930517196655273,3.8481338024139404,0.18510830402374268,1.0938526391983032,-0.43833863735198975,2.6377344131469727
5,45225,45214,-0.03061109222471714,0.07221928238868713,1.0374422073364258,9.75733470916748,-11.697535514831543,-0.7908016443252563,1.7929226160049438,3.8476741313934326,0.18757210671901703,1.2906420230865479,-0.0907360389828682,2.5792787075042725
6,45235,45224,0.03774695843458176,-0.14609621465206146,1.0034234523773193,7.687992572784424,-6.138240337371826,-0.9382120370864868,1.7929902076721191,3.845827579498291,0.18969687819480896,1.468193769454956,-0.20007970929145813,2.6003432273864746
7,45245,45234,-0.015863340348005295,-0.060921844094991684,1.0320966243743896,1.7015517950057983,0.2883409559726715,-1.542611837387085,1.792482614517212,3.8467018604278564,0.19054816663265228,1.555716633796692,-0.1116115152835846,2.5860133171081543
8,45255,45244,0.007647717837244272,-0.061093538999557495,0.9837894439697266,-2.913841962814331,6.602816581726074,-1.9550343751907349,1.7921475172042847,3.8469033241271973,0.1927112638950348,1.5369038581848145,0.10159499943256378,2.5343260765075684
9,45265,45254,-0.013828212395310402,-0.04142257571220398,1.0149306058883667,-5.924453258514404,11.05948257446289,-1.4265886545181274,1.793205738067627,3.8459341526031494,0.1948828101158142,1.5517191886901855,0.007541328202933073,2.525628089904785
10,45275,45264,0.03780125081539154,-0.06659997999668121,1.0165187120437622,-7.568757057189941,15.856407165527344,-2.519247531890869,1.7925301790237427,3.846137046813965,0.1959933042526245,1.6050442457199097,-0.7885406017303467,2.6570935249328613
11,45285,45274,0.05238545686006546,-0.08752751350402832,1.0282695293426514,-7.081405162811279,16.905723571777344,-3.4973065853118896,1.7925779819488525,3.8516972064971924,0.19843728840351105,1.144201397895813,0.23969905078411102,2.414335250854492
12,45295,45284,0.0002675544819794595,-0.02667086385190487,0.9763953685760498,-1.7425569295883179,20.768957138061523,-4.042021751403809,1.7951874732971191,3.8446080684661865,0.20490677654743195,0.8644002676010132,-0.7114404439926147,2.552536964416504
13,45305,45294,0.002675345167517662,-0.06539907306432724,0.9982165098190308,-1.1045111417770386,21.241113662719727,-4.014204025268555,1.7961010932922363,3.8510656356811523,0.2064393311738968,1.990788459777832,-1.1234928369522095,2.5543270111083984
14,45315,45304,0.04574326425790787,0.06848280876874924,0.9592434167861938,4.378130912780762,11.48183536529541,-4.06475830078125,1.7860161066055298,3.8538787364959717,0.20870476961135864,1.5429054498672485,-1.01715087890625,2.501951217651367
15,45325,45314,0.07959216833114624,-0.010133979842066765,0.9235995411872864,11.281825065612793,14.091645240783691,-3.260265588760376,1.7862797975540161,3.854130744934082,0.21311546862125397,1.4203252792358398,-0.7606036067008972,2.419800281524658
16,45335,45324,-0.015200024470686913,0.022379377856850624,1.006258249282837,17.374277114868164,18.667484283447266,-2.536919116973877,1.7843654155731201,3.855532169342041,0.2162189781665802,1.094559669494629,-0.5567357540130615,2.3819289207458496
17,45345,45334,0.010168717242777348,-0.03513602167367935,0.9673360586166382,20.23885726928711,22.468568801879883,-2.026510000228882,1.7844393253326416,3.856539011001587,0.21681129932403564,0.6925721764564514,-0.2050212025642395,2.343221664428711
18,45355,45344,0.08418387174606323,-0.01580943912267685,0.9688657522201538,19.627531051635742,24.133806228637695,-1.2546910047531128,1.7864089012145996,3.8568856716156006,0.2196207493543625,0.5077852606773376,0.08741547167301178,2.3063430786132812
19,45365,45354,0.021615074947476387,0.1160634309053421,0.9373518824577332,15.078158378601074,22.368738174438477,-1.662947416305542,1.7852171659469604,3.8572871685028076,0.2218928337097168,0.2835317850112915,0.1915629506111145,2.30614972114563
20,45375,45364,-0.02924572303891182,0.10324227809906006,0.9777779579162598,8.168811798095703,20.95644187927246,-1.3941271305084229,1.7835568189620972,3.857233762741089,0.2205093652009964,-0.05801192671060562,0.4379848837852478,2.283576011657715
21,45385,45374,-0.04947715997695923,0.11632373929023743,0.9929409027099609,2.2850639820098877,16.725004196166992,-1.767390489578247,1.7846750020980835,3.8576178550720215,0.222509503364563,-0.3421865403652191,0.48640745878219604,2.2739555835723877
22,45395,45384,0.019458487629890442,-0.013069625943899155,0.9580736756324768,-4.376950740814209,9.972097396850586,-2.026474952697754,1.783645510673523,3.8586442470550537,0.22452102601528168,-0.5393006801605225,0.5098657011985779,2.2575721740722656
23,45405,45394,0.024636508896946907,-0.023938065394759178,0.9527455568313599,-8.071168899536133,4.050118446350098,-1.8614310026168823,1.7838066816329956,3.860581636428833,0.22561411559581757,-0.5451984405517578,0.43298840522766113,2.2403197288513184
24,45415,45404,0.013946129940450191,0.03288378566503525,0.9834967255592346,-8.886322021484375,-0.45131716132164,-1.6735467910766602,1.7825759649276733,3.861478328704834,0.22746813297271729,-0.6863716244697571,0.4610823094844818,2.219329833984375
25,45425,45414,0.03184140846133232,-0.022016912698745728,0.9473652243614197,-7.762587547302246,-1.384324073791504,-2.101393461227417,1.7844737768173218,3.861915349960327,0.22920186817646027,-0.5985183119773865,0.46917393803596497,2.210197925567627
26,45435,45424,-0.006611162330955267,0.06302018463611603,0.9601559638977051,-5.651492118835449,-2.106839418411255,-1.6414343118667603,1.7830978631973267,3.8602466583251953,0.2309301346540451,-0.5627716183662415,0.34131747484207153,2.190354585647583
27,45445,45434,-0.03491337224841118,0.1670655757188797,0.9377474784851074,-2.8246726989746094,-1.3062421083450317,-1.5263150930404663,1.7826358079910278,3.8604423999786377,0.23234450817108154,-0.6032789945602417,0.33187341690063477,2.1753501892089844
28,45455,45444,0.007967718876898289,0.048926252871751785,0.9227994680404663,-0.18070687353610992,2.057595729827881,-1.4665106534957886,1.7827192544937134,3.860501527786255,0.2339877188205719,-0.6664829850196838,0.3565496802330017,2.16079044342041
29,45465,45454,0.015902306884527206,-0.018057486042380333,0.9708404541015625,0.9758614897727966,5.955694675445557,-1.345573902130127,1.7828625440597534,3.8593249320983887,0.23555898666381836,-0.7747591733932495,0.34235644340515137,2.139824628829956
30,45475,45464,-0.003614220069721341,8.2393191405572e-05,0.9856975078582764,1.06572425365448,6.483569622039795,-1.1431217193603516,1.782726764678955,3.85935640335083,0.23760955035686493,-0.728553831577301,0.4857058823108673,2.150038719177246
31,45485,45474,0.089755117893219,-0.004507659003138542,0.9376450777053833,-0.2549360394477844,6.17887020111084,-1.040892243385315,1.7823169231414795,3.8579022884368896,0.23913373053073883,-0.8307393789291382,0.4620833992958069,2.1320550441741943
32,45495,45484,0.026822499930858612,0.016184641048312187,0.9747657179832458,-4.539304256439209,4.3318772315979,-1.0744413137435913,1.7819056510925293,3.8576912879943848,0.24065682291984558,-0.9601081013679504,0.5596534013748169,2.1297762393951416
33,45505,45494,-0.01720011979341507,0.02099968120455742,0.9827165603637695,-7.5296220779418945,1.67220139503479,-0.9265460968017578,1.7815755605697632,3.8569021224975586,0.24268387258052826,-0.8527909517288208,0.49842607975006104,2.1313068866729736
34,45515,45504,0.013420659117400646,0.006823115050792694,0.9785413146018982,-11.036537170410156,-2.6463515758514404,-1.0193969011306763,1.7804346084594727,3.8570477962493896,0.24422067403793335,-0.922946572303772,0.3094707131385803,2.1006510257720947
35,45525,45514,0.010833795182406902,-0.04017828032374382,0.960804283618927,-13.15005874633789,-3.820192337036133,-0.6494049429893494,1.7812293767929077,3.8591256141662598,0.24576492607593536,-0.9295076131820679,0.30551326274871826,2.108166217803955
36,45535,45524,0.0077157411724328995,0.04160647466778755,0.9763909578323364,-12.04477310180664,-4.832719326019287,-0.8876932263374329,1.7822155952453613,3.857780933380127,0.24644026160240173,-0.9081227779388428,0.19196245074272156,2.102036476135254
37,45545,45534,0.003470251802355051,0.04645907133817673,0.9796671867370605,-10.559548377990723,-6.901432991027832,-1.5221713781356812,1.7814313173294067,3.8567988872528076,0.24780622124671936,-0.8673222064971924,0.09558142721652985,2.097153902053833
38,45555,45544,-0.0332360677421093,-0.014045470394194126,0.9781132340431213,-8.314769744873047,-7.635100841522217,-1.7440558671951294,1.7814961671829224,3.8572018146514893,0.24913427233695984,-0.8041514158248901,0.01933836005628109,2.0898120403289795
39,45565,45554,-0.09913693368434906,-0.008088652044534683,0.9654268622398376,-6.191460132598877,-5.883164882659912,-0.753879725933075,1.782275915145874,3.8563740253448486,0.25044941902160645,-0.8168963193893433,-0.020131027325987816,2.0790889263153076
40,45575,45564,-0.07564419507980347,0.01155835296958685,0.9779284000396729,-4.678869247436523,-2.2196407318115234,-0.87104332447052,1.7826943397521973,3.856001377105713,0.24914240837097168,-0.775300920009613,-0.02980729751288891,2.0811686515808105
41,45585,45574,-0.02959347516298294,-0.015275147743523121,0.9755253791809082,-4.574535846710205,-3.7875537872314453,-0.7112587690353394,1.783535122871399,3.855569362640381,0.2502121925354004,-0.7683157324790955,-0.1016518697142601,2.066594362258911
42,45595,45584,0.0021854802034795284,-0.00019339141726959497,0.9729672074317932,-5.513891220092773,-0.6422756910324097,-1.1268882751464844,1.783529281616211,3.8551645278930664,0.2513260841369629,-0.8330312967300415,-0.17082592844963074,2.049722194671631
43,45605,45594,-0.01764395646750927,0.062474414706230164,1.0163207054138184,-6.036922454833984,-2.4409728050231934,-0.8208861351013184,1.7841535806655884,3.855591297149658,0.2501460015773773,-0.8264517188072205,-0.18003042042255402,2.0478317737579346
44,45615,45604,0.0034150592982769012,-0.03599105030298233,0.9593356251716614,-6.416093349456787,-4.14178991317749,-1.215009331703186,1.783747911453247,3.855966567993164,0.25106561183929443,-0.722946047782898,-0.27987542748451233,2.0333805084228516
45,45625,45614,-0.020021459087729454,-0.02533862181007862,0.9977337121963501,-7.549796104431152,-5.289853572845459,-1.1395761966705322,1.7826131582260132,3.85581111907959,0.2520501911640167,-0.6732755303382874,-0.3820347487926483,2.0171735286712646
46,45635,45624,-0.01484268344938755,0.014371485449373722,0.9909613132476807,-7.398244857788086,-6.377602577209473,-1.067036747932434,1.7826521396636963,3.8550398349761963,0.25498875975608826,-0.5968453288078308,-0.5605401992797852,1.9891655445098877
47,45645,45634,-0.009632492437958717,0.001697229570709169,0.9609929323196411,-6.228600978851318,-7.815997123718262,-0.19297651946544647,1.7820414304733276,3.8551206588745117,0.25604477524757385,-0.5785990357398987,-0.4986112415790558,2.002615213394165
48,45655,45644,0.026736928150057793,-0.09380602091550827,0.9388737082481384,-3.4061336517333984,-5.308111190795898,-1.053236961364746,1.7821208238601685,3.853537082672119,0.25707560777664185,-0.47419416904449463,-0.6449572443962097,1.983630657196045
49,45665,45654,-0.017781894654035568,-0.07554139196872711,1.0271908044815063,-1.1865181922912598,-7.26937198638916,-0.00780834536999464,1.7818670272827148,3.85455060005188,0.2580801546573639,-0.6113360524177551,-0.7362997531890869,1.9672484397888184
50,45675,45664,0.047562599182128906,-0.07513652741909027,0.9785380959510803,0.08088492602109909,-5.37691068649292,-0.6794715523719788,1.7834810018539429,3.8550426959991455,0.2611197829246521,-0.49925532937049866,-0.6491970419883728,1.9758342504501343
51,45685,45674,0.04614026099443436,-0.114780493080616,1.0288410186767578,0.9767149686813354,-6.194108009338379,-0.6805517673492432,1.7841649055480957,3.8545632362365723,0.2622477114200592,-0.3970054090023041,-0.690928041934967,1.9615389108657837
52,45695,45684,0.01440468244254589,-0.054987773299217224,0.9969961047172546,1.1309877634048462,-5.873826026916504,-0.5409165024757385,1.7836871147155762,3.854508876800537,0.26335617899894714,-0.3659849464893341,-0.570768415927887,1.972027063369751
53,45705,45694,0.006763774435967207,-0.019501909613609314,0.9934691190719604,0.07200386375188828,-3.4267919063568115,-0.8240729570388794,1.784578800201416,3.853989362716675,0.26531487703323364,-0.2518567740917206,-0.5990797877311707,1.9588147401809692
54,45715,45704,0.019033193588256836,0.022383391857147217,1.0216666460037231,-0.7397066354751587,-6.1640167236328125,-0.6530401110649109,1.784069299697876,3.853858232498169,0.2664881944656372,-0.15813156962394714,-0.6413712501525879,1.9446736574172974
55,45725,45714,0.05732438713312149,-0.027340030297636986,0.9874535799026489,-2.2311501502990723,-5.451645374298096,-0.6186256408691406,1.782889723777771,3.8551673889160156,0.26767730712890625,-0.05365866422653198,-0.701772153377533,1.9276585578918457
56,45735,45724,0.007449097465723753,-0.022228840738534927,0.9793431758880615,-2.2476236820220947,-5.144392013549805,-0.901506245136261,1.7824510335922241,3.8558449745178223,0.26896142959594727,-0.038701727986335754,-0.7695428133010864,1.9193845987319946
57,45745,45734,-0.016171259805560112,-0.04747019708156586,0.9941844344139099,-1.2201554775238037,-1.0791833400726318,-1.4427502155303955,1.7824106216430664,3.855990409851074,0.27023231983184814,0.024275360628962517,-0.8304479122161865,1.906589388847351
58,45755,45744,-0.0017824223032221198,-0.05069827288389206,0.9798142910003662,-0.37713009119033813,2.923924207687378,-1.7014790773391724,1.7815173864364624,3.8567564487457275,0.27137207984924316,0.04533526301383972,-0.8671460151672363,1.8919404745101929
59,45765,45754,0.0544576495885849,0.011695734225213528,0.9644598364830017,2.2472074031829834,3.7870969772338867,-1.547719955444336,1.7807797193527222,3.8575809001922607,0.2724762558937073,-0.03689119592308998,-0.7290323972702026,1.8937957286834717
60,45775,45764,0.07339073717594147,0.07020818442106247,0.9551541805267334,4.811960697174072,-2.1034083366394043,-1.3361635208129883,1.7814743518829346,3.857257604598999,0.27345341444015503,-0.06007824093103409,-0.6977600455284119,1.87848699092865
61,45785,45774,0.05438999459147453,0.021110743284225464,0.9461648464202881,5.863404273986816,-0.3486592769622803,-1.4589102268218994,1.7811557054519653,3.8570048809051514,0.27446526288986206,-0.027285579591989517,-0.6352312564849854,1.8633267879486084
62,45795,45784,-0.07314076274633408,-0.027566121891140938,1.0063308477401733,4.3251423835754395,-0.742613673210144,-1.3811798095703125,1.7807568311691284,3.857543706893921,0.27549034357070923,-0.010253861546516418,-0.5010629892349243,1.8531975746154785
63,45805,45794,-0.02370425872504711,-0.043307825922966,0.9586285352706909,2.5363805294036865,-2.564298152923584,-1.8096216917037964,1.7801587581634521,3.857189893722534,0.2741234302520752,0.018707579001784325,-0.4731703996658325,1.8363423347473145
64,45815,45804,-0.0029778711032122374,-0.02443653531372547,0.9827075004577637,-0.0377376563847065,-2.4302163124084473,-1.5160737037658691,1.7798837423324585,3.8569440841674805,0.2749525010585785,-0.01055071596056223,-0.477099746465683,1.8224796056747437
65,45825,45814,-0.044880274683237076,-0.03923509642481804,0.9829593896865845,-2.747192144393921,-1.292741298675537,-1.8965295553207397,1.781277060508728,3.857895851135254,0.2757631838321686,-0.026676464825868607,-0.5187395215034485,1.8092540502548218
66,45835,45824,-0.010327651165425777,-0.15063700079917908,0.9704527854919434,-3.614973306655884,-4.019750595092773,-1.8627759218215942,1.782551646232605,3.8587121963500977,0.2770879566669464,0.023125996813178062,-0.5212473273277283,1.792949914932251
67,45845,45834,-0.02076680399477482,0.14683492481708527,0.9936070442199707,-3.6690070629119873,-1.7999762296676636,-1.9861592054367065,1.783676266670227,3.860430955886841,0.27789080142974854,-0.04971030354499817,-0.605595588684082,1.782046914100647
68,45855,45844,0.037945982068777084,0.03726555034518242,0.9695514440536499,-1.3270663022994995,-6.025275707244873,-2.092373847961426,1.7845146656036377,3.8612401485443115,0.27869200706481934,-0.03766019269824028,-0.6709731221199036,1.7612721920013428
69,45865,45854,0.04622107744216919,0.0066124736331403255,0.9521609544754028,-0.603790819644928,-6.356707572937012,-1.8843399286270142,1.7849360704421997,3.861424207687378,0.2806542217731476,0.08520594984292984,-0.7074906229972839,1.7371747493743896
70,45875,45864,-7.012478454271331e-05,0.003108158940449357,0.9824825525283813,1.376194715499878,-5.293385982513428,-2.110950469970703,1.784085750579834,3.862245798110962,0.28148239850997925,0.23547273874282837,-0.632992148399353,1.715814471244812
71,45885,45874,-0.09668373316526413,0.0034857497084885836,0.9764237999916077,3.8627519607543945,-5.39670991897583,-0.7121801972389221,1.7835519313812256,3.86177921295166,0.28229016065597534,0.2664991319179535,-0.6058184504508972,1.7019374370574951
72,45895,45884,-0.06556132435798645,-0.04175771772861481,0.9693069458007812,4.136306285858154,-4.986545562744141,-0.605273425579071,1.7835363149642944,3.8616881370544434,0.283072292804718,0.3688420355319977,-0.4833337664604187,1.6913832426071167
73,45905,45894,-0.040613774210214615,0.1046229898929596,0.9881054759025574,3.975445032119751,-1.424094557762146,-0.3845686912536621,1.7826558351516724,3.861111879348755,0.2837640345096588,0.43193694949150085,-0.44173285365104675,1.68485426902771
74,45915,45904,-0.02199377864599228,0.07053549587726593,0.9904244542121887,2.7642486095428467,0.4161170423030853,0.13384641706943512,1.7825276851654053,3.860323190689087,0.28447654843330383,0.44243183732032776,-0.40509966015815735,1.6834423542022705
75,45925,45914,0.00844843965023756,-0.05053504556417465,0.9605370759963989,0.9931991100311279,2.0339059829711914,-0.039465297013521194,1.7818033695220947,3.8609092235565186,0.2851763963699341,0.42263737320899963,-0.39143526554107666,1.687534213066101
76,45935,45924,0.003232141025364399,0.0008622598252259195,1.0010895729064941,-0.02227574959397316,2.3056480884552,-0.5544251203536987,1.781682014465332,3.8613860607147217,0.2844259440898895,0.3860935866832733,-0.40420082211494446,1.6852903366088867
77,45945,45934,-0.0033941431902348995,-0.006767170503735542,0.9892252683639526,-1.6606634855270386,2.368926525115967,-0.5598800778388977,1.7825443744659424,3.8627166748046875,0.2849898338317871,0.3432029187679291,-0.5091971158981323,1.683703064918518
78,45955,45944,0.012255435809493065,-0.0002146657498087734,0.9868081212043762,-1.919901967048645,1.5443891286849976,-0.7235104441642761,1.7824031114578247,3.863550901412964,0.28555557131767273,0.3156689405441284,-0.5452451109886169,1.677642822265625
79,45965,45954,0.032991476356983185,-0.04657108336687088,0.9545409679412842,-0.849905252456665,0.19008997082710266,-0.8865702748298645,1.782293677330017,3.8633084297180176,0.28432759642601013,0.3011406660079956,-0.4939362406730652,1.668959140777588
80,45975,45964,-0.023665711283683777,-0.004405223298817873,1.0176575183868408,0.9881120324134827,-1.0727119445800781,-1.03314208984375,1.7821037769317627,3.863856315612793,0.2847400903701782,0.3113396167755127,-0.5078117847442627,1.6596473455429077
81,45985,45974,-0.0001449496194254607,-0.011704870499670506,0.9935017228126526,3.2341954708099365,-1.5065501928329468,-0.8336819410324097,1.781246542930603,3.8642356395721436,0.28511515259742737,0.33833417296409607,-0.48024865984916687,1.6502052545547485
82,45995,45984,0.0405425950884819,-0.03163938224315643,0.9805105328559875,4.874231338500977,-1.0347585678100586,-0.8902942538261414,1.7812916040420532,3.8646836280822754,0.28550291061401367,0.37452322244644165,-0.4204902648925781,1.641114592552185
83,46005,45994,-0.011338159441947937,-0.027783667668700218,1.0047458410263062,6.816129207611084,-4.086228370666504,-0.33693385124206543,1.7804523706436157,3.864318370819092,0.2856981158256531,0.39626774191856384,-0.3343266546726227,1.6325637102127075
84,46015,46004,-0.002766427816823125,-0.08581048250198364,0.9548443555831909,5.138965606689453,-1.577520728111267,-0.6731245517730713,1.780124306678772,3.863872528076172,0.286039263010025,0.41585806012153625,-0.32405197620391846,1.6400505304336548
85,46025,46014,-0.0801020935177803,0.01947799138724804,0.9987115859985352,1.7280272245407104,1.3942912817001343,-0.42387694120407104,1.7813013792037964,3.8652713298797607,0.2863274812698364,0.40571120381355286,-0.26682475209236145,1.6347312927246094
86,46035,46024,-0.06542984396219254,0.042817454785108566,0.9908703565597534,-0.18015575408935547,2.1042778491973877,-0.013981865718960762,1.7812347412109375,3.8662028312683105,0.2865721583366394,0.3606891632080078,-0.2563196122646332,1.6287648677825928
87,46045,46034,-0.04510802775621414,0.12945879995822906,0.9733282327651978,-2.432180404663086,2.5612077713012695,-0.5495367050170898,1.7818857431411743,3.867953062057495,0.2869563102722168,0.316564679145813,-0.28161826729774475,1.62483811378479
88,46055,46044,0.017131906002759933,-0.09295035153627396,1.0333893299102783,-1.6563305854797363,2.5689964294433594,-0.8345187306404114,1.7819020748138428,3.8689329624176025,0.2872939109802246,0.2714279890060425,-0.3177582919597626,1.6200376749038696
89,46065,46054,0.010527015663683414,-0.11647514998912811,1.0002511739730835,-0.6808480024337769,2.5194342136383057,-0.9892486333847046,1.7818286418914795,3.8691306114196777,0.2868373990058899,0.2019091099500656,-0.339281290769577,1.6096727848052979
90,46075,46064,0.0198393315076828,0.07402515411376953,1.0116268396377563,2.1079013347625732,0.16982465982437134,-1.1342639923095703,1.781636357307434,3.8694381713867188,0.28711795806884766,0.1603870540857315,-0.33101686835289,1.5987472534179688
91,46085,46074,0.03753430396318436,0.040264107286930084,1.020825743675232,3.572667360305786,-0.7312573790550232,-0.6610891819000244,1.7823190689086914,3.8695931434631348,0.28744959831237793,0.17113837599754333,-0.2018129974603653,1.583701729774475
92,46095,46084,-0.009922437369823456,0.004461531061679125,1.0217634439468384,3.322706699371338,1.1653157472610474,0.3589727282524109,1.7828514575958252,3.869478225708008,0.28775519132614136,0.17976318299770355,-0.22047209739685059,1.584394931793213
93,46105,46094,0.026692956686019897,-0.043447013944387436,0.9492723345756531,2.4658501148223877,0.2064419835805893,0.4382309317588806,1.783238410949707,3.869361400604248,0.2896401584148407,0.19281119108200073,-0.3188689649105072,1.5927433967590332
94,46115,46104,0.09941574931144714,-0.028246555477380753,1.0120737552642822,1.6463208198547363,3.2847676277160645,0.6953030824661255,1.7849725484848022,3.872938871383667,0.2900722324848175,0.1899057924747467,-0.26891982555389404,1.595644474029541
95,46125,46114,0.04602405056357384,-0.19727271795272827,1.0293818712234497,2.8734705448150635,7.519470691680908,0.5314604640007019,1.7854430675506592,3.8752918243408203,0.2904931902885437,0.16755633056163788,-0.22736334800720215,1.6004759073257446
96,46135,46124,-0.013555070385336876,-0.033044058829545975,1.0446351766586304,3.123011589050293,17.40622329711914,0.245920330286026,1.7854995727539062,3.87524676322937,0.29145923256874084,-0.05533596873283386,-0.17297793924808502,1.6043064594268799
97,46145,46134,0.0314115546643734,-0.12598539888858795,0.9673213958740234,3.2486424446105957,20.985301971435547,0.4234189987182617,1.7858023643493652,3.8753795623779297,0.2919447422027588,-0.383796364068985,-0.10871774703264236,1.6063737869262695
98,46155,46144,-0.04413633421063423,0.03626694157719612,1.0723514556884766,3.699070453643799,22.41676139831543,0.09182906150817871,1.7866953611373901,3.8752760887145996,0.29238632321357727,-0.5146638751029968,-0.34415414929389954,1.6128125190734863
99,46165,46154,0.012287801131606102,-0.06468820571899414,0.9832865595817566,3.924941062927246,19.776216506958008,-0.1120944693684578,1.7856436967849731,3.877957582473755,0.2941983640193939,-0.8345330357551575,-0.17359967529773712,1.612070083618164
100,46175,46164,-0.023086445406079292,0.0152791328728199,0.9926517009735107,4.811001300811768,15.24379825592041,0.20337173342704773,1.786729335784912,3.8779232501983643,0.2948141396045685,-0.733289361000061,-0.08088771253824234,1.611708164215088
101,46185,46174,0.0016881056362763047,-0.03484291210770607,0.9812521934509277,5.629072666168213,8.528884887695312,0.4988260567188263,1.7842150926589966,3.877124309539795,0.29570209980010986,-0.9355202913284302,-0.05575009807944298,1.613031029701233
102,46195,46184,0.016463931649923325,0.02748473361134529,1.0168259143829346,5.776640892028809,4.83348274230957,-0.5343788266181946,1.7846448421478271,3.8787524700164795,0.2978808283805847,-0.9666082262992859,0.056135762482881546,1.6180840730667114
103,46205,46194,0.037017643451690674,0.038362618535757065,1.0103482007980347,5.314342021942139,1.8071366548538208,-0.22102847695350647,1.7849292755126953,3.8794047832489014,0.2986195981502533,-1.0289795398712158,0.02148512192070484,1.6077357530593872
104,46215,46204,0.015033920295536518,-0.09926825016736984,1.0030994415283203,4.054558753967285,1.2708827257156372,-0.7749022245407104,1.7855266332626343,3.8807454109191895,0.29930853843688965,-1.0384385585784912,0.11693300306797028,1.6062610149383545
105,46225,46214,-0.005738245788961649,0.03778312727808952,1.0391733646392822,4.0736308097839355,0.6525640487670898,-1.4105861186981201,1.7865571975708008,3.880500316619873,0.30004629492759705,-1.0414633750915527,0.20020131766796112,1.601922869682312
106,46235,46224,-0.012924988754093647,0.06972845643758774,1.042080044746399,3.206357479095459,3.4237680435180664,-1.6889336109161377,1.7866215705871582,3.8797457218170166,0.30180707573890686,-1.0648294687271118,0.2696138620376587,1.5973174571990967
107,46245,46234,-0.05968007445335388,0.0649961531162262,0.9970411062240601,1.4076669216156006,4.813252925872803,-0.883149266242981,1.7878755331039429,3.880730390548706,0.30259811878204346,-1.122170090675354,0.3167268633842468,1.5852645635604858
108,46255,46244,-0.0553133524954319,0.05628901347517967,0.9653000235557556,-0.1575779765844345,6.458442211151123,-1.213461995124817,1.7881653308868408,3.8815460205078125,0.3034195005893707,-1.2021690607070923,0.4057857394218445,1.58416748046875
109,46265,46254,0.010428098030388355,-0.053336966782808304,1.0002613067626953,-2.676644802093506,9.321748733520508,-1.9114259481430054,1.7891521453857422,3.8810455799102783,0.3022935688495636,-1.228988528251648,0.3814730644226074,1.5704470872879028
110,46275,46264,0.03906022012233734,-0.050603628158569336,0.9592987298965454,-3.018876552581787,7.45370626449585,-1.8823753595352173,1.788609266281128,3.880861759185791,0.30300143361091614,-1.3331754207611084,0.3334389328956604,1.5479240417480469
111,46285,46274,-0.017484160140156746,0.049843281507492065,1.0044053792953491,-3.347883939743042,6.055263996124268,-1.8889495134353638,1.7892706394195557,3.880831241607666,0.30366653203964233,-1.4202388525009155,0.35069572925567627,1.5400229692459106
112,46295,46284,0.02217946946620941,-0.0023812626022845507,0.9711583852767944,-3.6819369792938232,2.9123902320861816,-1.9766830205917358,1.790160059928894,3.881281614303589,0.3030742406845093,-1.4823473691940308,0.2818935811519623,1.5156711339950562
113,46305,46294,0.015236093662679195,0.01574413850903511,0.9958857893943787,-4.060755252838135,1.0409314632415771,-1.7968024015426636,1.7903928756713867,3.8818702697753906,0.3036237955093384,-1.4951961040496826,0.21027962863445282,1.4937235116958618
114,46315,46304,-0.035867929458618164,0.0421409085392952,1.0035006999969482,-2.317884922027588,0.43182146549224854,-2.017106294631958,1.7906153202056885,3.882833957672119,0.3041840195655823,-1.4853211641311646,0.14974601566791534,1.4717952013015747
115,46325,46314,-0.06196589395403862,0.07474998384714127,0.9997650980949402,-1.0412179231643677,0.8566945195198059,-2.034538745880127,1.7904525995254517,3.883370876312256,0.3047354519367218,-1.4677594900131226,0.12556758522987366,1.4525922536849976
116,46335,46324,-0.07446622103452682,0.1718454211950302,1.0256379842758179,0.8138143420219421,0.9261787533760071,-1.719868540763855,1.7910957336425781,3.883592367172241,0.30504345893859863,-1.51646888256073,-0.020903287455439568,1.4012261629104614
117,46345,46334,0.002819181652739644,0.19477802515029907,0.9843737483024597,3.2306160926818848,0.5517094731330872,-0.8759236931800842,1.7913705110549927,3.8857033252716064,0.30550986528396606,-1.3990862369537354,0.10668028891086578,1.4192341566085815
118,46355,46344,0.060627322643995285,0.14924205839633942,0.9630977511405945,4.873186111450195,-0.7864238619804382,-1.071960210800171,1.7908319234848022,3.8851094245910645,0.3061842620372772,-1.4228309392929077,0.11325473338365555,1.400694727897644
119,46365,46354,0.04307005554437637,0.10414160043001175,0.9947320222854614,5.406896591186523,-3.416623830795288,-1.4362645149230957,1.7911407947540283,3.885582447052002,0.3072815239429474,-1.5016053915023804,0.20769548416137695,1.3891997337341309
120,46375,46364,0.02168121002614498,0.05984795093536377,1.0124247074127197,3.675232410430908,-0.006708802189677954,-2.0312023162841797,1.793218970298767,3.885352373123169,0.30779916048049927,-1.3974268436431885,0.36646419763565063,1.4039961099624634
121,46385,46374,-0.04358559846878052,0.017882881686091423,0.9493594169616699,2.25046706199646,-2.6644093990325928,-1.2395710945129395,1.7931665182113647,3.8844501972198486,0.308373361825943,-1.1907085180282593,0.557212233543396,1.4350857734680176
122,46395,46384,-0.03422870486974716,0.0029916956555098295,0.9528151154518127,-0.3096507489681244,1.0088586807250977,-1.2301863431930542,1.7907390594482422,3.882650852203369,0.30398163199424744,-1.116322636604309,0.5583422780036926,1.4252322912216187
123,46405,46394,-0.0761861801147461,0.05105677247047424,0.9954578280448914,-2.602652072906494,-0.6415445804595947,-0.6430020928382874,1.7904843091964722,3.883258104324341,0.3041768968105316,-1.6940215826034546,0.28965407609939575,1.3127809762954712
124,46415,46404,-0.018889719620347023,0.03198309615254402,0.9407991170883179,-6.586584568023682,2.5969314575195312,0.04499730095267296,1.7966750860214233,3.8862264156341553,0.30443841218948364,-1.6253576278686523,0.21496069431304932,1.3095647096633911
125,46425,46414,0.019369876012206078,-0.045228034257888794,0.9360895156860352,-7.097646236419678,-1.6388455629348755,0.621625542640686,1.7968425750732422,3.8872063159942627,0.3046753704547882,-1.5470519065856934,0.11053736507892609,1.3093867301940918
126,46435,46424,0.02572525665163994,0.0011373781599104404,0.9249444007873535,-4.978482723236084,-6.127364158630371,0.21131274104118347,1.7965868711471558,3.8878471851348877,0.3019474148750305,-1.3339905738830566,0.013426987454295158,1.3193700313568115
127,46445,46434,-0.030693061649799347,-0.07643739879131317,1.0043832063674927,-1.8090585470199585,-7.662816524505615,0.15930746495723724,1.7956148386001587,3.888758420944214,0.3020322918891907,-1.2386866807937622,-0.03564687445759773,1.3207907676696777
128,46455,46444,-0.03269636258482933,-0.06825505942106247,1.0046007633209229,1.597398281097412,-6.244082450866699,0.46328794956207275,1.7959810495376587,3.8895814418792725,0.30193305015563965,-1.0693508386611938,-0.0260813869535923,1.335248351097107
129,46465,46454,-0.005400323309004307,0.0011896949727088213,1.010677695274353,4.32017707824707,-4.10647439956665,0.7549777626991272,1.7953673601150513,3.8896539211273193,0.30223435163497925,-0.9102587103843689,0.1077069416642189,1.371647596359253
130,46475,46464,-0.030327865853905678,-0.12291669100522995,1.043857216835022,5.206422328948975,4.114604949951172,0.27808907628059387,1.7943435907363892,3.888742446899414,0.30221250653266907,-0.9112493395805359,0.414599746465683,1.4292534589767456
131,46485,46474,0.027207139879465103,-0.08842086046934128,0.9690918326377869,3.682161569595337,2.671736001968384,-0.16041533648967743,1.795175313949585,3.8862195014953613,0.3021750748157501,-1.1433742046356201,0.24175243079662323,1.3756203651428223
132,46495,46484,0.014689039438962936,0.04853160306811333,1.015728235244751,-1.4418810606002808,4.943017959594727,0.42951664328575134,1.797236680984497,3.8881850242614746,0.30179640650749207,-1.0035972595214844,0.48399022221565247,1.4307469129562378
133,46505,46494,0.004387600813060999,-0.05567741021513939,0.9991068243980408,-5.152991771697998,3.954664707183838,0.2780705690383911,1.7964297533035278,3.885993480682373,0.30187466740608215,-1.0422353744506836,0.3904164731502533,1.4274746179580688
134,46515,46504,-0.02435382455587387,-0.025623125955462456,1.0406641960144043,-8.91488265991211,3.6479671001434326,0.30608704686164856,1.7972643375396729,3.8868231773376465,0.301864355802536,-1.0537155866622925,0.3223581910133362,1.4319359064102173
135,46525,46514,-0.06951159238815308,0.07020992040634155,1.0444412231445312,-11.604050636291504,1.8786894083023071,0.6789893507957458,1.7969943284988403,3.8866207599639893,0.2994413673877716,-1.654885172843933,-0.17747540771961212,1.325820803642273
136,46535,46524,0.000556025595869869,0.12874040007591248,1.0149120092391968,-9.90258502960205,-1.9786289930343628,1.4818240404129028,1.8037549257278442,3.891096830368042,0.29921451210975647,-1.5527395009994507,-0.347588449716568,1.3339760303497314
137,46545,46534,-0.02888571284711361,-0.01793653890490532,1.0286160707473755,-4.345396041870117,-7.6003031730651855,1.0418713092803955,1.8041387796401978,3.892134189605713,0.29924964904785156,-1.4419221878051758,-0.43758106231689453,1.3494904041290283
138,46555,46544,-0.005753514356911182,-0.03482282906770706,1.019300103187561,3.5010321140289307,-12.692614555358887,0.982423722743988,1.8046640157699585,3.89247989654541,0.29929304122924805,-1.3696975708007812,-0.41007620096206665,1.3613275289535522
139,46565,46554,-0.05092043802142143,-0.023389432579278946,1.0287266969680786,10.572359085083008,-18.120113372802734,1.3000751733779907,1.805946707725525,3.893573045730591,0.2993997037410736,-1.1633081436157227,-0.11460468173027039,1.4143898487091064
140,46575,46564,0.01650947891175747,-0.005545732099562883,1.0196341276168823,14.459883689880371,-15.568913459777832,1.179634928703308,1.8072268962860107,3.8913769721984863,0.2996557056903839,-0.8557349443435669,0.028959229588508606,1.4363391399383545
141,46585,46574,-0.01892966404557228,-0.0039755310863256454,1.039870023727417,13.77433967590332,-14.402400016784668,1.2221283912658691,1.8065080642700195,3.8906877040863037,0.29984161257743835,-0.6669902205467224,0.26649683713912964,1.4710685014724731
142,46595,46584,0.03628111258149147,-0.0379340760409832,1.010581135749817,7.739527225494385,-8.48339557647705,0.7887709736824036,1.8077257871627808,3.8910601139068604,0.3023841083049774,-0.6184449791908264,0.2844623923301697,1.4648274183273315
143,46605,46594,-0.01349551696330309,-0.11708658188581467,1.0178859233856201,0.19948743283748627,-3.272677183151245,1.4027113914489746,1.8094550371170044,3.891510009765625,0.3026188611984253,-0.6579970121383667,0.3466961681842804,1.4769214391708374
144,46615,46604,-0.0005218969308771193,-0.13254760205745697,0.9773921966552734,-5.609874248504639,0.4767168462276459,1.5886651277542114,1.8112154006958008,3.890957832336426,0.302796334028244,-0.6836027503013611,0.2951216399669647,1.4858888387680054
145,46625,46614,0.013910945504903793,-0.09245021641254425,0.972845196723938,-9.67107105255127,1.6373682022094727,1.6595131158828735,1.8127740621566772,3.891787052154541,0.30238252878189087,-0.7392056584358215,0.16341444849967957,1.4940147399902344
146,46635,46624,0.01106420997530222,-0.04742958024144173,0.9949641823768616,-11.302082061767578,1.7690825462341309,1.1821255683898926,1.8143725395202637,3.8924190998077393,0.3024979829788208,-0.7135331630706787,0.06415938585996628,1.5132070779800415
147,46645,46634,-0.029735399410128593,0.05830259248614311,1.0471878051757812,-9.19642448425293,-1.1355347633361816,1.2789103984832764,1.815229058265686,3.893030881881714,0.30271488428115845,-0.6706507205963135,-0.11196292191743851,1.529728889465332
148,46655,46644,0.022990142926573753,-0.02289215661585331,0.9841735363006592,-4.348306179046631,-7.6783270835876465,1.6516180038452148,1.8158293962478638,3.894658327102661,0.3029298484325409,-0.6426948308944702,-0.21937887370586395,1.5438753366470337
149,46665,46654,0.026216115802526474,0.004012872464954853,1.0046944618225098,2.926927089691162,-12.134913444519043,1.7607413530349731,1.8167515993118286,3.8957905769348145,0.30013352632522583,-0.514743983745575,-0.0731813982129097,1.5756843090057373
150,46675,46664,0.008624876849353313,-0.04928925260901451,1.039689302444458,8.28581428527832,-13.484338760375977,2.1355326175689697,1.81736159324646,3.89471697807312,0.30025312304496765,-0.33765554428100586,0.028449157252907753,1.598558783531189
151,46685,46674,-0.022436445578932762,-0.036256883293390274,1.0285125970840454,11.292076110839844,-13.78635025024414,2.2224678993225098,1.8180625438690186,3.894963264465332,0.30038219690322876,-0.2116083949804306,0.19527213275432587,1.6275935173034668
152,46695,46684,-0.014547465369105339,-0.016069047152996063,1.022886037826538,9.242632865905762,-11.090683937072754,2.1328139305114746,1.820340633392334,3.8942723274230957,0.3032083213329315,-0.19403062760829926,0.2835065424442291,1.6451102495193481
153,46705,46694,-0.008174690417945385,0.04906609281897545,1.0243185758590698,4.8609137535095215,-9.301600456237793,2.563706398010254,1.821068286895752,3.8943965435028076,0.30315566062927246,0.0009213240700773895,0.382072389125824,1.6708123683929443
154,46715,46704,-0.004651487339287996,0.06391599774360657,0.9796159863471985,-1.5304532051086426,-4.2672119140625,2.2984797954559326,1.821700096130371,3.8943355083465576,0.3035564124584198,0.06251581758260727,0.3099072575569153,1.6918507814407349
155,46725,46714,-0.016294702887535095,-0.030957059934735298,1.0004358291625977,-7.431640625,0.08635895699262619,3.0653419494628906,1.8228567838668823,3.8952271938323975,0.30292752385139465,0.04444149509072304,0.22829033434391022,1.7153006792068481
156,46735,46724,-0.013263514265418053,0.050959281623363495,0.9843444228172302,-11.40505599975586,3.3130030632019043,3.3581066131591797,1.825738549232483,3.896381378173828,0.3033437430858612,-0.02627653256058693,0.13232770562171936,1.7482948303222656
157,46745,46734,-0.006593956146389246,-0.09000518918037415,0.9557322263717651,-10.237303733825684,2.8809239864349365,3.1742424964904785,1.826940655708313,3.897200584411621,0.3033149540424347,0.04494323953986168,0.09258779138326645,1.7769907712936401
158,46755,46744,-0.02791324071586132,0.03656214103102684,1.0619897842407227,-6.2204508781433105,-0.6295635104179382,3.4526968002319336,1.828574776649475,3.896138906478882,0.3038594424724579,0.05225793272256851,0.013924109749495983,1.8180651664733887
159,46765,46754,0.020478473976254463,-0.027319131419062614,1.0147507190704346,-3.930661916732788,-0.2967136800289154,3.667109251022339,1.8282878398895264,3.8966329097747803,0.3014821708202362,0.13824348151683807,0.07102707773447037,1.8489090204238892
160,46775,46764,0.07843808829784393,-0.029612567275762558,1.0156354904174805,-0.7262665629386902,-4.093912124633789,4.627501964569092,1.8286160230636597,3.8950986862182617,0.3016473650932312,0.06019127741456032,0.014377188868820667,1.8933966159820557
161,46785,46774,0.012448254972696304,-0.15489912033081055,1.0382075309753418,-0.014484146609902382,-3.8136351108551025,4.661874294281006,1.830506443977356,3.8961856365203857,0.3016984462738037,0.12661336362361908,-0.006160659249871969,1.8966872692108154
162,46795,46784,0.009459312073886395,-0.13023914396762848,0.9848616719245911,-0.2975771129131317,-3.3974080085754395,5.322057247161865,1.8307729959487915,3.896395683288574,0.3009527027606964,0.29693862795829773,0.04911865293979645,1.9576574563980103
163,46805,46794,-0.041920583695173264,0.10864173620939255,1.0297808647155762,-2.5434682369232178,-0.4340931177139282,4.996837139129639,1.8317062854766846,3.896780490875244,0.30118802189826965,0.1943535953760147,0.08811338245868683,2.008591651916504
164,46815,46804,0.01859932392835617,-0.002015303121879697,1.0085422992706299,-6.152007579803467,2.5522994995117188,5.004459857940674,1.8330093622207642,3.896423578262329,0.30129554867744446,0.21893258392810822,0.011914525181055069,2.068960666656494
165,46825,46814,-0.018416333943605423,-0.09912728518247604,0.9939021468162537,-8.38194465637207,4.901780128479004,5.379887104034424,1.834147572517395,3.8968071937561035,0.30135583877563477,0.2695363461971283,-0.11389470845460892,2.1276652812957764
166,46835,46824,0.0024973663967102766,-0.060011379420757294,0.9865931272506714,-8.388191223144531,5.205862998962402,5.2344584465026855,1.8346737623214722,3.8972623348236084,0.3015902042388916,0.28606006503105164,-0.2759898006916046,2.19498348236084
167,46845,46834,-0.03971865028142929,-0.07223053276538849,1.0375499725341797,-6.475559234619141,3.992560863494873,4.466761589050293,1.8358296155929565,3.8977346420288086,0.3018580973148346,0.15853670239448547,-0.263212114572525,2.236821413040161
168,46855,46844,-0.05447912961244583,-0.04588701203465462,0.9904854893684387,-3.4711496829986572,6.303563117980957,4.419118404388428,1.8376094102859497,3.8970162868499756,0.3020198345184326,0.16164493560791016,-0.3049522638320923,2.2797131538391113
169,46865,46854,0.05830080434679985,-0.03208114951848984,1.0333268642425537,-1.730059027671814,6.800431728363037,4.7746148109436035,1.8379334211349487,3.8961448669433594,0.30053308606147766,0.1346520334482193,-0.30523741245269775,2.3190081119537354
170,46875,46864,0.016331952065229416,-0.035177044570446014,1.0046255588531494,-0.4338738024234772,3.5827550888061523,4.244549751281738,1.838823676109314,3.8958897590637207,0.3007102310657501,0.10685509443283081,-0.35733839869499207,2.3788974285125732
171,46885,46874,-0.02142961136996746,0.0006309995660558343,1.021138310432434,-1.6171568632125854,7.057161331176758,4.466530799865723,1.8397849798202515,3.896331548690796,0.3008347153663635,-0.060121554881334305,-0.39128708839416504,2.4170870780944824
172,46895,46884,-0.007674721535295248,-0.11827898770570755,0.964002251625061,-2.020535469055176,4.761563777923584,4.013012409210205,1.841356635093689,3.8962111473083496,0.30505767464637756,-0.07395954430103302,-0.43430185317993164,2.462787389755249
173,46905,46894,0.06614144891500473,-0.09332554787397385,1.0201350450515747,-1.27824068069458,2.0874133110046387,4.3758087158203125,1.842105746269226,3.8964364528656006,0.3054571747779846,-0.0733361691236496,-0.327070951461792,2.488389492034912
174,46915,46904,0.052336808294057846,-0.055876657366752625,1.0196588039398193,-0.5335076451301575,1.293231725692749,3.601391553878784,1.8420262336730957,3.895298480987549,0.30592578649520874,-0.037270452827215195,-0.37401190400123596,2.5322937965393066
175,46925,46914,0.0091013228520751,-0.044881660491228104,0.9788337349891663,-0.5483472943305969,1.306398630142212,3.643221855163574,1.8427060842514038,3.8953957557678223,0.3069298565387726,-0.13899901509284973,-0.3313513398170471,2.5770444869995117
176,46935,46924,-5.902052726014517e-05,-0.022588493302464485,0.990057110786438,-0.1471053808927536,2.1316945552825928,2.655064821243286,1.8445481061935425,3.895183563232422,0.3073241412639618,-0.08416451513767242,-0.36265069246292114,2.6121582984924316
177,46945,46934,0.042362913489341736,-0.07366938889026642,0.979983389377594,-1.8998552560806274,0.7997226715087891,2.0207111835479736,1.8453638553619385,3.89514422416687,0.307829350233078,-0.12230266630649567,-0.47103554010391235,2.6626415252685547
178,46955,46944,0.01676620915532112,-0.02534676529467106,0.9992239475250244,-2.681379795074463,2.489478349685669,1.797092318534851,1.8468962907791138,3.8964648246765137,0.3084565997123718,-0.30193203687667847,-0.5114482045173645,2.6944375038146973
179,46965,46954,0.029419979080557823,-0.03843526169657707,0.9615670442581177,-2.076537847518921,2.182711124420166,1.339911699295044,1.8487248420715332,3.8968706130981445,0.3087482154369354,-0.25427547097206116,-0.5632965564727783,2.7073960304260254
180,46975,46964,0.08698093146085739,-0.10498470067977905,1.006248950958252,-0.5167573094367981,2.4715964794158936,0.7174443602561951,1.8488399982452393,3.8969004154205322,0.3092288672924042,-0.2903393805027008,-0.5268603563308716,2.7260026931762695
181,46985,46974,0.047948434948921204,-0.08705887943506241,1.0146362781524658,2.5363106727600098,1.1657140254974365,1.162224531173706,1.8493947982788086,3.897057056427002,0.309606671333313,-0.3190169036388397,-0.45859915018081665,2.726816415786743
182,46995,46984,0.01404496282339096,-0.08500028401613235,0.9705740809440613,4.919894695281982,-1.6850680112838745,1.492962121963501,1.8502960205078125,3.8964312076568604,0.31067875027656555,-0.32358112931251526,-0.428657591342926,2.7430591583251953
183,47005,46994,0.01457958947867155,-0.0398196317255497,1.0148653984069824,4.431962013244629,-4.129271507263184,1.7001690864562988,1.851811170578003,3.8968191146850586,0.31108468770980835,-0.3593171238899231,-0.3713310956954956,2.7811760902404785
184,47015,47004,0.026742149144411087,-0.022803356871008873,0.9809572696685791,3.514369249343872,-4.326507091522217,0.5802727341651917,1.8535171747207642,3.8976075649261475,0.3114730417728424,-0.20527048408985138,-0.3172197639942169,2.782778739929199
185,47025,47014,0.009148183278739452,-0.08024432510137558,1.027758002281189,1.2967840433120728,-2.3597030639648438,0.39107397198677063,1.8534427881240845,3.8970487117767334,0.3156611919403076,-0.14122238755226135,-0.2858918309211731,2.807880163192749
186,47035,47024,0.03156762197613716,-0.12608502805233002,0.9423074722290039,-1.761330485343933,-1.6238592863082886,1.4271700382232666,1.8536478281021118,3.8977508544921875,0.3163183927536011,-0.18396583199501038,-0.28527894616127014,2.8042805194854736
187,47045,47034,0.03558512032032013,-0.06788420677185059,0.9081918597221375,-3.1721513271331787,-1.4681146144866943,2.2257537841796875,1.8552273511886597,3.8977694511413574,0.3169304132461548,-0.1601894199848175,-0.32923734188079834,2.815692901611328
188,47055,47044,0.03366515040397644,-0.10889621078968048,0.962732195854187,-2.865065813064575,1.0196701288223267,2.002732753753662,1.855650544166565,3.898052453994751,0.31671229004859924,-0.05249641463160515,-0.39388757944107056,2.849592447280884
189,47065,47054,-0.015676822513341904,-0.08553004264831543,1.0140236616134644,-3.5649783611297607,-0.059939462691545486,2.2275147438049316,1.856032133102417,3.8989572525024414,0.31721675395965576,-0.10948456078767776,-0.45222723484039307,2.865544080734253
190,47075,47064,-0.03766300529241562,-0.02709043025970459,0.9558645486831665,-2.837437152862549,2.3805325031280518,2.2468996047973633,1.8574936389923096,3.8992419242858887,0.317633718252182,-0.1072530448436737,-0.5086316466331482,2.8932456970214844
191,47085,47074,-0.09512673318386078,0.11031725257635117,0.916655421257019,0.27281826734542847,1.0732598304748535,2.680783987045288,1.857740879058838,3.899285078048706,0.3180866539478302,-0.058106157928705215,-0.5438750386238098,2.911440372467041
192,47095,47084,-0.018643977120518684,0.11271759867668152,0.9302710294723511,4.8683929443359375,-5.510653018951416,2.5077826976776123,1.8584171533584595,3.899365186691284,0.3188392221927643,-0.1436641812324524,-0.532460629940033,2.9400835037231445
193,47105,47094,-0.02461056038737297,0.05736461281776428,0.9661813974380493,6.485664367675781,-2.8825695514678955,3.75848388671875,1.86017644405365,3.8994765281677246,0.31914907693862915,-0.09058341383934021,-0.4615404009819031,2.9622325897216797
194,47115,47104,-0.08877599239349365,-0.03786955773830414,0.9864794015884399,6.789702415466309,-0.7463124990463257,3.9363017082214355,1.8609658479690552,3.8990554809570312,0.3194616436958313,-0.04506003111600876,-0.35637152194976807,2.9948363304138184
195,47125,47114,0.017255224287509918,-0.09413526207208633,0.9621110558509827,6.078810214996338,1.701636552810669,4.164392948150635,1.8615214824676514,3.89863657951355,0.3163747787475586,-0.11605796962976456,-0.32703807950019836,3.050078868865967
196,47135,47124,0.04554572328925133,-0.07084238529205322,0.9441946148872375,4.1618428230285645,0.7496208548545837,4.334836959838867,1.8629041910171509,3.8992843627929688,0.3164030611515045,-0.13038834929466248,-0.23242636024951935,3.0829622745513916
197,47145,47134,0.003884949255734682,-0.011681689880788326,0.9693700671195984,1.8223167657852173,-1.9935963153839111,4.37162446975708,1.8633776903152466,3.898761510848999,0.3163919746875763,-0.11162657290697098,-0.24538832902908325,3.128560781478882
198,47155,47144,0.009768863208591938,-0.053075168281793594,1.0045454502105713,-1.7452315092086792,-2.2667300701141357,4.1131439208984375,1.8639932870864868,3.899381160736084,0.31223776936531067,-0.06658463925123215,-0.21922221779823303,3.174334764480591
199,47165,47154,-0.06438098847866058,-0.0810340940952301,1.0623893737792969,-3.25679612159729,-0.5837149620056152,3.5006966590881348,1.8645437955856323,3.8998544216156006,0.3119562268257141,0.06153951957821846,-0.23528464138507843,3.211364269256592
200,47175,47164,-0.06716014444828033,0.057518120855093,1.0319150686264038,-4.385706901550293,-1.2317399978637695,4.364750385284424,1.8641053438186646,3.899904727935791,0.3117784559726715,0.1429150104522705,-0.2845870852470398,3.251162052154541
201,47185,47174,-0.01944255828857422,0.1022028923034668,0.9301377534866333,-5.407848834991455,0.9356953501701355,4.160646438598633,1.8643320798873901,3.900451183319092,0.3116133213043213,0.06000478193163872,-0.354461669921875,3.2980034351348877
202,47195,47184,0.006128414534032345,0.018388858065009117,1.0031280517578125,-5.4206342697143555,2.1791510581970215,5.059967041015625,1.8653173446655273,3.900916576385498,0.3118225038051605,0.04950583353638649,-0.43221890926361084,3.342229127883911
203,47205,47194,-0.012238215655088425,-0.0114698875695467,1.0034211874008179,-5.473812103271484,3.2851717472076416,4.6994829177856445,1.8662415742874146,3.901496648788452,0.3115605413913727,0.028870955109596252,-0.509124219417572,3.4127984046936035
204,47215,47204,0.0026402424555271864,-0.01127046998590231,1.0078836679458618,-5.121302127838135,4.353514671325684,4.577115058898926,1.8671839237213135,3.9022626876831055,0.3113287091255188,0.044682737439870834,-0.5830521583557129,3.461158275604248
205,47225,47214,-0.003290018765255809,-0.021146968007087708,0.9717270731925964,-4.433183193206787,5.556405544281006,3.7898197174072266,1.8678739070892334,3.9030370712280273,0.3106992244720459,-0.043038398027420044,-0.6544475555419922,3.5124356746673584
206,47235,47224,0.00966621469706297,-0.002689402550458908,1.0273451805114746,-1.204703450202942,5.2729315757751465,3.2130818367004395,1.8683358430862427,3.9033477306365967,0.3103768825531006,-0.06726070493459702,-0.6946232914924622,3.5548510551452637
207,47245,47234,0.0028567577246576548,-0.004227753262966871,1.0238596200942993,4.583449363708496,2.7703278064727783,3.3395378589630127,1.868813157081604,3.9031779766082764,0.3101186454296112,-0.07689837366342545,-0.6714897751808167,3.5881764888763428
208,47255,47244,-0.12822556495666504,-0.014145547524094582,1.0123471021652222,7.533015727996826,0.5927049517631531,2.830167055130005,1.868925929069519,3.9037458896636963,0.3123096525669098,-0.12804719805717468,-0.5722489953041077,3.6199638843536377
209,47265,47254,0.0007558149518445134,-0.03199156001210213,0.988547682762146,7.394026756286621,-2.1112871170043945,3.2402992248535156,1.8694528341293335,3.9035634994506836,0.31224119663238525,-0.1455892026424408,-0.5127931833267212,3.6502578258514404
210,47275,47264,-0.021362999454140663,-0.15494215488433838,1.016998291015625,4.9362874031066895,-0.1445586085319519,2.4618849754333496,1.870049238204956,3.9040424823760986,0.31219324469566345,-0.14106470346450806,-0.3870023787021637,3.681138753890991
211,47285,47274,-0.040059927850961685,-0.12847009301185608,1.0421069860458374,2.6818795204162598,0.9296053647994995,2.3829596042633057,1.8704701662063599,3.9037981033325195,0.3117576241493225,-0.0643855556845665,-0.4441034495830536,3.733079433441162
212,47295,47284,-0.038346659392118454,0.11287901550531387,1.032516598701477,-1.0540053844451904,0.5145747661590576,1.8150591850280762,1.8700809478759766,3.905714750289917,0.3117620348930359,-0.08782241493463516,-0.39150142669677734,3.7571451663970947
213,47305,47294,-0.05612059310078621,-0.014229425229132175,1.0313260555267334,-1.1302404403686523,1.3579250574111938,1.830444097518921,1.8706258535385132,3.905966281890869,0.31173592805862427,-0.12118218094110489,-0.5377120971679688,3.787938117980957
214,47315,47304,-0.03232317790389061,-0.008734987117350101,0.9752464294433594,-1.216542363166809,4.618040561676025,2.5482118129730225,1.8711336851119995,3.907836437225342,0.31169864535331726,-0.08335120230913162,-0.528872549533844,3.7970402240753174
215,47325,47314,-0.021161174401640892,0.022287264466285706,0.9366937279701233,2.894322633743286,6.096679210662842,2.5176761150360107,1.8710020780563354,3.9076147079467773,0.3097783029079437,-0.08532699197530746,-0.4992539882659912,3.8610851764678955
216,47335,47324,-0.012876635417342186,0.035196542739868164,1.0109872817993164,8.911431312561035,4.8229804039001465,3.139671564102173,1.872174620628357,3.9089670181274414,0.30967336893081665,-0.28006839752197266,-0.4042578935623169,3.8793375492095947
217,47345,47334,0.05585940182209015,-0.04805696755647659,1.0360677242279053,14.86081600189209,3.700521469116211,2.7973430156707764,1.8741004467010498,3.908181667327881,0.30945679545402527,-0.37052881717681885,-0.36957427859306335,3.92787504196167
218,47355,47344,-0.07573200762271881,0.06844817847013474,1.0279262065887451,18.26969337463379,0.05232252925634384,2.854703903198242,1.8748284578323364,3.9094624519348145,0.31022393703460693,-0.26125088334083557,-0.23355208337306976,3.948617458343506
219,47365,47354,-0.04029200226068497,-0.005054328590631485,0.9941882491111755,16.9411678314209,-3.186659812927246,3.2097132205963135,1.8742495775222778,3.909912347793579,0.3103086054325104,-0.2692551016807556,0.03701085224747658,3.977919816970825
220,47375,47364,-0.027183428406715393,-0.09872747957706451,0.9769488573074341,12.05512523651123,-6.8064680099487305,2.945944309234619,1.8749303817749023,3.9095945358276367,0.31028398871421814,-0.23204365372657776,0.02629009447991848,4.0115814208984375
221,47385,47374,-0.024862131103873253,0.021108947694301605,1.0498242378234863,3.8904385566711426,-2.275749921798706,2.444208860397339,1.8749065399169922,3.9115610122680664,0.310518741607666,-0.07694215327501297,0.17639687657356262,4.033730983734131
222,47395,47384,-0.04816178232431412,0.03259605914354324,1.0394916534423828,-3.1426751613616943,0.5495524406433105,2.478693962097168,1.8747576475143433,3.91188645362854,0.3105752766132355,-0.1490527093410492,0.09901757538318634,4.085477828979492
223,47405,47394,-0.0825808197259903,0.05371028557419777,1.010666847229004,-6.529451847076416,2.9117233753204346,1.934988021850586,1.875889539718628,3.914214611053467,0.31053975224494934,-0.09565716236829758,0.07856220752000809,4.112644672393799
224,47415,47404,-0.013438941910862923,0.06693805754184723,1.0460654497146606,-7.316586494445801,8.167159080505371,1.076704978942871,1.8759821653366089,3.914870023727417,0.3106393814086914,-0.10357295721769333,0.014543821103870869,4.1335225105285645
225,47425,47414,0.029477424919605255,-0.06195797026157379,1.0327438116073608,-3.7703487873077393,8.466176986694336,1.2894835472106934,1.876206398010254,3.915316104888916,0.30942219495773315,-0.24008837342262268,-0.11104529350996017,4.179152965545654
226,47435,47424,0.008271809667348862,-0.05072934553027153,1.0067609548568726,-0.4892841875553131,9.624683380126953,0.2541535198688507,1.8781163692474365,3.9174344539642334,0.3093721270561218,-0.418378621339798,-0.09735757857561111,4.179372310638428
227,47445,47434,0.05380728840827942,0.015455521643161774,0.9779062867164612,6.223516464233398,11.93685531616211,0.055773165076971054,1.8796406984329224,3.917847156524658,0.30936551094055176,-0.558871865272522,-0.10216804593801498,4.177350044250488
228,47455,47444,-0.03848879039287567,-0.06815976649522781,1.0372822284698486,11.523879051208496,13.678129196166992,-0.1676884889602661,1.8801642656326294,3.9178457260131836,0.3074910342693329,-0.6897475719451904,0.08750931918621063,4.173859119415283
229,47465,47454,-0.01156423706561327,-0.031144864857196808,1.0045796632766724,16.06833839416504,10.94279670715332,-1.057858943939209,1.8806370496749878,3.9171886444091797,0.3074646294116974,-0.746521532535553,0.21388743817806244,4.170864582061768
230,47475,47464,0.015827324241399765,0.06672429293394089,0.9414170980453491,16.385221481323242,4.668804168701172,-1.9181710481643677,1.8803244829177856,3.917726516723633,0.3075019419193268,-0.9148697257041931,0.44299793243408203,4.167516231536865
231,47485,47474,0.05825250595808029,-0.03900548443198204,1.0416089296340942,13.10394287109375,1.5791915655136108,-2.93725848197937,1.8820157051086426,3.917708396911621,0.30936357378959656,-0.8903723955154419,0.43723031878471375,4.136619567871094
232,47495,47484,0.02740371599793434,-0.07152876257896423,0.9715875387191772,7.187369346618652,-1.1398353576660156,-4.055395603179932,1.882105827331543,3.9195306301116943,0.3094489276409149,-0.8314629197120667,0.5193610787391663,4.142267227172852
233,47505,47494,-0.016643300652503967,0.01046883873641491,0.9909263253211975,1.4450076818466187,-3.813805341720581,-5.4755096435546875,1.8826831579208374,3.9214577674865723,0.3095476031303406,-0.8037371635437012,0.6514741778373718,4.138851642608643
234,47515,47504,-0.03664077818393707,-0.009551946073770523,1.005556583404541,-1.2448889017105103,-3.9930825233459473,-5.168503761291504,1.8830443620681763,3.922462224960327,0.30957990884780884,-0.880474328994751,0.551026463508606,4.081274509429932
235,47525,47514,0.01756582036614418,-0.1554873138666153,0.9825406670570374,-2.1122889518737793,-3.8098318576812744,-5.652199745178223,1.8850595951080322,3.9244625568389893,0.3089175224304199,-0.7376340627670288,0.5755473971366882,4.0375776290893555
236,47535,47524,-0.018490564078092575,-0.011544719338417053,0.9977906346321106,-0.8784346580505371,-3.475409746170044,-5.952942848205566,1.885213851928711,3.924732208251953,0.3090484142303467,-0.6058232188224792,0.5943334698677063,3.9858169555664062
237,47545,47534,-0.03929777443408966,0.03315526247024536,0.9917834997177124,0.683265745639801,-1.0965861082077026,-6.009407043457031,1.8852458000183105,3.925227403640747,0.30912622809410095,-0.6424533724784851,0.5575262904167175,3.91611385345459
238,47555,47544,-0.04612691327929497,-0.0723404660820961,1.0096219778060913,1.1660076379776,1.192655324935913,-6.707132339477539,1.8871172666549683,3.925961971282959,0.3083462119102478,-0.7253063917160034,0.6235179305076599,3.839647054672241
239,47565,47554,-0.02654084376990795,-0.02336246520280838,1.002748966217041,-0.15607613325119019,2.1990761756896973,-6.424184322357178,1.8885271549224854,3.925565481185913,0.3082544505596161,-0.6732059121131897,0.6735163331031799,3.783447265625
