,timestamp_start,timestamp_end,acc.x,acc.y,acc.z,gyro.x,gyro.y,gyro.z,stateEstimate.x,stateEstimate.y,stateEstimate.z,stabilizer.pitch,stabilizer.roll,stabilizer.yaw
0,38643,38639,0.05459817126393318,-0.0036241402849555016,1.0186750888824463,-13.69243049621582,10.729817390441895,1.6429047584533691,1.8911134004592896,3.856686592102051,0.15290567278862,0.83329838514328,0.4464055597782135,3.6245429515838623
1,38653,38649,-0.027959786355495453,-0.027877286076545715,1.0663572549819946,-11.452129364013672,13.968191146850586,1.5525671243667603,1.8914697170257568,3.8562207221984863,0.15529592335224152,0.769268274307251,0.1788932830095291,3.6726715564727783
2,38663,38659,0.054336413741111755,0.02591940388083458,1.0804568529129028,-11.263619422912598,12.839804649353027,1.3211562633514404,1.8901430368423462,3.855699062347412,0.15733331441879272,0.6803768873214722,0.16348333656787872,3.6762163639068604
3,38673,38669,0.02622601017355919,-0.04609565809369087,1.0516366958618164,-9.111719131469727,2.755615472793579,2.716507911682129,1.8897552490234375,3.854144334793091,0.15884311497211456,0.551591694355011,-0.13201633095741272,3.7256882190704346
4,38683,38679,0.04316647723317146,0.14780040085315704,1.0996030569076538,-10.542764663696289,-1.401126742362976,0.42289432883262634,1.888785719871521,3.8549013137817383,0.16107510030269623,0.5430912375450134,-0.0436837412416935,3.71113920211792
5,38693,38689,-0.1252528578042984,0.1486501395702362,1.0794941186904907,-8.133101463317871,-5.77956485748291,1.0686695575714111,1.8899204730987549,3.8571152687072754,0.1656869798898697,0.6674548387527466,-0.17942553758621216,3.7314674854278564
6,38703,38699,-0.0796513482928276,0.15031352639198303,1.1486998796463013,-7.49645471572876,-6.359190464019775,0.09292587637901306,1.8886545896530151,3.8573989868164062,0.16785866022109985,0.6736128330230713,-0.2831885516643524,3.740719795227051
7,38713,38709,-0.06560663133859634,-0.02609003335237503,1.1407058238983154,-6.96785306930542,-2.216163158416748,0.6334825158119202,1.8894795179367065,3.856668472290039,0.17021028697490692,0.6462687253952026,-0.3766935169696808,3.7454872131347656
8,38723,38719,0.05103553086519241,-0.053662192076444626,1.005356788635254,-7.2523193359375,4.576463222503662,-0.34927982091903687,1.88926100730896,3.856534481048584,0.17380502820014954,0.6748677492141724,-0.5987797975540161,3.770444393157959
9,38733,38729,-0.013796620070934296,-0.056511614471673965,0.9991414546966553,-7.594183921813965,2.9892168045043945,0.09106094390153885,1.8893626928329468,3.856652021408081,0.1764543354511261,0.6365372538566589,-0.673362135887146,3.769120693206787
10,38743,38739,-0.11631474643945694,0.07778143137693405,1.0518798828125,-7.170332431793213,4.816078186035156,-0.05811319872736931,1.8904781341552734,3.855792999267578,0.17909610271453857,1.3429224491119385,-0.290852427482605,3.691532611846924
11,38753,38749,-0.001189107308164239,0.03824823349714279,0.9856092929840088,-6.637603282928467,9.913604736328125,0.08367021381855011,1.884697437286377,3.8519198894500732,0.18328255414962769,1.07785964012146,-0.41171175241470337,3.6988158226013184
12,38763,38759,-0.04079410433769226,0.04780694842338562,0.9782584309577942,-7.1146697998046875,11.53524398803711,1.154467225074768,1.8859202861785889,3.8517379760742188,0.18690848350524902,0.8100797533988953,-0.3780291676521301,3.692446231842041
13,38773,38769,0.0656646341085434,-0.040356941521167755,0.8931173086166382,-8.171831130981445,14.55438232421875,1.4134539365768433,1.8858038187026978,3.849606513977051,0.18994614481925964,0.6828100681304932,-0.45285555720329285,3.7027478218078613
14,38783,38779,0.05562853440642357,-0.07615349441766739,0.8834867477416992,-13.594252586364746,17.775466918945312,0.8860692977905273,1.8837685585021973,3.850846529006958,0.19327600300312042,0.37351569533348083,-0.9696855545043945,3.776282787322998
15,38793,38789,-0.003766645910218358,-0.016284046694636345,0.9866659641265869,-14.548110961914062,13.049127578735352,1.2861398458480835,1.8841354846954346,3.852078676223755,0.19525019824504852,0.20159491896629333,-1.1133602857589722,3.783933162689209
16,38803,38799,-0.06803268194198608,-0.0024063580203801394,0.9459795951843262,-13.782262802124023,14.11082935333252,0.9733974933624268,1.883787989616394,3.855311393737793,0.19766545295715332,-0.17465339601039886,-1.3035374879837036,3.8108460903167725
17,38813,38809,-0.1167638897895813,0.5184093117713928,0.978765606880188,-10.004799842834473,9.543508529663086,0.3629569709300995,1.8845652341842651,3.855179786682129,0.2002982199192047,-0.4772326648235321,-1.080083966255188,3.795950412750244
18,38823,38819,-0.2147531658411026,0.6818081140518188,1.100029706954956,-1.3419932126998901,6.191817283630371,0.1861773431301117,1.8857989311218262,3.85384464263916,0.20122359693050385,-0.6108169555664062,-1.283492088317871,3.8077375888824463
19,38833,38829,-0.0952899158000946,0.1987694501876831,0.9120782017707825,2.3225672245025635,-3.638421058654785,0.3667134940624237,1.8855087757110596,3.857084274291992,0.20363043248653412,-0.6446418762207031,-1.2840540409088135,3.8109524250030518
20,38843,38839,-0.16511572897434235,0.5633791089057922,1.0249500274658203,3.431178092956543,-10.934706687927246,-0.807045042514801,1.885662317276001,3.857572555541992,0.20606978237628937,-0.6402708888053894,-1.41029953956604,3.821927785873413
21,38853,38849,-0.1426064819097519,0.24601592123508453,0.9516309499740601,3.3328888416290283,-10.63607120513916,-0.9137864708900452,1.8855605125427246,3.8576395511627197,0.21191956102848053,-0.4434037506580353,-1.567115306854248,3.804718255996704
22,38863,38859,-0.019825197756290436,0.60097736120224,0.964828372001648,3.069342851638794,-14.920982360839844,-2.516329050064087,1.8837954998016357,3.8594632148742676,0.2145562469959259,-0.3198395371437073,-1.5348947048187256,3.792149782180786
23,38873,38869,-0.10589761286973953,0.605756938457489,1.0309678316116333,2.594125747680664,-8.771047592163086,-2.318472146987915,1.8841639757156372,3.8598923683166504,0.2170977145433426,-0.1735992729663849,-1.5192582607269287,3.768521547317505
24,38883,38879,-0.054001640528440475,0.18870829045772552,0.9978368878364563,4.351338863372803,-7.068453311920166,-1.7936805486679077,1.8836668729782104,3.8623509407043457,0.2195408046245575,-0.015609352849423885,-1.6327933073043823,3.7383415699005127
25,38893,38889,0.00969921424984932,-0.012442527338862419,0.9289200305938721,6.853822708129883,-0.1696786880493164,-2.0339770317077637,1.884616732597351,3.862492561340332,0.22406436502933502,-0.11382464319467545,-1.5383864641189575,3.7538397312164307
26,38903,38899,0.06974885612726212,-0.08841785043478012,0.8730743527412415,12.75207233428955,1.429317593574524,-2.2605557441711426,1.8834331035614014,3.862741231918335,0.22689597308635712,0.008164617232978344,-1.3207237720489502,3.716289520263672
27,38913,38909,0.07193281501531601,0.01466673519462347,0.826662003993988,12.003252983093262,-5.2512006759643555,-2.7085468769073486,1.8833024501800537,3.863309144973755,0.22949610650539398,-0.038076069205999374,-1.206183910369873,3.7051007747650146
28,38923,38919,0.015400889329612255,-0.05182734504342079,0.9247136116027832,8.099663734436035,0.7966809272766113,-2.918599843978882,1.8813831806182861,3.862313747406006,0.23413434624671936,0.8632354140281677,-0.6536932587623596,3.5220324993133545
29,38933,38929,-0.09557024389505386,0.2717457711696625,0.8879368305206299,5.48577880859375,-0.6487651467323303,-2.966543436050415,1.8758059740066528,3.8591339588165283,0.23606151342391968,0.7627556920051575,-0.53952556848526,3.501828670501709
30,38943,38939,-0.21324466168880463,0.2030305564403534,0.8962691426277161,1.4972971677780151,7.469422340393066,-1.9405169486999512,1.875402808189392,3.857822895050049,0.23848304152488708,0.9721099138259888,-2.197496175765991,3.505870819091797
31,38953,38949,0.09102965146303177,0.004855903796851635,0.8405138850212097,-4.124768257141113,24.270597457885742,-2.470919132232666,1.8712800741195679,3.8698227405548096,0.24191763997077942,0.824413001537323,-2.1967198848724365,3.4806950092315674
32,38963,38959,0.1907527595758438,-0.02449103631079197,0.8401500582695007,-1.374726414680481,20.510955810546875,-1.8023971319198608,1.8717632293701172,3.8711626529693604,0.2443147897720337,0.4610515534877777,-2.256484031677246,3.476094961166382
33,38973,38969,0.06314465403556824,-0.15576499700546265,0.8134152889251709,7.186150074005127,16.06722068786621,-2.5434892177581787,1.8710975646972656,3.8724734783172607,0.24727383255958557,0.19333232939243317,-2.037720203399658,3.4478390216827393
34,38983,38979,-0.06885513663291931,0.20158345997333527,0.9515584111213684,13.69117259979248,24.66157341003418,-2.6473162174224854,1.8696402311325073,3.8734817504882812,0.2501901388168335,-0.12819544970989227,-1.8091272115707397,3.4227755069732666
35,38993,38989,-0.07436922937631607,0.1413915455341339,0.9344882369041443,24.707008361816406,18.154321670532227,-3.472421407699585,1.8690626621246338,3.8736283779144287,0.2521226108074188,-0.37845349311828613,-1.6347954273223877,3.3847415447235107
36,39003,38999,-0.2368517518043518,0.21494662761688232,1.0049991607666016,30.378782272338867,18.11754035949707,-3.902867317199707,1.8686662912368774,3.873192548751831,0.25408315658569336,-0.8385694622993469,-1.1531929969787598,3.3845407962799072
37,39013,39009,-0.20087015628814697,0.4136829078197479,1.0644726753234863,32.5858039855957,13.518976211547852,-4.034068584442139,1.8693065643310547,3.8729982376098633,0.2557941973209381,-1.0041412115097046,-0.8198515772819519,3.34199857711792
38,39023,39019,-0.1430666148662567,0.2809487581253052,0.9394277930259705,32.027305603027344,2.9760098457336426,-4.029243469238281,1.86789071559906,3.8747012615203857,0.2581824064254761,-1.0774590969085693,-0.631150484085083,3.2950451374053955
39,39033,39029,0.0006963085616007447,0.017960883677005768,0.8891095519065857,26.480148315429688,0.863349199295044,-4.201771259307861,1.867337703704834,3.8798184394836426,0.25982627272605896,-1.209189534187317,-0.18357105553150177,3.283754348754883
40,39043,39039,0.09847888350486755,0.003260826226323843,0.8755800127983093,22.379478454589844,-10.608169555664062,-3.4917361736297607,1.8675178289413452,3.87880539894104,0.26153308153152466,-1.1376146078109741,0.0679081380367279,3.2479922771453857
41,39053,39049,0.11780716478824615,-0.1791267693042755,0.7678210735321045,17.20194435119629,-21.547449111938477,-2.820250988006592,1.866346836090088,3.8800439834594727,0.26306748390197754,-0.8857083320617676,0.19125184416770935,3.1964945793151855
42,39063,39059,0.03190840780735016,-0.21965326368808746,0.8248010873794556,9.637245178222656,-27.04312515258789,-3.342822551727295,1.8647737503051758,3.8809220790863037,0.2644846737384796,-0.6771721243858337,0.413143515586853,3.1683285236358643
43,39073,39069,-0.16403301060199738,0.0998985692858696,1.0399370193481445,3.8117635250091553,-15.174135208129883,-3.5171959400177,1.8638837337493896,3.882187843322754,0.26566845178604126,-0.5730090737342834,0.3645973205566406,3.125628709793091
44,39083,39079,-0.05074189603328705,0.17285078763961792,0.931191623210907,-3.480804204940796,-4.056133270263672,-4.990174293518066,1.864297866821289,3.8824121952056885,0.2664633095264435,-0.6195623874664307,0.3816644549369812,3.090836763381958
45,39093,39089,-0.18646913766860962,0.32178300619125366,1.0501102209091187,-1.1767289638519287,3.461344003677368,-4.766576290130615,1.8653347492218018,3.883249282836914,0.267467737197876,-0.6205511689186096,0.3931068480014801,3.0477027893066406
46,39103,39099,-0.1334204524755478,0.11808789521455765,1.0414716005325317,3.1119437217712402,3.4943459033966064,-3.618865489959717,1.8651906251907349,3.8826980590820312,0.26844409108161926,-0.6543796062469482,0.5322693586349487,3.020935297012329
47,39113,39109,0.036634985357522964,0.06387798488140106,0.9557861089706421,10.667121887207031,5.908654689788818,-2.4476864337921143,1.865938663482666,3.882481098175049,0.26954013109207153,-0.7270991206169128,0.5277410745620728,2.982478618621826
48,39123,39119,-0.01230861246585846,0.15952683985233307,0.978238582611084,15.352455139160156,3.2536356449127197,-3.3327887058258057,1.8658021688461304,3.8845701217651367,0.2661450505256653,-0.7790313959121704,0.851809561252594,2.9734456539154053
49,39133,39129,-0.05955403670668602,0.0038032562006264925,0.8313844799995422,16.50728416442871,-3.22948956489563,-3.584204912185669,1.8668111562728882,3.883805274963379,0.2669232487678528,-0.7526419758796692,0.9549733996391296,2.937685012817383
50,39143,39139,-0.14794960618019104,0.011921409517526627,0.8553974032402039,16.18112564086914,-11.966168403625488,-3.8073809146881104,1.8664186000823975,3.8848917484283447,0.2675493657588959,-0.6062914133071899,1.0583856105804443,2.899177074432373
51,39153,39149,-0.07983100414276123,0.13441890478134155,1.0237596035003662,12.192841529846191,-12.644124031066895,-4.424360752105713,1.865515947341919,3.884704828262329,0.26484987139701843,-0.5078787803649902,1.2730607986450195,2.8622164726257324
52,39163,39159,-0.07911045104265213,0.4469814896583557,1.0251951217651367,6.966828346252441,-11.045652389526367,-5.078277587890625,1.865451455116272,3.8846275806427,0.26505565643310547,-0.4962458610534668,1.3184797763824463,2.798957586288452
53,39173,39169,-0.14969806373119354,0.24186915159225464,0.9722843170166016,2.7456610202789307,-6.940077781677246,-4.583103656768799,1.865738868713379,3.8863842487335205,0.26522958278656006,-0.4444292187690735,1.3775758743286133,2.7443065643310547
54,39183,39179,-0.11568746715784073,0.008882199414074421,0.9528878927230835,0.541043758392334,-6.92817497253418,-3.596421718597412,1.865482211112976,3.8891987800598145,0.26253318786621094,-0.48226019740104675,1.4595749378204346,2.691473960876465
55,39193,39189,-0.0911267027258873,0.07196246087551117,1.062085509300232,-1.8840733766555786,-4.7854390144348145,-4.389060020446777,1.8660107851028442,3.889402389526367,0.26252931356430054,-0.4700954854488373,1.3325071334838867,2.631481170654297
56,39203,39199,0.041595395654439926,0.018929965794086456,0.9708511829376221,-3.2793831825256348,-2.555159568786621,-3.6563124656677246,1.8657469749450684,3.8906891345977783,0.26254042983055115,-0.4244217276573181,1.310431718826294,2.590402603149414
57,39213,39209,-0.05904929339885712,0.16290992498397827,1.0549236536026,-1.6469271183013916,-11.429361343383789,-3.2133965492248535,1.865039348602295,3.8885602951049805,0.2629726231098175,-0.26363879442214966,1.370568037033081,2.5777931213378906
58,39223,39219,-0.09191104769706726,0.11833121627569199,1.0081437826156616,0.844719409942627,-20.01249122619629,-3.167935371398926,1.8639092445373535,3.888399124145508,0.26310211420059204,-0.11883606761693954,1.3707038164138794,2.5368242263793945
59,39233,39229,-0.12518884241580963,0.3504997193813324,1.1466366052627563,3.8318939208984375,-12.042044639587402,-3.5355007648468018,1.8651785850524902,3.8872318267822266,0.2632399797439575,-0.15977667272090912,1.5138862133026123,2.4668495655059814
60,39243,39239,-0.14257925748825073,0.4616895318031311,1.2116559743881226,3.064887285232544,-11.018669128417969,-2.96561861038208,1.865580677986145,3.8872592449188232,0.26344770193099976,-0.05214153602719307,1.5486208200454712,2.4252333641052246
61,39253,39249,-0.1575937122106552,0.34238964319229126,1.1646240949630737,2.9508919715881348,-8.426924705505371,-1.6109610795974731,1.8652148246765137,3.886385440826416,0.2599087953567505,0.08355997502803802,1.5950069427490234,2.4171626567840576
62,39263,39259,-0.04849248379468918,0.14926129579544067,1.074379801750183,0.8740530014038086,-8.091612815856934,-1.1521704196929932,1.8644903898239136,3.886773109436035,0.26024922728538513,0.14239747822284698,1.6161043643951416,2.397246837615967
63,39273,39269,-0.06424948573112488,0.03171885758638382,1.0811671018600464,-3.2112820148468018,-6.7107672691345215,-2.1234912872314453,1.863630771636963,3.886951208114624,0.26066190004348755,0.26876547932624817,1.6206021308898926,2.395880699157715
64,39283,39279,-0.004635746590793133,-0.007188552990555763,0.9744616150856018,-7.638152122497559,-2.6561086177825928,-3.0073466300964355,1.8637075424194336,3.886356830596924,0.2600387632846832,0.20507413148880005,1.547783613204956,2.3450469970703125
65,39293,39289,-0.06391929090023041,-0.05918211489915848,0.9941551089286804,-10.879417419433594,-3.608816385269165,-1.7932764291763306,1.8643441200256348,3.8875317573547363,0.2604900896549225,0.19814567267894745,1.4038636684417725,2.308156967163086
66,39303,39299,0.06001686677336693,-0.19963161647319794,0.9204421043395996,-10.998285293579102,-2.2008161544799805,-2.2725017070770264,1.8635480403900146,3.888654947280884,0.26090699434280396,0.29093924164772034,1.2223469018936157,2.303633451461792
67,39313,39309,0.006992819719016552,-0.17834453284740448,0.9236570596694946,-9.502735137939453,-4.900979042053223,-2.3521265983581543,1.8638592958450317,3.887953042984009,0.25916218757629395,0.23012560606002808,1.1297085285186768,2.2510387897491455
68,39323,39319,0.07300783693790436,-0.10517501831054688,0.9574828147888184,-6.608028888702393,-6.25884485244751,-2.183450937271118,1.8635145425796509,3.8871805667877197,0.25931358337402344,0.21990008652210236,1.0639210939407349,2.2057137489318848
69,39333,39329,0.04143160209059715,-0.16041450202465057,0.9140599966049194,-2.438483238220215,-3.218780517578125,-2.3686344623565674,1.8634669780731201,3.884293794631958,0.2594056725502014,0.27627626061439514,1.2223494052886963,2.180539131164551
70,39343,39339,0.03303322196006775,-0.11105780303478241,0.9732186794281006,-1.2696133852005005,-6.277650356292725,-1.8456056118011475,1.8633302450180054,3.8844900131225586,0.25946950912475586,0.28080126643180847,1.1878947019577026,2.1824352741241455
71,39353,39349,0.010787736624479294,-0.052015647292137146,1.0780919790267944,-2.172306776046753,-2.7033674716949463,-1.446426510810852,1.863926649093628,3.8835437297821045,0.25678548216819763,0.2949572205543518,1.1431193351745605,2.152834415435791
72,39363,39359,0.011206190101802349,0.09989048540592194,1.0467618703842163,-5.110634803771973,-11.621549606323242,-1.4572296142578125,1.864185094833374,3.883089065551758,0.2566136419773102,0.39199572801589966,1.1622052192687988,2.141801595687866
73,39373,39369,0.000538848340511322,-0.06196729466319084,1.002315878868103,-8.24853801727295,-15.25798511505127,-0.9702800512313843,1.8668835163116455,3.8817131519317627,0.2563599646091461,0.23799972236156464,1.2903876304626465,2.061964273452759
74,39383,39379,-0.0025229197926819324,0.08271834254264832,1.085106372833252,-11.98225212097168,-9.579081535339355,-1.3611750602722168,1.8654255867004395,3.8815622329711914,0.2534906268119812,0.538676381111145,1.1935993432998657,2.088648557662964
75,39393,39389,-0.12484871596097946,0.08314188569784164,1.1299225091934204,-13.42078971862793,-8.263381004333496,0.4541660249233246,1.865201473236084,3.8822708129882812,0.25341615080833435,0.6858389377593994,0.9612703323364258,2.0931954383850098
76,39403,39399,-0.06683910638093948,0.11830032616853714,1.108138918876648,-13.683808326721191,-10.015363693237305,0.08355796337127686,1.8645397424697876,3.882009744644165,0.25334587693214417,0.7920814752578735,0.78708416223526,2.0955650806427
77,39413,39409,-0.016115866601467133,0.10655781626701355,1.0719863176345825,-11.786741256713867,-4.580556869506836,-1.2564677000045776,1.8652223348617554,3.882558584213257,0.2532571256160736,0.7972492575645447,0.6108711957931519,2.082141876220703
78,39423,39419,-0.10431807488203049,-0.10270443558692932,1.0401676893234253,-9.212023735046387,-0.7242518067359924,-1.1247615814208984,1.8647180795669556,3.8795053958892822,0.25344622135162354,0.8865715861320496,0.6987665891647339,2.06465482711792
79,39433,39429,0.06496093422174454,-0.18681441247463226,1.0063564777374268,-5.1692304611206055,8.308838844299316,-1.2121353149414062,1.8647657632827759,3.8799195289611816,0.25370699167251587,0.9219736456871033,0.4873899519443512,2.070896863937378
80,39443,39439,0.08463302999734879,-0.19162262976169586,0.9135634303092957,-4.825063705444336,2.4371955394744873,-1.5546332597732544,1.866551399230957,3.8798131942749023,0.25391238927841187,0.7121893763542175,0.49641337990760803,2.020568370819092
81,39453,39449,0.02904694154858589,-0.08994539827108383,0.9907109141349792,-5.761896133422852,-1.9827231168746948,-0.48078444600105286,1.8670732975006104,3.8787410259246826,0.255119651556015,0.7306050062179565,0.512968122959137,2.0079288482666016
82,39463,39459,-0.0005071243504062295,-0.004426700063049793,1.046140432357788,-7.678088188171387,-2.2049355506896973,-0.22239169478416443,1.86653470993042,3.87917160987854,0.25537848472595215,0.8124309182167053,0.3565041422843933,2.0227296352386475
83,39473,39469,-0.02309301495552063,0.025508645921945572,1.1439663171768188,-8.395038604736328,-11.9249849319458,0.5834881067276001,1.8666328191757202,3.878406047821045,0.2555621564388275,0.9158599376678467,0.343853622674942,2.0214521884918213
84,39483,39479,-0.008025753311812878,0.1128494143486023,1.1006017923355103,-8.271631240844727,-10.759055137634277,0.4191149175167084,1.867045283317566,3.8769657611846924,0.2549649775028229,0.9509546160697937,0.30407750606536865,2.010615587234497
85,39493,39489,-0.017578868195414543,0.11501435190439224,1.0317201614379883,-9.224464416503906,-4.9752607345581055,0.05547608807682991,1.8660597801208496,3.8783316612243652,0.25531038641929626,1.2077840566635132,0.1652219593524933,2.019634485244751
86,39503,39499,-0.0829729437828064,-0.03154699131846428,1.04063880443573,-11.593402862548828,-2.039299726486206,0.07884351909160614,1.8660153150558472,3.8789377212524414,0.25577083230018616,1.2519240379333496,0.11418969929218292,2.0311386585235596
87,39513,39509,-0.0017228641081601381,-0.19219516217708588,0.9674376249313354,-9.235108375549316,5.992739677429199,0.3903042674064636,1.8669029474258423,3.8804893493652344,0.2566322982311249,1.1332497596740723,-0.12468434870243073,2.042144536972046
88,39523,39519,0.07401513308286667,-0.22537048161029816,0.8638760447502136,-7.29171895980835,8.278736114501953,-0.6216840744018555,1.8677061796188354,3.8800580501556396,0.2571135461330414,1.0677112340927124,-0.10228041559457779,2.0204949378967285
89,39533,39529,0.01560302171856165,-0.07753270864486694,0.9612840414047241,-5.714182376861572,8.140681266784668,-0.20966120064258575,1.8683339357376099,3.8800606727600098,0.2575073540210724,0.8785334825515747,-0.21914143860340118,2.01619553565979
90,39543,39539,0.007790576666593552,0.021351458504796028,1.0368069410324097,-5.162703037261963,3.2567243576049805,0.827790379524231,1.8675241470336914,3.87970232963562,0.2578343152999878,0.9330596327781677,-0.14367473125457764,1.9961141347885132
91,39553,39549,-0.04567528888583183,-0.1133635938167572,1.0459681749343872,-4.4899702072143555,9.092353820800781,-0.8437334895133972,1.8670985698699951,3.8800761699676514,0.25893673300743103,0.8881775140762329,-0.3009597957134247,2.018921136856079
92,39563,39559,0.013498515821993351,0.07501272112131119,1.0307964086532593,-5.193836688995361,1.2145565748214722,-0.48503944277763367,1.8684459924697876,3.8809139728546143,0.2593190371990204,0.742353618144989,-0.36160704493522644,2.017789840698242
93,39573,39569,-0.07140307128429413,0.15125080943107605,1.10004460811615,-5.423701763153076,-10.444097518920898,-0.8593235611915588,1.8682717084884644,3.878810405731201,0.25973448157310486,0.7652173638343811,-0.3475656807422638,2.0038485527038574
94,39583,39579,-0.037639982998371124,0.16390365362167358,1.1311932802200317,-3.6821353435516357,-3.9604861736297607,-0.07481538504362106,1.8676505088806152,3.8790900707244873,0.2620905935764313,0.9050525426864624,-0.4930391013622284,2.0106828212738037
95,39593,39589,-0.005547510460019112,-0.045481447130441666,1.0096282958984375,-2.7758376598358154,0.14410987496376038,1.069283366203308,1.8675775527954102,3.877011299133301,0.2628926932811737,0.9134259223937988,-0.30067458748817444,1.9750839471817017
96,39603,39599,-0.02414034493267536,0.10223900526762009,1.0622410774230957,-4.219487190246582,9.594694137573242,1.338424801826477,1.8671460151672363,3.8771843910217285,0.2637496292591095,0.9151777625083923,-0.4218956530094147,1.9915906190872192
97,39613,39609,-0.03199218958616257,0.14079566299915314,1.0782452821731567,-3.9234066009521484,14.21513843536377,0.059871856123209,1.8671876192092896,3.87894344329834,0.26664820313453674,0.7489222884178162,-0.5530151128768921,2.0218827724456787
98,39623,39619,-0.07630482316017151,0.09048664569854736,1.1155611276626587,-5.082371711730957,27.47858428955078,-0.1453608274459839,1.8668267726898193,3.8775522708892822,0.2677978575229645,0.6064400672912598,-0.6018589735031128,2.0193123817443848
99,39633,39629,0.004673680290579796,-0.08698803186416626,0.9875234365463257,-5.237728595733643,29.278873443603516,0.42496371269226074,1.8670600652694702,3.8780078887939453,0.26893818378448486,0.3112978935241699,-0.6553245186805725,2.016982078552246
100,39643,39639,-0.01321080606430769,-0.16939273476600647,0.8854975700378418,-3.514055013656616,22.474918365478516,1.5822700262069702,1.8665457963943481,3.8754515647888184,0.26835891604423523,0.057320430874824524,-0.6440221667289734,2.00291109085083
101,39653,39649,0.04113810509443283,-0.17338226735591888,0.9175863862037659,-2.6269044876098633,19.8856201171875,0.8065497875213623,1.8668509721755981,3.8750498294830322,0.26931995153427124,-0.2732507586479187,-0.7574194073677063,2.0215463638305664
102,39663,39659,0.003130127675831318,-0.1279761791229248,0.9020777940750122,-3.0655953884124756,15.958114624023438,0.7126136422157288,1.8655778169631958,3.8740220069885254,0.27033352851867676,-0.33163216710090637,-0.7091131210327148,2.005201578140259
103,39673,39669,-0.00035226476029492915,0.028377985581755638,1.0277981758117676,-2.0804636478424072,10.567790031433105,0.3702397644519806,1.8662047386169434,3.874164581298828,0.27116283774375916,-0.5403051972389221,-0.8099155426025391,2.0170509815216064
104,39683,39679,0.10715099424123764,-0.05247102305293083,0.9274833798408508,0.3948855996131897,6.797598361968994,-0.41131648421287537,1.866707444190979,3.8745994567871094,0.2697201073169708,-0.7285659313201904,-0.8907294273376465,2.0291123390197754
105,39693,39689,0.03829559311270714,-0.1032179668545723,0.9830919504165649,1.1254863739013672,7.778450012207031,-0.7826473712921143,1.8657445907592773,3.8733389377593994,0.270382285118103,-0.7708179950714111,-0.786027729511261,2.0233054161071777
106,39703,39699,0.08966489881277084,-0.16421888768672943,0.9689137935638428,3.594653844833374,6.892496109008789,-0.33322417736053467,1.8651938438415527,3.8726961612701416,0.2710357904434204,-0.7307277917861938,-0.7459208369255066,2.006819009780884
107,39713,39709,0.09810952097177505,-0.1978350579738617,0.9189155101776123,3.196892499923706,9.272342681884766,0.36064040660858154,1.8650497198104858,3.8733935356140137,0.27323952317237854,-0.8227970600128174,-0.7429724931716919,2.0099098682403564
108,39723,39719,0.20129506289958954,-0.2340535968542099,0.8111394643783569,2.7918708324432373,10.37571907043457,-0.16827619075775146,1.8657777309417725,3.873117446899414,0.2737610638141632,-0.9269179701805115,-0.736912190914154,2.0182931423187256
109,39733,39729,0.1275681108236313,-0.1483483612537384,0.903806209564209,0.15416693687438965,4.107628345489502,-1.32266104221344,1.8658643960952759,3.8731565475463867,0.27416107058525085,-1.0346014499664307,-0.7318370938301086,2.023923397064209
110,39743,39739,0.08875063061714172,-0.13856755197048187,0.8991755843162537,-0.49503403902053833,6.562233924865723,-1.3013763427734375,1.8662580251693726,3.8730297088623047,0.2753062844276428,-1.0868322849273682,-0.7640226483345032,2.0146498680114746
111,39753,39749,0.0030743819661438465,-0.003753814147785306,0.9742615818977356,-1.0558140277862549,5.026905536651611,-0.7675376534461975,1.8666958808898926,3.8733479976654053,0.2755495309829712,-1.1579995155334473,-0.8043254017829895,2.003549337387085
112,39763,39759,0.011938938871026039,0.016266779974102974,1.0020110607147217,-0.7300106287002563,9.83207893371582,-1.4361237287521362,1.867043375968933,3.8751065731048584,0.27571937441825867,-1.224134087562561,-0.769103467464447,2.001068592071533
113,39773,39769,0.02387884259223938,-0.13044676184654236,0.9851074814796448,-0.6071522235870361,8.59504508972168,-1.0848052501678467,1.8673231601715088,3.8738832473754883,0.2758539915084839,-1.3262062072753906,-0.8097208142280579,1.988339900970459
114,39783,39779,0.14373144507408142,-0.18950380384922028,0.9041603207588196,2.460386276245117,1.2257176637649536,-0.7981894612312317,1.8682748079299927,3.8753535747528076,0.27857357263565063,-1.420566439628601,-0.8421013355255127,1.9765876531600952
115,39793,39789,0.08162687718868256,-0.02401111274957657,1.0115481615066528,4.289447784423828,-1.7589037418365479,-0.5945529937744141,1.8694730997085571,3.876833200454712,0.2788783609867096,-1.414741039276123,-0.7475065588951111,1.9744609594345093
116,39803,39799,-0.029224976897239685,-0.009060653857886791,1.0679455995559692,5.517639636993408,-2.8971009254455566,-0.30968132615089417,1.8698354959487915,3.8755359649658203,0.2790684103965759,-1.4088904857635498,-0.7055559158325195,1.9710623025894165
117,39813,39809,0.037696052342653275,-0.07154293358325958,0.9473990797996521,4.890689849853516,-5.618350982666016,-0.20678111910820007,1.8710198402404785,3.8774657249450684,0.2813207507133484,-1.4626092910766602,-0.7206107974052429,1.9686235189437866
118,39823,39819,-0.0013119454961270094,-0.04067232087254524,0.9516353011131287,5.011862754821777,-2.6300764083862305,-1.424020767211914,1.8699417114257812,3.877464771270752,0.2817980647087097,-1.2994669675827026,-0.6435060501098633,1.9536246061325073
119,39833,39829,0.019228508695960045,-0.05200720578432083,0.9625408053398132,4.432262420654297,-0.5220896601676941,-0.8788507580757141,1.8700679540634155,3.8773398399353027,0.2821711301803589,-1.26887845993042,-0.5723424553871155,1.9492779970169067
120,39843,39839,-0.016589613631367683,0.016842665150761604,1.0336723327636719,2.425372362136841,-1.2530113458633423,0.07778672128915787,1.8703770637512207,3.880439519882202,0.2837805449962616,-1.190717101097107,-0.5904039144515991,1.9217636585235596
121,39853,39849,-0.15558747947216034,0.1308603733778,1.0923699140548706,2.6777536869049072,-0.7576366662979126,-0.7138650417327881,1.869982361793518,3.8803253173828125,0.28427448868751526,-1.110763430595398,-0.5516725778579712,1.9134846925735474
122,39863,39859,-0.039170440286397934,0.05712978541851044,0.9997894167900085,0.5342723727226257,2.207082748413086,-0.33374935388565063,1.869541883468628,3.8809902667999268,0.284839391708374,-1.0571157932281494,-0.5944495797157288,1.8880695104599
123,39873,39869,-0.11371797323226929,0.27301687002182007,1.073512077331543,4.0441484451293945,3.4911396503448486,-0.09434884786605835,1.869356632232666,3.880039930343628,0.2876022160053253,-1.0553478002548218,-0.5779128670692444,1.88103187084198
124,39883,39879,0.04735992103815079,0.12309809774160385,0.9009295105934143,4.998416423797607,1.3288711309432983,1.1576403379440308,1.871443748474121,3.8819353580474854,0.28822848200798035,-1.3162291049957275,-0.7322851419448853,1.8650317192077637
125,39893,39889,-0.017627697438001633,0.02175101637840271,1.009333610534668,6.562222480773926,4.633948802947998,0.3310370445251465,1.8709971904754639,3.8827261924743652,0.28908681869506836,-1.2164406776428223,-0.5445261597633362,1.8823754787445068
126,39903,39899,-0.030236585065722466,-0.09216095507144928,0.9177666902542114,9.39415454864502,-1.7013788223266602,1.1919772624969482,1.871878981590271,3.8834517002105713,0.2897462546825409,-1.3199586868286133,-0.4978385269641876,1.8884174823760986
127,39913,39909,-0.005332369823008776,0.10027283430099487,0.9548736810684204,9.337333679199219,-5.917947292327881,0.6783302426338196,1.8731107711791992,3.884786367416382,0.2903517782688141,-1.4030970335006714,-0.3235868215560913,1.921509861946106
128,39923,39919,-0.10633334517478943,0.06504026055335999,0.996839702129364,8.683687210083008,0.749927818775177,-1.2420616149902344,1.872422456741333,3.88653564453125,0.2910725176334381,-1.202536702156067,-0.1575164645910263,1.9253813028335571
129,39933,39929,-0.12538175284862518,0.27863091230392456,1.1084870100021362,5.584550857543945,-0.6540806293487549,-1.3798178434371948,1.8735183477401733,3.8875060081481934,0.29162678122520447,-1.238234043121338,-0.09391745179891586,1.9108985662460327
130,39943,39939,-0.013082773424685001,0.08301718533039093,1.003689169883728,3.6249096393585205,0.8201568126678467,-1.316557765007019,1.873077154159546,3.8860418796539307,0.29216375946998596,-1.1671510934829712,0.010754585266113281,1.8999271392822266
131,39953,39949,0.018536681309342384,-0.08226870000362396,0.9018492102622986,-0.08306847512722015,-4.119454860687256,-0.40062618255615234,1.8718732595443726,3.8848555088043213,0.2928824722766876,-1.0373027324676514,0.07074104994535446,1.880492091178894
132,39963,39959,-0.011124237440526485,-0.17512907087802887,0.8789064288139343,-4.0601325035095215,-0.6265710592269897,-0.8700327277183533,1.874620795249939,3.8850274085998535,0.293415904045105,-1.2430181503295898,0.065406434237957,1.890350103378296
133,39973,39969,-0.00411097751930356,0.0307527557015419,0.9423822164535522,-4.487951278686523,-1.9323457479476929,-0.4939962327480316,1.8765854835510254,3.8871452808380127,0.2962018847465515,-1.3787084817886353,0.003718265797942877,1.8864977359771729
134,39983,39979,-0.07166200876235962,0.39309853315353394,1.0619759559631348,-3.552199602127075,-0.49941790103912354,-0.9162274599075317,1.8779006004333496,3.886791467666626,0.2967226207256317,-1.4123814105987549,0.08246941864490509,1.9101738929748535
135,39993,39989,-0.11048468947410583,0.40001171827316284,1.0091660022735596,-2.8227486610412598,-4.60707426071167,-1.224541425704956,1.8783236742019653,3.8869242668151855,0.2972821295261383,-1.4739069938659668,-0.0713406503200531,1.8772616386413574
136,40003,39999,0.006881768349558115,0.31207215785980225,0.9266271591186523,1.2795524597167969,-11.907394409179688,-1.1855897903442383,1.8777488470077515,3.88803768157959,0.2981632351875305,-1.2940489053726196,-0.19148340821266174,1.8443430662155151
137,40013,40009,0.0001741133164614439,-0.07872102409601212,0.9201282262802124,2.880715847015381,-11.421714782714844,-1.4852837324142456,1.8776863813400269,3.8883352279663086,0.29983580112457275,-1.1133041381835938,-0.16654914617538452,1.8342403173446655
138,40023,40019,0.011136176995933056,-0.1283988505601883,0.8978488445281982,6.069173812866211,-13.22912311553955,-0.3425661027431488,1.8777520656585693,3.8882768154144287,0.30053529143333435,-0.9271247982978821,-0.1101551353931427,1.82383131980896
139,40033,40029,0.015620162710547447,-0.12763218581676483,0.9266291260719299,8.25166130065918,-12.949727058410645,-0.6124991774559021,1.8807299137115479,3.8885409832000732,0.30098968744277954,-1.0253818035125732,-0.010025552473962307,1.8283700942993164
140,40043,40039,0.008268924430012703,-0.177182137966156,0.8613030314445496,7.445163249969482,-8.520892143249512,-1.056318998336792,1.8813835382461548,3.8873016834259033,0.30248573422431946,-0.8805410265922546,0.12304406613111496,1.8257207870483398
141,40053,40049,0.010005098767578602,-0.025718312710523605,0.8899060487747192,5.114069938659668,-1.7809444665908813,-1.5127822160720825,1.8815361261367798,3.887242317199707,0.3029215633869171,-0.7948113083839417,0.16660897433757782,1.8100779056549072
142,40063,40059,-0.04039911553263664,0.6287940740585327,1.0169146060943604,2.562774181365967,-5.987190246582031,-1.3097960948944092,1.8823044300079346,3.8889353275299072,0.30323633551597595,-0.7909451723098755,0.10712354630231857,1.7776226997375488
143,40073,40069,0.009674947708845139,0.14895926415920258,0.9226292967796326,0.618598222732544,-7.521233558654785,0.07259276509284973,1.8813575506210327,3.8882458209991455,0.30407240986824036,-0.693315863609314,0.16508027911186218,1.7681446075439453
144,40083,40079,-0.07810626178979874,0.05688962712883949,1.0301225185394287,-0.31770098209381104,-3.122797966003418,-0.6289181709289551,1.882280945777893,3.8884928226470947,0.30435603857040405,-0.6304183602333069,0.1893615871667862,1.7669774293899536
145,40093,40089,-0.030839167535305023,-0.10570180416107178,0.8774079084396362,-1.3951241970062256,-1.9526150226593018,-0.7202788591384888,1.8825066089630127,3.8906121253967285,0.3046554923057556,-0.539635419845581,0.039834313094615936,1.743219017982483
146,40103,40099,0.0006134896539151669,0.29561641812324524,0.9614960551261902,-2.5175304412841797,-2.2374017238616943,-0.2902195453643799,1.8852394819259644,3.890408992767334,0.30475708842277527,-0.7169643640518188,0.10793077200651169,1.7412793636322021
147,40113,40109,-0.0504952110350132,0.22829154133796692,0.925117015838623,-2.3205647468566895,-3.0532615184783936,-0.43226519227027893,1.8844265937805176,3.8901443481445312,0.3043972849845886,-0.5714125037193298,0.07529661059379578,1.737806797027588
148,40123,40119,-0.13359133899211884,0.21811048686504364,0.9434660077095032,-2.607125759124756,-4.044483661651611,-1.210641622543335,1.8847503662109375,3.890205144882202,0.3044438362121582,-0.5625450015068054,0.04996386915445328,1.7272822856903076
149,40133,40129,-0.16389670968055725,0.1945827752351761,1.0803017616271973,1.7803086042404175,-3.590846300125122,-1.2832213640213013,1.887213945388794,3.890401840209961,0.30433061718940735,-0.6797568798065186,0.026217009872198105,1.713327169418335
150,40143,40139,-0.024157295003533363,0.14430555701255798,0.9304874539375305,4.359955310821533,-4.597128868103027,-1.193659782409668,1.886801838874817,3.8907535076141357,0.3033898174762726,-0.47887349128723145,0.06610370427370071,1.708310842514038
151,40153,40149,-0.10344693809747696,0.14939308166503906,1.051814317703247,6.5956130027771,-5.368559837341309,-0.758186399936676,1.88798987865448,3.8910813331604004,0.30341923236846924,-0.4433087408542633,0.14842016994953156,1.708678960800171
152,40163,40159,-0.08744817972183228,0.01451786421239376,1.0321757793426514,7.464344501495361,-7.050317287445068,-0.41008874773979187,1.8882572650909424,3.891805648803711,0.3035345673561096,-0.3060622215270996,0.26623812317848206,1.7077933549880981
153,40173,40169,-0.07225491851568222,0.11020825803279877,1.0265215635299683,3.8180973529815674,-2.659111976623535,-0.7249104976654053,1.890673279762268,3.891418933868408,0.3065023422241211,-0.38744989037513733,0.3140296936035156,1.6923530101776123
154,40183,40179,-0.1929883360862732,0.3496754765510559,1.1279579401016235,2.8577380180358887,-10.089863777160645,-0.7692152261734009,1.8911094665527344,3.8926093578338623,0.3069019317626953,-0.2714642584323883,0.23981665074825287,1.680281400680542
155,40193,40189,0.09469536691904068,-0.023071473464369774,0.91034996509552,-0.8085635900497437,-12.679973602294922,-1.1423019170761108,1.892539143562317,3.89133882522583,0.30724626779556274,-0.25889408588409424,0.31119781732559204,1.6641056537628174
156,40203,40199,-0.06850164383649826,0.282426118850708,1.052018165588379,-0.39210546016693115,-10.138059616088867,-0.7701308131217957,1.8938651084899902,3.89237642288208,0.30855169892311096,-0.10536567121744156,0.3234727084636688,1.678168535232544
157,40213,40209,-0.09979850053787231,0.5587573647499084,1.093281865119934,-1.4377433061599731,-4.531783580780029,-0.8957350850105286,1.895316481590271,3.8947412967681885,0.3089725077152252,-0.06341588497161865,0.24474242329597473,1.6716117858886719
158,40223,40219,-0.02606120891869068,0.2721143066883087,1.0815620422363281,-0.8916350603103638,-3.569485664367676,-1.2228437662124634,1.896127700805664,3.8938159942626953,0.3095126152038574,0.011154819279909134,0.2415982335805893,1.6558949947357178
159,40233,40229,0.00012004528980469331,-0.13467279076576233,0.915840208530426,-1.1471835374832153,-1.852800965309143,-0.8239536285400391,1.896615743637085,3.8945491313934326,0.3101840615272522,0.12591952085494995,0.16090837121009827,1.6447021961212158
160,40243,40239,-0.08978921175003052,0.05229958891868591,1.001883625984192,0.9823205471038818,-3.4225656986236572,-0.5565099716186523,1.8985267877578735,3.894509792327881,0.31388694047927856,0.12088820338249207,0.15652838349342346,1.6327757835388184
161,40253,40249,0.007911686785519123,0.040046095848083496,0.9454667568206787,4.624396800994873,0.19406776130199432,-0.44555002450942993,1.9007352590560913,3.8945298194885254,0.31454870104789734,0.04070473834872246,0.19561254978179932,1.6074132919311523
162,40263,40259,-0.013612481765449047,0.15853425860404968,1.0220955610275269,6.245418071746826,1.6547940969467163,0.2340296059846878,1.9015506505966187,3.893228769302368,0.31529971957206726,0.08265325427055359,0.2892611622810364,1.6028753519058228
163,40273,40269,-0.04583035409450531,0.14885494112968445,0.9563745260238647,5.867741584777832,0.9507141709327698,1.1620248556137085,1.9037610292434692,3.8951518535614014,0.3160000443458557,0.016797039657831192,0.3261861503124237,1.6323587894439697
164,40283,40279,-0.031039150431752205,-0.0003723539412021637,0.9575823545455933,1.4896138906478882,2.4174129962921143,1.7842296361923218,1.9037728309631348,3.895409107208252,0.31669363379478455,0.07669107615947723,0.41571152210235596,1.6452605724334717
165,40293,40289,-0.0037848646752536297,0.0931461900472641,0.9100517630577087,-2.7407565116882324,0.7210037708282471,2.0180771350860596,1.9051276445388794,3.8952243328094482,0.31720685958862305,-0.038150593638420105,0.4343854784965515,1.6540608406066895
166,40303,40299,0.006627790629863739,0.4715854525566101,0.8897838592529297,-1.1828478574752808,-3.017972469329834,3.35772967338562,1.9065972566604614,3.895010232925415,0.31540849804878235,-0.1092221587896347,0.39569801092147827,1.6575700044631958
167,40313,40309,0.23508353531360626,-0.0581374391913414,0.7503706216812134,-3.7548930644989014,-5.1114888191223145,2.2600131034851074,1.9066358804702759,3.8947246074676514,0.3157203793525696,-0.03431110456585884,0.37238505482673645,1.7001005411148071
168,40323,40319,0.14038099348545074,-0.02770361490547657,0.9516363143920898,-5.6011199951171875,-8.450818061828613,2.9666950702667236,1.908759593963623,3.8952527046203613,0.315733939409256,-0.07176295667886734,0.3102470934391022,1.7163091897964478
169,40333,40329,-0.02210172452032566,-0.007556731812655926,0.9709907174110413,-3.780020236968994,-7.805232524871826,3.198232412338257,1.909406065940857,3.8956058025360107,0.3157466650009155,0.042043134570121765,0.22471000254154205,1.7474792003631592
170,40343,40339,-0.017237139865756035,0.44497090578079224,0.9932887554168701,-0.25227779150009155,-8.980772018432617,3.887976884841919,1.9095302820205688,3.8959012031555176,0.3161371350288391,0.18022021651268005,0.1742882877588272,1.7896511554718018
171,40353,40349,0.007419487927109003,0.22462597489356995,0.871545135974884,2.9793989658355713,-9.243000984191895,4.486914157867432,1.9104591608047485,3.89589786529541,0.31609970331192017,0.2906529903411865,0.19141371548175812,1.8178620338439941
172,40363,40359,0.0172523595392704,-0.04285692051053047,0.8104141354560852,2.59287166595459,-3.5917623043060303,4.0478434562683105,1.9106465578079224,3.8953559398651123,0.31596264243125916,0.42536661028862,0.2612401247024536,1.8800660371780396
173,40373,40369,-0.07013850659132004,0.34378358721733093,1.0402960777282715,0.35594257712364197,2.671821355819702,4.82484245300293,1.9127219915390015,3.8965208530426025,0.3157200217247009,0.4389680027961731,0.29544275999069214,1.9407914876937866
174,40383,40379,-0.04378979653120041,0.20874963700771332,0.9119555354118347,-1.219325304031372,4.842891693115234,4.300930976867676,1.9138011932373047,3.8973398208618164,0.3154260218143463,0.4631614089012146,0.31402817368507385,1.9891971349716187
175,40393,40389,0.09608720988035202,-0.1496095508337021,0.8271113634109497,-6.509925842285156,5.2171783447265625,3.7455155849456787,1.9146292209625244,3.8973302841186523,0.31504228711128235,0.44589799642562866,0.2037358283996582,2.0267512798309326
176,40403,40399,-0.016412794589996338,0.010313844308257103,1.0096368789672852,-9.096531867980957,4.162118434906006,3.964850902557373,1.9146664142608643,3.8976588249206543,0.3145715594291687,0.47598081827163696,0.09850005805492401,2.0723249912261963
177,40413,40409,-0.007323121186345816,-0.07865796238183975,0.9151623845100403,-10.224934577941895,3.8148255348205566,3.099890947341919,1.9150367975234985,3.8986871242523193,0.31407612562179565,0.5163277387619019,-0.04091228172183037,2.126081705093384
178,40423,40419,-0.027588261291384697,0.01855475828051567,1.0232104063034058,-8.285508155822754,6.454375267028809,1.7653888463974,1.9167609214782715,3.8990325927734375,0.3134780526161194,0.41130897402763367,-0.11220213770866394,2.1654465198516846
179,40433,40429,0.012148327194154263,-0.11704349517822266,0.9317258596420288,-4.183863162994385,6.764802932739258,0.9514649510383606,1.9173482656478882,3.9006595611572266,0.3129231631755829,0.37287911772727966,-0.2243102788925171,2.195896625518799
180,40443,40439,-0.0045141009613871574,-0.048729754984378815,0.9779472947120667,-0.3045727014541626,3.0671820640563965,0.8910344839096069,1.9186052083969116,3.8990464210510254,0.315323144197464,0.2706715166568756,-0.11952212452888489,2.1836249828338623
181,40453,40449,-0.0024733133614063263,0.05722924694418907,0.9891805648803711,6.385293483734131,3.295403480529785,-0.17192745208740234,1.9201802015304565,3.899993658065796,0.31480470299720764,0.1775485873222351,-0.1779271364212036,2.1964664459228516
182,40463,40459,0.029313361272215843,-0.07689058780670166,0.9072892069816589,13.731498718261719,0.02121725305914879,-0.44844213128089905,1.920091986656189,3.899656057357788,0.31442463397979736,0.22804589569568634,-0.030351554974913597,2.203847885131836
183,40473,40469,-0.00548500707373023,-0.03741425275802612,0.9672592878341675,16.871923446655273,-0.5435107350349426,-1.191278338432312,1.9191780090332031,3.8999695777893066,0.31531932950019836,0.3983723223209381,0.13761824369430542,2.2247366905212402
184,40483,40479,-0.012794187292456627,0.011367675848305225,1.008379340171814,13.875374794006348,-1.1272754669189453,-1.1756694316864014,1.9188425540924072,3.9004969596862793,0.3148491084575653,0.47860750555992126,0.3511148691177368,2.2082159519195557
185,40493,40489,0.039107196033000946,-0.061589039862155914,0.9944542646408081,7.425201416015625,-3.3987278938293457,-0.15294721722602844,1.9208476543426514,3.9012234210968018,0.31434786319732666,0.31120648980140686,0.3304744064807892,2.202617883682251
186,40503,40499,-0.050816260278224945,0.12625640630722046,1.0787920951843262,0.8291530609130859,2.8147764205932617,-1.4355413913726807,1.9209010601043701,3.901749849319458,0.31300926208496094,0.3621065318584442,0.4615935981273651,2.1966867446899414
187,40513,40509,-0.04863757640123367,0.2381758689880371,1.0937507152557373,-3.8977303504943848,6.1202802658081055,-3.1732184886932373,1.921555519104004,3.901729106903076,0.3129914700984955,0.278224378824234,0.46350178122520447,2.1757500171661377
188,40523,40519,-0.010061880573630333,0.1396748423576355,1.039641261100769,-7.98604154586792,6.781068801879883,-3.1045188903808594,1.9224536418914795,3.90229868888855,0.3125168979167938,0.15461862087249756,0.3767849802970886,2.150338888168335
189,40533,40529,-0.01728741079568863,-0.03794563561677933,0.9805758595466614,-9.818680763244629,7.637514591217041,-3.5884158611297607,1.9238592386245728,3.903468132019043,0.31204599142074585,0.05336127430200577,0.22495847940444946,2.133664846420288
190,40543,40539,-0.04337874427437782,-0.038662202656269073,1.0209851264953613,-9.282323837280273,4.193915367126465,-3.715965509414673,1.9249508380889893,3.9034523963928223,0.31160080432891846,-0.05206803232431412,0.07267095893621445,2.1001288890838623
191,40553,40549,-0.03978942334651947,0.06026040390133858,1.1354628801345825,-5.222939491271973,-1.479223608970642,-2.123788595199585,1.9247080087661743,3.9039976596832275,0.31128841638565063,0.01822608709335327,0.019254695624113083,2.0624027252197266
192,40563,40559,0.020166711881756783,0.03048591874539852,1.0932353734970093,-0.3131057322025299,-4.844232559204102,-3.153613328933716,1.9245692491531372,3.903635025024414,0.3109292685985565,0.05528240278363228,-0.03631726652383804,2.0376856327056885
193,40573,40569,0.014161618426442146,-0.0483940951526165,1.027165174484253,5.48407506942749,-8.188712120056152,-2.984414577484131,1.9243265390396118,3.9040141105651855,0.3107036352157593,0.24169284105300903,-0.0037365092430263758,1.9887635707855225
194,40583,40579,-0.022203776985406876,-0.1565679907798767,0.9532974362373352,10.832696914672852,-4.091863632202148,-3.5224101543426514,1.9240479469299316,3.9032249450683594,0.3106034994125366,0.3799024522304535,0.12230033427476883,1.9743988513946533
195,40593,40589,-0.005745736416429281,-0.24774733185768127,0.8953127861022949,13.686678886413574,-1.6694297790527344,-1.868080735206604,1.924033284187317,3.90384578704834,0.31065788865089417,0.4312742352485657,0.2507367432117462,1.9627251625061035
196,40603,40599,0.09596136212348938,-0.17513827979564667,0.9710797071456909,13.62037467956543,4.6745171546936035,-0.7192397117614746,1.9258493185043335,3.903606414794922,0.30818459391593933,0.349088191986084,0.49896296858787537,1.9354859590530396
197,40613,40609,0.1516638696193695,-0.3080081045627594,0.9175326228141785,9.527140617370605,8.290261268615723,-0.10872941464185715,1.9277863502502441,3.904500722885132,0.30771544575691223,0.1431254744529724,0.5551583766937256,1.9360519647598267
198,40623,40619,0.20654216408729553,-0.21700794994831085,0.8557471036911011,2.152775526046753,8.691697120666504,-0.11999477446079254,1.9274243116378784,3.9039342403411865,0.30772408843040466,0.07079160213470459,0.7091503143310547,1.9123642444610596
199,40633,40629,0.1062116026878357,-0.0019599481020122766,1.0049383640289307,-6.134437084197998,9.26320743560791,0.6956469416618347,1.9274946451187134,3.904409170150757,0.306831955909729,-0.00326835666783154,0.6381811499595642,1.933505892753601
200,40643,40639,0.06771619617938995,-0.08574848622083664,0.989459216594696,-10.486102104187012,1.9599347114562988,2.319074869155884,1.9267629384994507,3.9034292697906494,0.3062659800052643,0.002134820446372032,0.520111083984375,1.9368078708648682
201,40653,40649,-0.01261765044182539,-0.05105240270495415,0.9971438646316528,-11.199775695800781,0.5550330877304077,2.639439344406128,1.9273451566696167,3.9047389030456543,0.3056337535381317,-0.024019701406359673,0.33944597840309143,1.966220736503601
202,40663,40659,0.03626865893602371,0.13444368541240692,0.9850444197654724,-8.62188720703125,0.4280565083026886,2.418302297592163,1.9292151927947998,3.9034645557403564,0.3048062324523926,-0.2916330397129059,0.3263815939426422,1.9653420448303223
203,40673,40669,0.031120361760258675,0.1009405329823494,1.005017876625061,-6.55182409286499,-1.5923702716827393,2.5518932342529297,1.9293922185897827,3.904362678527832,0.3042052686214447,-0.2285395860671997,0.1856347620487213,1.997076392173767
204,40683,40679,0.008389648981392384,0.23830118775367737,1.0680394172668457,-2.466958999633789,0.1721893697977066,2.8658502101898193,1.928552269935608,3.9039559364318848,0.30364862084388733,-0.10401888936758041,0.09477081149816513,2.0234904289245605
205,40694,40689,-0.10013753175735474,0.21915215253829956,1.165694236755371,3.1317248344421387,5.998922348022461,0.8654426336288452,1.9307737350463867,3.903285026550293,0.3029516041278839,-0.30466902256011963,0.2365587055683136,2.052006721496582
206,40703,40699,-0.039157599210739136,-0.005182839930057526,1.0285229682922363,6.463778972625732,10.039865493774414,-0.2256883978843689,1.9319701194763184,3.9037206172943115,0.3032836616039276,-0.3836101293563843,0.27788403630256653,2.056471347808838
207,40713,40709,0.014369836077094078,-0.04080184921622276,1.0095605850219727,5.810695648193359,8.666543960571289,-0.9014967083930969,1.9314560890197754,3.9039530754089355,0.3030301034450531,-0.37123405933380127,0.37726545333862305,2.0735552310943604
208,40723,40719,-0.021678762510418892,-0.016537794843316078,1.0380369424819946,2.320091724395752,5.578357696533203,-0.7076353430747986,1.9316765069961548,3.904533863067627,0.30279386043548584,-0.3699800372123718,0.35952794551849365,2.070173978805542
209,40733,40729,0.00385430920869112,-0.01788892038166523,0.9746907949447632,-3.5068869590759277,6.072965621948242,-2.631805419921875,1.9315189123153687,3.904379367828369,0.30335623025894165,-0.35219860076904297,0.37682339549064636,2.0682430267333984
210,40743,40739,0.017417659983038902,0.03747229650616646,1.049993634223938,-7.1709394454956055,-3.042900800704956,-1.9694931507110596,1.9319173097610474,3.903968095779419,0.3030790388584137,-0.41688302159309387,0.2921861410140991,2.0314502716064453
211,40753,40749,0.08911198377609253,-0.20605796575546265,0.990200936794281,-5.6720499992370605,-9.361583709716797,-0.3694276213645935,1.931396245956421,3.904191017150879,0.3029521703720093,-0.248441681265831,0.17007523775100708,2.0188655853271484
212,40763,40759,0.061784304678440094,-0.3534998893737793,0.946143627166748,-2.99961256980896,-11.401331901550293,-0.23828698694705963,1.9306508302688599,3.902968168258667,0.3027704060077667,-0.1295042186975479,0.1583891659975052,1.9945741891860962
213,40774,40769,0.08323061466217041,0.08883071690797806,1.0416898727416992,2.516557455062866,-12.309414863586426,0.38679301738739014,1.931838035583496,3.903184413909912,0.30305373668670654,-0.08148365467786789,0.11750831454992294,1.9650369882583618
214,40783,40779,0.061821840703487396,-0.13024714589118958,0.8986219763755798,7.220860004425049,-8.234097480773926,0.25585246086120605,1.932260513305664,3.9019358158111572,0.30287274718284607,0.05882388725876808,0.17377842962741852,1.9728844165802002
215,40793,40789,-0.015650201588869095,-0.0010496432660147548,1.0457428693771362,10.974523544311523,-2.5751895904541016,1.2602206468582153,1.9320403337478638,3.9010567665100098,0.30266278982162476,0.16563120484352112,0.29872602224349976,1.937514066696167
216,40803,40799,-0.09367717057466507,-0.010112433694303036,1.0643372535705566,11.43680191040039,2.148315906524658,2.242732048034668,1.9328784942626953,3.8999781608581543,0.30399301648139954,0.17256760597229004,0.47176557779312134,1.9588603973388672
217,40813,40809,0.0007061054348014295,0.14779877662658691,1.0885268449783325,8.643481254577637,3.4645814895629883,3.6441118717193604,1.9328782558441162,3.8998918533325195,0.30390530824661255,0.17360921204090118,0.5488810539245605,1.982995867729187
218,40823,40819,-0.04905971884727478,0.2849816381931305,1.1107150316238403,1.8230078220367432,4.731994152069092,2.837829113006592,1.934657335281372,3.9014532566070557,0.303895503282547,0.008872604928910732,0.49302640557289124,2.029418706893921
219,40833,40829,-0.033489130437374115,0.09477832168340683,1.0465840101242065,-3.4226839542388916,10.424283981323242,3.646878957748413,1.934645652770996,3.902031183242798,0.30400246381759644,0.01197702158242464,0.43377652764320374,2.05647349357605
220,40843,40839,0.04062870144844055,0.0536876879632473,1.0714459419250488,-4.476902484893799,6.946067810058594,6.220133304595947,1.9354513883590698,3.9023709297180176,0.3041854500770569,-0.08113386482000351,0.3648372292518616,2.1325528621673584
221,40853,40849,-0.02596575953066349,0.20614060759544373,1.161238670349121,-5.423543453216553,5.546834468841553,5.821544170379639,1.9357194900512695,3.903653860092163,0.3044191002845764,-0.15595410764217377,0.27596011757850647,2.201317310333252
222,40863,40859,-0.09472060203552246,0.008238042704761028,1.0689117908477783,-3.8767731189727783,2.54106068611145,5.523964881896973,1.93489408493042,3.901684522628784,0.30648431181907654,-0.1633763164281845,0.2803840637207031,2.2359724044799805
223,40873,40869,-0.03562014922499657,0.2854926884174347,1.0714876651763916,1.4368160963058472,5.389376640319824,5.910111904144287,1.9353464841842651,3.90234112739563,0.3070290982723236,-0.22789250314235687,0.234067901968956,2.284694194793701
224,40883,40879,0.0002441758115310222,0.2844729423522949,1.1114940643310547,4.759986400604248,6.599813938140869,6.374902248382568,1.936661958694458,3.901653528213501,0.3075886368751526,-0.441912442445755,0.3320727050304413,2.3503286838531494
225,40893,40889,-0.024843724444508553,0.2779351770877838,1.1812970638275146,6.3674798011779785,2.8516383171081543,6.548585891723633,1.9381638765335083,3.902559757232666,0.3084067702293396,-0.462595671415329,0.41429904103279114,2.4812793731689453
226,40903,40899,0.008609140291810036,0.03511158376932144,1.0313524007797241,4.253393650054932,-1.9946802854537964,6.816948413848877,1.9382286071777344,3.9045004844665527,0.30892419815063477,-0.39609506726264954,0.4284273684024811,2.568676710128784
227,40913,40909,-0.05721306800842285,-0.056114766746759415,0.915395200252533,-1.6705254316329956,-5.221682548522949,6.213101387023926,1.938110589981079,3.9041249752044678,0.3099615275859833,-0.2659875750541687,0.46341294050216675,2.63262939453125
228,40923,40919,0.13850975036621094,0.5057274103164673,0.9236282110214233,-6.446070671081543,-6.86727237701416,6.730412483215332,1.9384886026382446,3.904310941696167,0.3109930157661438,-0.22395794093608856,0.3928642272949219,2.6977875232696533
229,40933,40929,0.1800873726606369,0.6227368116378784,0.8153393268585205,-10.390690803527832,-4.678790092468262,7.310591697692871,1.9391391277313232,3.9042141437530518,0.3095858097076416,-0.15789464116096497,0.352865070104599,2.7731258869171143
230,40943,40939,0.010662279091775417,0.35521528124809265,0.9369974136352539,-9.713912963867188,0.7149257063865662,7.18761682510376,1.9400230646133423,3.9040746688842773,0.31027233600616455,-0.14300872385501862,0.3393966853618622,2.8403356075286865
231,40953,40949,0.0683477520942688,-0.05358226224780083,0.8382171988487244,-6.691189765930176,8.73612117767334,6.291059494018555,1.9395772218704224,3.9047508239746094,0.31087827682495117,-0.10420539230108261,0.18044757843017578,2.9599416255950928
232,40963,40959,-0.20434202253818512,0.16286055743694305,1.006402850151062,-2.001840114593506,10.736648559570312,5.7930426597595215,1.9403700828552246,3.9053444862365723,0.31257492303848267,-0.19815073907375336,0.062292229384183884,3.027338743209839
233,40973,40969,-0.11210823059082031,0.8526465892791748,1.059199571609497,1.5942307710647583,11.174922943115234,5.057033061981201,1.940238118171692,3.9050588607788086,0.31307342648506165,-0.3042353093624115,0.16774199903011322,3.097444534301758
234,40983,40979,-0.037855878472328186,1.0773911476135254,0.9622101783752441,-0.7575111985206604,10.502626419067383,4.073101043701172,1.940661072731018,3.904268264770508,0.3135744631290436,-0.4283798933029175,0.24546681344509125,3.1590194702148438
235,40993,40989,-0.12016914039850235,0.6669263243675232,1.0171555280685425,-0.40622320771217346,3.3655848503112793,4.86283016204834,1.9414584636688232,3.9048430919647217,0.3140868842601776,-0.5267828702926636,0.20809762179851532,3.2521770000457764
236,41003,40999,0.18933238089084625,-0.08107946813106537,0.8087159991264343,-6.1692118644714355,5.0802154541015625,4.511638164520264,1.9420747756958008,3.9069409370422363,0.31441977620124817,-0.5655666589736938,0.14019449055194855,3.3280999660491943
237,41013,41009,0.10313025861978531,0.7054547667503357,0.8902769684791565,-7.745439052581787,1.979664921760559,3.787330389022827,1.9430040121078491,3.9068305492401123,0.31486499309539795,-0.5872660875320435,0.027695905417203903,3.3674988746643066
238,41023,41019,-0.009975462220609188,1.1761934757232666,0.991182804107666,-7.438868045806885,1.2867586612701416,4.91208553314209,1.9427601099014282,3.907867908477783,0.3151663541793823,-0.5457744002342224,-0.1374281942844391,3.4043331146240234
239,41033,41029,-0.179620623588562,0.6742192506790161,0.9970440864562988,-6.202304840087891,9.285662651062012,5.21907377243042,1.943911075592041,3.908557653427124,0.3141193091869354,-0.765227735042572,-0.2900203764438629,3.452834367752075
240,41043,41039,-0.1475171148777008,0.35775673389434814,0.9072728753089905,1.5275713205337524,1.5151517391204834,5.810988426208496,1.9446691274642944,3.907454490661621,0.3142618238925934,-0.8230152130126953,-0.20161062479019165,3.4862239360809326
