,timestamp_start,timestamp_end,acc.x,acc.y,acc.z,gyro.x,gyro.y,gyro.z,stateEstimate.x,stateEstimate.y,stateEstimate.z,stabilizer.pitch,stabilizer.roll,stabilizer.yaw
0,19487,19485,-0.004885422997176647,0.0015258011408150196,1.099753975868225,22.030424118041992,-4.199056625366211,-1.8518201112747192,2.007324695587158,4.043300151824951,0.16939297318458557,-0.33900314569473267,-0.5887705683708191,1.9421831369400024
1,19497,19495,0.009418072178959846,0.01057612244039774,1.1146047115325928,22.563732147216797,-6.805098056793213,-1.6775271892547607,2.005718231201172,4.040655612945557,0.17049303650856018,-0.35817912220954895,-0.49411556124687195,1.9226202964782715
2,19507,19505,-0.00569274602457881,-0.048850808292627335,1.0438271760940552,18.31963539123535,-1.810365915298462,-1.3314529657363892,2.0040223598480225,4.042995452880859,0.17169587314128876,-0.30490055680274963,-0.2377101331949234,1.9044705629348755
3,19517,19515,0.00010489599662832916,-0.006846458185464144,1.0260684490203857,13.703946113586426,1.8787202835083008,-1.3892213106155396,2.0019657611846924,4.0410685539245605,0.171113520860672,-0.38918936252593994,-0.006949117872864008,1.901279091835022
4,19527,19525,0.018294963985681534,-0.06487782299518585,1.031548023223877,10.031393051147461,-0.8273323774337769,-1.549432635307312,2.001769781112671,4.044810771942139,0.17227281630039215,-0.32660624384880066,-0.0032114244531840086,1.8716065883636475
5,19537,19535,0.00867378618568182,-0.033998340368270874,1.150202751159668,8.130109786987305,-5.48310661315918,-1.2521944046020508,2.000308036804199,4.045688629150391,0.1734575629234314,-0.37200626730918884,0.18989787995815277,1.8677955865859985
6,19547,19545,-0.019625645130872726,0.1364697366952896,1.1568580865859985,6.244091033935547,-2.871887445449829,-1.1000357866287231,2.000915050506592,4.047023773193359,0.17488276958465576,-0.28830617666244507,0.34329673647880554,1.8582258224487305
7,19557,19555,-0.0028501651249825954,0.06991679221391678,1.0703986883163452,5.3824872970581055,-1.1991196870803833,-1.391583800315857,1.9972987174987793,4.043492317199707,0.17601561546325684,-0.40799224376678467,0.3801612854003906,1.8402304649353027
8,19567,19565,0.021317986771464348,-0.10450055450201035,1.078464150428772,5.576467037200928,-1.0591694116592407,-1.6240042448043823,1.996826171875,4.042764663696289,0.17746961116790771,-0.3826407790184021,0.2596217691898346,1.8103210926055908
9,19577,19575,0.020383920520544052,-0.06803577393293381,1.096392035484314,7.1108198165893555,-4.874668598175049,-1.2005366086959839,1.9971461296081543,4.044656753540039,0.17903080582618713,-0.5231651663780212,0.4817263185977936,1.8031638860702515
10,19587,19585,-0.020495451986789703,0.07118265330791473,1.0999386310577393,7.868725776672363,-8.772086143493652,-0.3691200017929077,1.9984972476959229,4.04423189163208,0.1797199845314026,-0.348865807056427,0.6999942064285278,1.8156441450119019
11,19597,19595,0.03127412125468254,-0.03022921085357666,1.1188892126083374,9.128862380981445,-11.386619567871094,-0.9885846376419067,1.9959220886230469,4.041699409484863,0.18164412677288055,-0.14436794817447662,0.9020254611968994,1.8350986242294312
12,19607,19605,0.0404328852891922,-0.029151123017072678,1.0590957403182983,7.150213718414307,-11.57138442993164,-1.74686861038208,1.9959781169891357,4.042553424835205,0.18347306549549103,-0.07810353487730026,0.7890981435775757,1.7969579696655273
13,19617,19615,-0.048687927424907684,0.021271536126732826,0.9564709663391113,2.4801907539367676,-7.5800700187683105,-1.1515847444534302,1.9960954189300537,4.045285224914551,0.1868172287940979,-0.04499838501214981,0.7975635528564453,1.7627981901168823
14,19627,19625,-0.023951344192028046,0.049709271639585495,1.0274633169174194,0.1673831343650818,-11.2556791305542,-0.6454004049301147,1.99634850025177,4.04854154586792,0.1887701153755188,0.006151932291686535,0.8929300904273987,1.7537473440170288
15,19637,19635,0.034742243587970734,-0.01217951625585556,1.130617618560791,0.23549161851406097,-6.618156433105469,-0.22405514121055603,1.9964395761489868,4.050021648406982,0.19081856310367584,0.20215463638305664,0.8839391469955444,1.7654465436935425
16,19647,19645,0.01851150207221508,0.0013967057457193732,1.1820403337478638,0.008498627692461014,-5.281390190124512,-0.19642600417137146,1.9960582256317139,4.052067279815674,0.19300499558448792,0.3352985382080078,0.9442572593688965,1.7770957946777344
17,19657,19655,-0.01599523238837719,-0.04708845540881157,1.0177922248840332,0.785531759262085,1.3333766460418701,-1.1183055639266968,1.995609998703003,4.05189847946167,0.19523735344409943,0.3379298746585846,1.0035252571105957,1.764831304550171
18,19667,19665,0.0023711808025836945,-0.02094731293618679,0.9923375248908997,1.5115995407104492,0.7978036999702454,-0.04389118030667305,1.9943917989730835,4.049402713775635,0.19760045409202576,0.3433269262313843,1.0591130256652832,1.7611467838287354
19,19677,19675,0.0021308932919055223,-0.01758413389325142,1.07533860206604,1.142304539680481,0.8194858431816101,0.2705381214618683,1.9945756196975708,4.0492939949035645,0.19985127449035645,0.3503032326698303,0.9658982157707214,1.761759638786316
20,19687,19685,0.04005519300699234,-0.057715512812137604,1.192672848701477,0.20124651491641998,-0.9289278984069824,-0.3050047755241394,1.9951030015945435,4.050173282623291,0.20411136746406555,0.35798516869544983,1.081290602684021,1.7703778743743896
21,19697,19695,-0.016053110361099243,-0.03858531266450882,1.0817664861679077,-0.6249915957450867,-0.5774096250534058,-0.15863847732543945,1.9948554039001465,4.0492072105407715,0.20672255754470825,0.39170145988464355,1.0301661491394043,1.770497441291809
22,19707,19705,0.004660883452743292,-0.07229582965373993,1.0824884176254272,-0.9994176030158997,-1.6806201934814453,-0.0433015450835228,1.9942835569381714,4.047569274902344,0.2097455859184265,1.497571587562561,0.17580030858516693,1.9944497346878052
23,19717,19715,0.025040190666913986,0.055760566145181656,0.9585840106010437,-1.6403307914733887,-2.0782763957977295,-0.34449881315231323,1.9833976030349731,4.052055835723877,0.21373383700847626,1.3792409896850586,0.29484719038009644,1.9619196653366089
24,19727,19725,0.012709908187389374,0.05757642909884453,0.9917699694633484,1.6080420017242432,3.0488064289093018,-1.442796230316162,1.9823304414749146,4.049975395202637,0.21776193380355835,1.1575069427490234,0.35105660557746887,1.9095094203948975
25,19737,19735,0.028617626056075096,-0.06610605865716934,0.9560897350311279,8.388138771057129,13.877663612365723,-1.195515513420105,1.9813144207000732,4.04646635055542,0.22174498438835144,0.8792782425880432,0.49163874983787537,1.8567198514938354
26,19747,19745,0.02919931896030903,-0.17649805545806885,0.9622304439544678,16.293474197387695,22.08282470703125,-0.33527588844299316,1.982450246810913,4.0474019050598145,0.2234996110200882,0.620978057384491,0.8232524394989014,1.8244117498397827
27,19757,19755,0.001715515973046422,-0.20290116965770721,1.0257327556610107,18.88871192932129,25.496368408203125,-0.03230118751525879,1.9810212850570679,4.045688629150391,0.22661469876766205,0.21369080245494843,0.9738051891326904,1.8030472993850708
28,19767,19765,-0.038789525628089905,-0.15179848670959473,1.056283712387085,16.954097747802734,28.359901428222656,-1.0526230335235596,1.9804714918136597,4.044412136077881,0.229536771774292,-0.28392645716667175,1.274401307106018,1.762943983078003
29,19777,19775,0.046204209327697754,-0.028754569590091705,0.9229835271835327,13.35465145111084,22.06549644470215,-0.9274821281433105,1.9815870523452759,4.042179107666016,0.23233667016029358,-0.4921671748161316,1.5767284631729126,1.761802077293396
30,19787,19785,0.11863186955451965,0.08305823057889938,0.8755312561988831,5.731091022491455,11.063714981079102,-1.3293540477752686,1.9812753200531006,4.04098653793335,0.23279421031475067,-0.8614052534103394,1.7506482601165771,1.7257357835769653
31,19797,19795,0.016791367903351784,-0.020656028762459755,0.870813250541687,-2.7367730140686035,-0.010483289137482643,-0.8465277552604675,1.9826287031173706,4.041368007659912,0.23510082066059113,-0.9157889485359192,1.7699391841888428,1.714597225189209
32,19807,19805,-0.0204050000756979,-0.09217337518930435,0.9146915674209595,-10.012001037597656,-11.304520606994629,-0.4498317241668701,1.9824883937835693,4.0418877601623535,0.23751793801784515,-1.3761415481567383,1.6544150114059448,1.5989482402801514
33,19817,19815,-0.006204433273524046,-0.15903587639331818,0.9051977396011353,-16.103721618652344,-20.749570846557617,-0.03700976073741913,1.987085223197937,4.043750286102295,0.23694591224193573,-0.2713131010532379,1.5133116245269775,1.793058156967163
34,19827,19825,0.009652500972151756,-0.024555526673793793,0.8987120985984802,-17.44870376586914,-25.17155647277832,-0.7808871865272522,1.9779841899871826,4.0410075187683105,0.24181373417377472,0.43335428833961487,1.2461458444595337,1.8852953910827637
35,19837,19835,0.010792216286063194,-0.13026076555252075,0.8682824373245239,-16.15625,-26.094921112060547,-1.5879548788070679,1.9698899984359741,4.036525249481201,0.2433437556028366,0.5366479754447937,0.17895472049713135,1.7929136753082275
36,19847,19845,0.019070344045758247,-0.08624228835105896,0.8996806740760803,-12.479969024658203,-19.958097457885742,-0.7671512961387634,1.9689891338348389,4.043917179107666,0.24725407361984253,0.6654807329177856,0.15596109628677368,1.7595423460006714
37,19857,19855,0.057948820292949677,-0.1454538255929947,0.8951845765113831,-0.4813500642776489,-2.6872916221618652,-0.8462978005409241,1.9694453477859497,4.0449934005737305,0.24994565546512604,0.7418802976608276,0.1929609626531601,1.7439303398132324
38,19867,19865,-0.06016717478632927,-0.06106932461261749,0.9620345234870911,12.425352096557617,11.715227127075195,-0.6296508312225342,1.9686427116394043,4.045956134796143,0.2524770200252533,0.4828512966632843,0.43494758009910583,1.702028751373291
39,19877,19875,-0.06838607043027878,0.02755994349718094,1.002485990524292,21.41037940979004,23.33924674987793,-0.4190370440483093,1.9695255756378174,4.046257972717285,0.25534412264823914,0.11081690341234207,0.8236274719238281,1.6713979244232178
40,19887,19885,-0.03849445655941963,0.052754003554582596,0.9973558783531189,24.767780303955078,29.079587936401367,-0.820160448551178,1.9706385135650635,4.0447564125061035,0.2572537660598755,-0.2953980565071106,1.200937271118164,1.65237557888031
41,19897,19895,-0.0016884932992979884,0.04507621377706528,0.9712782502174377,22.118520736694336,26.83901023864746,-1.174023985862732,1.971754789352417,4.046952247619629,0.25931134819984436,-0.6116371750831604,1.321067214012146,1.6407577991485596
42,19907,19905,-0.025274407118558884,-0.015368590131402016,0.9736406803131104,14.23762035369873,18.002147674560547,-1.4747867584228516,1.9719314575195312,4.049733638763428,0.2614271342754364,-0.8138197660446167,1.6513402462005615,1.6412960290908813
43,19917,19915,-0.08507749438285828,-0.05421251058578491,0.9975754618644714,3.9854423999786377,6.101691722869873,-2.202009677886963,1.971725583076477,4.048740386962891,0.26362788677215576,-0.9021268486976624,1.8772635459899902,1.6371033191680908
44,19927,19925,-0.1455494463443756,-0.004930291324853897,0.9215068817138672,-6.117953300476074,-7.189754486083984,-1.8917027711868286,1.9712002277374268,4.048486709594727,0.26559218764305115,-0.8547255992889404,1.8380900621414185,1.6186455488204956
45,19937,19935,-0.05004476383328438,0.010707884095609188,0.8619807362556458,-15.29185962677002,-17.24903678894043,-1.3476500511169434,1.9707268476486206,4.048241138458252,0.26763689517974854,-0.6278162002563477,1.9441760778427124,1.633602261543274
46,19947,19945,0.05018060654401779,0.023835694417357445,0.8664496541023254,-20.750743865966797,-23.75179672241211,-1.6793103218078613,1.9694727659225464,4.046210765838623,0.2658945918083191,-0.6700686812400818,1.7517009973526,1.5650578737258911
47,19957,19955,0.08705386519432068,0.050973083823919296,0.8794894814491272,-23.885225296020508,-23.621627807617188,-1.3991527557373047,1.9712387323379517,4.045110702514648,0.26739832758903503,-0.5734958052635193,1.5654680728912354,1.5172785520553589
48,19967,19965,0.13405872881412506,0.005906383041292429,0.8281047940254211,-23.771493911743164,-18.30668830871582,-0.7746523022651672,1.973002552986145,4.045746326446533,0.2686029374599457,-0.23451018333435059,1.3511604070663452,1.5326024293899536
49,19977,19975,-0.03658707067370415,-0.017898928374052048,0.9278594851493835,-20.792043685913086,-15.770904541015625,-0.7461424469947815,1.970526933670044,4.044810771942139,0.26632824540138245,0.06899646669626236,1.4098618030548096,1.5712201595306396
50,19987,19985,-0.06068110838532448,-0.07961256802082062,0.9502112865447998,-15.933830261230469,-6.473608493804932,-0.768992006778717,1.9684678316116333,4.040271759033203,0.26698237657546997,0.05226704478263855,1.188832402229309,1.5369009971618652
51,19997,19995,0.012289443984627724,-0.11565357446670532,0.9234068989753723,-13.633255958557129,1.345422625541687,-0.49883633852005005,1.9687234163284302,4.041378974914551,0.2678535580635071,0.0838300809264183,1.023587942123413,1.5304195880889893
52,20007,20005,0.010951579548418522,0.05996385216712952,0.912272036075592,-14.260818481445312,6.790050983428955,-0.658612072467804,1.9674012660980225,4.0414509773254395,0.26856839656829834,0.01762693002820015,1.104085922241211,1.528705358505249
53,20017,20015,0.0381397008895874,0.029185989871621132,0.8852686882019043,-14.61199951171875,8.47128963470459,-0.5503270030021667,1.9676705598831177,4.039163589477539,0.2698831558227539,-0.108922578394413,0.8338409066200256,1.511171817779541
54,20027,20025,0.04303437098860741,0.08751151710748672,0.8629945516586304,-17.4132080078125,7.385458946228027,-0.4396161437034607,1.9671730995178223,4.037069797515869,0.2705378234386444,-0.3034355044364929,0.4640749394893646,1.4753097295761108
55,20037,20035,0.0248810276389122,0.028176823630928993,0.9281435012817383,-16.971477508544922,1.3152216672897339,-0.39242440462112427,1.9675384759902954,4.036831378936768,0.27105042338371277,-0.33624282479286194,0.5768437385559082,1.4927371740341187
56,20047,20045,-0.0019486516248434782,0.009874403476715088,0.9713267683982849,-16.4601993560791,-3.6081323623657227,-0.7791726589202881,1.9675953388214111,4.03218412399292,0.2709827125072479,-0.27419769763946533,0.4275909960269928,1.496221899986267
57,20057,20055,-0.006865533068776131,-0.08231966942548752,0.986290693283081,-14.903943061828613,-10.016443252563477,-0.6333433985710144,1.9667809009552002,4.030233860015869,0.27127084136009216,-0.1127236858010292,0.14206045866012573,1.4919930696487427
58,20067,20065,0.010234829969704151,0.12921875715255737,0.978178858757019,-15.272281646728516,-12.519023895263672,-0.18231293559074402,1.9655036926269531,4.030948162078857,0.2717048227787018,-0.13334839046001434,0.0330645889043808,1.4754788875579834
59,20077,20075,-0.017005112022161484,-0.09691309928894043,1.014697551727295,-15.42094898223877,-12.606575965881348,-0.4452674984931946,1.966672658920288,4.0291571617126465,0.26986294984817505,0.034916263073682785,-0.007604652550071478,1.482330560684204
60,20087,20085,-0.0077754054218530655,-0.13320289552211761,1.0011435747146606,-14.523526191711426,-10.615789413452148,-0.22178597748279572,1.9646559953689575,4.025918483734131,0.27001672983169556,0.09662693738937378,-0.20515720546245575,1.4708489179611206
61,20097,20095,-0.007818919606506824,-0.032390136271715164,0.9970484375953674,-13.001786231994629,-8.085426330566406,-0.02266871929168701,1.9651787281036377,4.024677753448486,0.2702006697654724,0.1254165917634964,-0.21977435052394867,1.4715484380722046
62,20107,20105,0.00021259351342450827,0.048447106033563614,0.9982027411460876,-13.197576522827148,-5.064998149871826,-0.1780814379453659,1.965746283531189,4.023423671722412,0.2703048884868622,0.26912975311279297,-0.4768725633621216,1.4715838432312012
63,20117,20115,0.03260579705238342,0.12205854803323746,1.0207176208496094,-13.170056343078613,-3.40389347076416,-0.23713253438472748,1.9652318954467773,4.02501106262207,0.2697400748729706,0.2818167805671692,-0.6440757513046265,1.4689521789550781
64,20127,20125,0.006043243687599897,-0.009364848025143147,1.018416166305542,-12.492981910705566,-2.5818586349487305,-0.29350417852401733,1.9655991792678833,4.025181293487549,0.26987287402153015,0.20677977800369263,-0.6405505537986755,1.4686683416366577
65,20137,20135,-0.011727004311978817,0.046859219670295715,1.0849405527114868,-11.96604061126709,-2.8547275066375732,-0.31877124309539795,1.9670366048812866,4.024498462677002,0.2700350284576416,0.2974688708782196,-0.7945124506950378,1.465238094329834
66,20147,20145,-0.022679418325424194,-0.02129368856549263,1.0411245822906494,-11.571102142333984,-4.438239097595215,-0.8047792315483093,1.9661411046981812,4.024999618530273,0.2706155478954315,0.4008936285972595,-0.9379173517227173,1.457033395767212
67,20157,20155,-0.031035088002681732,-0.04886697232723236,1.0169754028320312,-9.772297859191895,-5.802419662475586,-0.5537275075912476,1.965502142906189,4.02386999130249,0.27093634009361267,0.4421902596950531,-0.9760940670967102,1.450594425201416
68,20167,20165,0.015161612071096897,0.009111646562814713,1.0689141750335693,-8.683944702148438,-5.976184844970703,-0.3795175552368164,1.9652040004730225,4.022645473480225,0.2712458670139313,0.4945940375328064,-1.1506733894348145,1.4475115537643433
69,20177,20175,0.04348349943757057,-0.0250092726200819,1.0683242082595825,-6.6840901374816895,-5.732011318206787,-0.3551200032234192,1.9653654098510742,4.0242533683776855,0.2742939591407776,0.46605879068374634,-1.2102597951889038,1.452831506729126
70,20187,20185,0.0072294860146939754,0.0029424061067402363,1.0653619766235352,-5.227587699890137,-4.505482196807861,-0.6511751413345337,1.9661529064178467,4.023931503295898,0.27492251992225647,0.5839626789093018,-1.3978084325790405,1.4461798667907715
71,20197,20195,-0.048734936863183975,0.07728742808103561,1.01536226272583,-4.144829750061035,-2.99995756149292,-1.1572085618972778,1.9653651714324951,4.025135040283203,0.2756901979446411,0.5204498171806335,-1.392996907234192,1.4488682746887207
72,20207,20205,-0.08069150149822235,0.14522652328014374,1.0047401189804077,-3.1640517711639404,-2.061774730682373,-0.2815559208393097,1.9654291868209839,4.023926734924316,0.2757084369659424,0.6031789183616638,-1.4513400793075562,1.4341968297958374
73,20217,20215,-0.006836780812591314,0.00026823513326235116,0.9746971130371094,-1.3531442880630493,-2.2813122272491455,0.46079251170158386,1.9645605087280273,4.022947311401367,0.2776948809623718,0.6704504489898682,-1.551582932472229,1.4319617748260498
74,20227,20225,0.01989898458123207,-0.06697002053260803,1.0658221244812012,0.46402356028556824,-2.6316261291503906,0.42716896533966064,1.964854121208191,4.023690223693848,0.27845486998558044,0.7098954319953918,-1.4639263153076172,1.421649694442749
75,20237,20235,0.007206440903246403,0.018115969374775887,1.0055441856384277,1.9282870292663574,-3.105760335922241,0.653863787651062,1.964590311050415,4.021887302398682,0.2793111503124237,0.6315314769744873,-1.448939561843872,1.4466063976287842
76,20247,20245,-0.01298536267131567,-0.030899567529559135,1.0530985593795776,1.4065252542495728,2.7073123455047607,0.8785989284515381,1.9654080867767334,4.022266387939453,0.2817537784576416,0.605039656162262,-1.4632583856582642,1.4700669050216675
77,20257,20255,0.03426412492990494,-0.04252146929502487,0.9851497411727905,-0.931605339050293,9.86829662322998,0.19836091995239258,1.964881420135498,4.020460605621338,0.2826772630214691,0.7199770212173462,-1.523794412612915,1.4504892826080322
78,20267,20265,-0.010078394785523415,0.09011788666248322,0.9480023384094238,-1.3116122484207153,15.838272094726562,0.43751946091651917,1.9627338647842407,4.022280693054199,0.28372931480407715,0.4937145411968231,-1.4332181215286255,1.4808169603347778
79,20277,20275,0.017076168209314346,-0.05076080560684204,0.9841789603233337,-1.4400378465652466,17.58803939819336,1.0021812915802002,1.9636521339416504,4.020364761352539,0.2847421169281006,0.2635584771633148,-1.36021888256073,1.4858306646347046
80,20287,20285,0.02976960502564907,-0.01180416252464056,0.9711610674858093,-0.3524750769138336,18.779159545898438,1.3418911695480347,1.9645264148712158,4.019568920135498,0.28560298681259155,-0.10217190533876419,-1.4481127262115479,1.5038856267929077
81,20297,20295,-0.012733281590044498,0.01930314674973488,1.0121930837631226,-0.8852996230125427,16.700973510742188,1.4943740367889404,1.9647659063339233,4.0192952156066895,0.28649455308914185,0.053094010800123215,-1.5037370920181274,1.4725302457809448
82,20307,20305,0.012486410327255726,-0.06199443340301514,0.978498101234436,-0.05427190661430359,11.98803424835205,1.7852883338928223,1.9633010625839233,4.018406867980957,0.2863575518131256,-0.18129628896713257,-1.5511674880981445,1.495793104171753
83,20317,20315,-0.030950462445616722,-0.028262417763471603,1.0642117261886597,1.1559758186340332,6.691323280334473,1.8901945352554321,1.9644798040390015,4.01876163482666,0.28712204098701477,-0.2500758171081543,-1.5819412469863892,1.4955861568450928
84,20327,20325,0.015994487330317497,-0.017604706808924675,0.9494407176971436,3.094468593597412,3.675654172897339,1.5319187641143799,1.9639760255813599,4.019093036651611,0.2879820466041565,-0.3298126757144928,-1.6581103801727295,1.516560673713684
85,20337,20335,-0.01969725266098976,-0.03582436591386795,0.9623370170593262,5.712320327758789,1.4122587442398071,2.0370147228240967,1.9645780324935913,4.020543575286865,0.28879034519195557,-0.36789169907569885,-1.6102018356323242,1.526811122894287
86,20347,20345,-0.03627366945147514,-0.011743241921067238,0.9878309369087219,8.383787155151367,3.3199427127838135,2.1292929649353027,1.9640171527862549,4.020872592926025,0.29040205478668213,-0.3681642413139343,-1.5197416543960571,1.5468388795852661
87,20357,20355,-0.012107974849641323,-0.011143242008984089,0.9975611567497253,9.71174144744873,5.840487003326416,2.502035617828369,1.9641910791397095,4.019460201263428,0.2912214994430542,-0.41486024856567383,-1.394673466682434,1.5704575777053833
88,20367,20365,0.10260455310344696,-0.05606210231781006,0.9325295090675354,8.078410148620605,10.63144588470459,2.9373714923858643,1.9641865491867065,4.020669937133789,0.29202377796173096,-0.4323137104511261,-1.2679054737091064,1.5852656364440918
89,20377,20375,0.06533213704824448,-0.04358198121190071,0.9614734649658203,7.640994548797607,8.047548294067383,3.2286863327026367,1.9631596803665161,4.019175052642822,0.2934989035129547,-0.5545192360877991,-1.300879716873169,1.6162219047546387
90,20387,20385,0.025427358224987984,-0.030428344383835793,0.956518828868866,6.722433567047119,8.03262710571289,2.4146406650543213,1.9639027118682861,4.020639419555664,0.2942500710487366,-0.662513256072998,-1.1801807880401611,1.651607871055603
91,20397,20395,0.01329068560153246,-0.14704091846942902,1.00315260887146,5.260899543762207,7.409697532653809,2.3893399238586426,1.9622085094451904,4.018980026245117,0.2948741614818573,-0.7579617500305176,-1.1529475450515747,1.6702016592025757
92,20407,20405,0.007954278029501438,-0.10862450301647186,0.948601245880127,3.2100284099578857,6.867527008056641,2.1481242179870605,1.962512731552124,4.0189642906188965,0.2953251600265503,-0.852474570274353,-1.0806829929351807,1.6981444358825684
93,20417,20415,-0.00966249406337738,-0.10692250728607178,0.9373449683189392,3.840555191040039,6.160881996154785,2.8645336627960205,1.9626754522323608,4.019998550415039,0.2960124611854553,-0.9419020414352417,-1.0918474197387695,1.717932939529419
94,20427,20425,-0.039013467729091644,-0.06504487246274948,1.0002944469451904,4.264650344848633,3.071070671081543,2.413320302963257,1.9622387886047363,4.01978874206543,0.2965777814388275,-0.910272479057312,-1.0173099040985107,1.7304027080535889
95,20437,20435,0.011264116503298283,0.03705758973956108,0.9702337980270386,7.39456844329834,1.9919697046279907,1.8544894456863403,1.9617758989334106,4.019740581512451,0.2972545921802521,-0.8610998392105103,-1.0698246955871582,1.7279928922653198
96,20447,20445,0.07159193605184555,0.07265033572912216,0.9269002676010132,7.082338809967041,2.073368549346924,2.6283628940582275,1.9609806537628174,4.021060466766357,0.2980591058731079,-0.8820133805274963,-0.9369927048683167,1.7509361505508423
97,20457,20455,0.046265292912721634,0.051329322159290314,0.9779232740402222,8.900838851928711,0.15018287301063538,3.377470016479492,1.9610079526901245,4.020753860473633,0.298586368560791,-0.8857554793357849,-0.7893005609512329,1.775913119316101
98,20467,20465,0.002102225786074996,-0.006372940726578236,0.9851667284965515,8.46084213256836,2.3227365016937256,2.8616533279418945,1.9611914157867432,4.019042491912842,0.2990725338459015,-1.0433897972106934,-0.8736359477043152,1.8151999711990356
99,20477,20475,-0.014904533512890339,-0.02377050742506981,0.9936482310295105,7.6661176681518555,4.036643981933594,2.728641986846924,1.9631131887435913,4.02040958404541,0.3003333508968353,-1.0423576831817627,-0.7836184501647949,1.8427070379257202
100,20487,20485,-0.0013180506648495793,-0.0012464261380955577,1.0033998489379883,6.7338948249816895,4.727634429931641,2.3208444118499756,1.9627751111984253,4.020379066467285,0.30082422494888306,-1.0699207782745361,-0.8586859703063965,1.8465231657028198
101,20497,20495,0.007521587423980236,0.010549166239798069,0.983029842376709,6.142928123474121,4.921027183532715,2.2210001945495605,1.9633961915969849,4.022233486175537,0.3012717068195343,-1.1095247268676758,-0.8535448312759399,1.8593093156814575
102,20507,20505,0.00989926140755415,0.07704582810401917,0.9671233296394348,7.1015777587890625,3.889504909515381,2.886491298675537,1.9632275104522705,4.0230021476745605,0.30483072996139526,-1.142099380493164,-0.6829699873924255,1.893159031867981
103,20517,20515,0.0022743951994925737,0.13192279636859894,1.0192145109176636,11.14433765411377,0.38530656695365906,2.146517038345337,1.963466763496399,4.021102428436279,0.30552664399147034,-1.1442396640777588,-0.573387086391449,1.9220150709152222
104,20527,20525,0.017726099118590355,-0.018816685304045677,0.9532496333122253,12.606706619262695,-0.8835251927375793,2.722745418548584,1.9633334875106812,4.020783424377441,0.30619022250175476,-1.1135236024856567,-0.5033955574035645,1.9353152513504028
105,20537,20535,-0.017170678824186325,0.01021434087306261,0.9987033009529114,13.43796443939209,-2.3573355674743652,2.026782751083374,1.9632865190505981,4.021400451660156,0.3068216145038605,-1.1343460083007812,-0.3216002881526947,1.9725441932678223
106,20547,20545,0.000527573807630688,-0.019933026283979416,0.9699170589447021,12.338713645935059,-2.330096483230591,1.6001956462860107,1.9633328914642334,4.021567344665527,0.30781129002571106,-1.1299973726272583,-0.29263290762901306,1.9777377843856812
107,20557,20555,-0.07498025894165039,0.0699002668261528,0.9599389433860779,9.439861297607422,-0.9356639385223389,1.7834700345993042,1.9637447595596313,4.023367404937744,0.3084195554256439,-1.2088444232940674,-0.20215211808681488,2.0013251304626465
108,20567,20565,-0.06373197585344315,0.10074025392532349,0.9204615354537964,7.562976360321045,-0.7525036334991455,1.585402250289917,1.9658294916152954,4.024331092834473,0.3089759051799774,-1.1305371522903442,-0.06680316478013992,2.0176565647125244
109,20577,20575,-0.037606071680784225,0.07222319394350052,0.927996814250946,6.823931694030762,-1.652039647102356,1.7428258657455444,1.96578848361969,4.0240912437438965,0.30650728940963745,-1.134440302848816,-0.04308114945888519,2.025738477706909
110,20587,20585,-0.03511437401175499,0.09984470158815384,0.9768145680427551,4.286886692047119,0.3662150502204895,1.513877034187317,1.9664121866226196,4.02553653717041,0.30674856901168823,-1.0652457475662231,0.11612655222415924,2.0536046028137207
111,20597,20595,-0.06439321488142014,0.05050043389201164,1.0244152545928955,6.645605564117432,-4.85634183883667,1.686956524848938,1.9656009674072266,4.024485111236572,0.30699998140335083,-0.9941518306732178,0.10054691880941391,2.0568981170654297
112,20607,20605,-0.04561331495642662,-0.03142756223678589,0.9965547919273376,7.869137287139893,-1.319356083869934,1.9508923292160034,1.965466022491455,4.026278018951416,0.30749499797821045,-0.9905354380607605,0.1900181919336319,2.078768730163574
113,20617,20615,-0.09583672136068344,0.03635542094707489,1.0558886528015137,7.404433727264404,-0.09117814153432846,1.8411743640899658,1.965969443321228,4.025689125061035,0.30775657296180725,-0.8507927656173706,0.2915344834327698,2.099716901779175
114,20627,20625,-0.08939417451620102,0.09490126371383667,0.9934456944465637,5.881585597991943,3.2726123332977295,1.503517508506775,1.9651464223861694,4.025915622711182,0.3081229329109192,-0.8926600813865662,0.4607638418674469,2.133831739425659
115,20637,20635,-0.05816090479493141,0.12239837646484375,0.9365828633308411,4.055422306060791,4.856846809387207,1.4253383874893188,1.9665392637252808,4.025975704193115,0.3084663450717926,-1.0551657676696777,0.4402812123298645,2.134068489074707
116,20647,20645,0.007401735987514257,-0.048276569694280624,0.9630396962165833,3.7221667766571045,3.903641700744629,0.6468257904052734,1.9680290222167969,4.028162479400635,0.3096022605895996,-1.0635347366333008,0.48161277174949646,2.148782730102539
117,20657,20655,-0.010982424020767212,-0.0037456583231687546,1.001444697380066,1.5888649225234985,3.0653538703918457,-0.0028344092424958944,1.9670631885528564,4.028261184692383,0.30999496579170227,-1.064954161643982,0.5805803537368774,2.1668038368225098
118,20667,20665,-0.020791195333003998,-0.023866815492510796,1.0050914287567139,1.120444655418396,-0.763617217540741,-0.2794398367404938,1.9667102098464966,4.028764724731445,0.3103046417236328,-1.0418773889541626,0.5689411163330078,2.165618896484375
119,20677,20675,-0.08506327122449875,-0.04089314490556717,1.0707709789276123,1.510204792022705,-3.7602810859680176,-0.10210861265659332,1.9666630029678345,4.029737949371338,0.3136804401874542,-1.1251850128173828,0.631199061870575,2.1619248390197754
120,20687,20685,-0.0979752317070961,-0.0455780029296875,1.0505354404449463,1.4963737726211548,-3.331414222717285,-0.20236662030220032,1.9675557613372803,4.029524326324463,0.31416377425193787,-1.077123761177063,0.6133191585540771,2.156679153442383
121,20697,20695,-0.09242764860391617,0.04161636158823967,1.0423692464828491,1.328372597694397,-5.342146873474121,-0.17066025733947754,1.9677211046218872,4.029856204986572,0.31482216715812683,-0.9322766065597534,0.6781374216079712,2.1708571910858154
122,20707,20705,-0.05608934164047241,0.1465335190296173,0.970242977142334,-0.2246244251728058,-4.005119800567627,-0.3398367464542389,1.967320203781128,4.029724597930908,0.3156822621822357,-1.023576021194458,0.5676297545433044,2.1371166706085205
123,20717,20715,0.019621413201093674,0.13638180494308472,0.9347032904624939,-0.9582102298736572,-2.645528793334961,-0.23460756242275238,1.9688847064971924,4.030474662780762,0.3162350654602051,-0.8907560706138611,0.6030086874961853,2.148519515991211
124,20727,20725,-0.011579149402678013,0.16537241637706757,0.9583860039710999,2.042591094970703,-2.8383278846740723,0.01608267053961754,1.9662938117980957,4.027621269226074,0.3167819678783417,-0.7764135599136353,0.6488869786262512,2.150196075439453
125,20737,20735,-0.003119338070973754,0.03819975629448891,0.9428173303604126,2.540565013885498,-2.874347448348999,-0.1573711484670639,1.9660001993179321,4.026752948760986,0.3175636827945709,-0.8272584080696106,0.637270450592041,2.136230230331421
126,20747,20745,-0.00634313328191638,-0.05805346369743347,0.9633328914642334,3.1337780952453613,-2.2826454639434814,-0.47660255432128906,1.965610384941101,4.024410724639893,0.317985862493515,-0.8676283955574036,0.71876060962677,2.1245808601379395
127,20757,20755,0.001076261978596449,-0.094086654484272,0.9694839119911194,2.601186990737915,-1.657331109046936,-0.9041409492492676,1.9666911363601685,4.023874759674072,0.31838682293891907,-0.9170816540718079,0.6382938623428345,2.0976428985595703
128,20767,20765,-0.08422580361366272,-0.06747706234455109,1.0334651470184326,1.960606336593628,-1.2730958461761475,-0.954949676990509,1.968955636024475,4.026146411895752,0.31876611709594727,-0.8034777045249939,0.7151471376419067,2.1054131984710693
129,20777,20775,-0.005382030736654997,0.007478539831936359,0.9424311518669128,0.8482435345649719,-3.0301125049591064,-1.3667104244232178,1.968541145324707,4.025761604309082,0.31432557106018066,-1.007264256477356,0.7693430185317993,2.073491334915161
130,20787,20785,-0.0715387687087059,0.07709008455276489,0.9623526930809021,-1.0683557987213135,-3.2506446838378906,-1.458522915840149,1.9709956645965576,4.026127815246582,0.31429046392440796,-0.8516704440116882,0.794032633304596,2.082671642303467
131,20797,20795,-0.0877440795302391,0.13403484225273132,0.9685742855072021,-3.455667495727539,-3.9985194206237793,-1.6634259223937988,1.970599889755249,4.025365829467773,0.3144935071468353,-0.7749743461608887,0.7784506678581238,2.0780189037323
132,20807,20805,-0.025417014956474304,0.14122027158737183,0.926829993724823,-2.979752779006958,-5.576761722564697,-2.1365935802459717,1.9703954458236694,4.026332855224609,0.31539902091026306,-0.6797112822532654,0.7481071352958679,2.0655133724212646
133,20817,20815,0.004005702678114176,0.13572950661182404,0.9418501853942871,-3.6879782676696777,-4.736327648162842,-2.4041271209716797,1.9702935218811035,4.0255351066589355,0.31545230746269226,-0.5083977580070496,0.7104929685592651,2.0591588020324707
134,20827,20825,-0.008603380993008614,0.13503383100032806,0.9901351928710938,-2.5217037200927734,-5.3249664306640625,-2.4866886138916016,1.9691762924194336,4.025513648986816,0.31551095843315125,-0.585885763168335,0.6783902049064636,2.018397331237793
135,20837,20835,0.0009580874466337264,0.0026973378844559193,0.9648058414459229,-0.7128609418869019,-3.299668788909912,-2.5549471378326416,1.9708600044250488,4.0250043869018555,0.31382617354393005,-0.5023037195205688,0.6676926612854004,1.999495267868042
136,20847,20845,-0.0160867627710104,-0.053142040967941284,0.9978328943252563,-0.15979614853858948,-2.369673013687134,-2.2967686653137207,1.9711029529571533,4.024229049682617,0.3136330842971802,-0.5300054550170898,0.6713770031929016,1.968970775604248
137,20857,20855,-0.009150680154561996,-0.00340754515491426,1.013560175895691,0.5403562188148499,-1.6633985042572021,-2.3259973526000977,1.9726637601852417,4.024492263793945,0.3134026527404785,-0.6466166377067566,0.6831760406494141,1.9286918640136719
138,20867,20865,-0.05364486202597618,-0.019965678453445435,1.0563514232635498,0.10446302592754364,-0.13214153051376343,-3.040482997894287,1.9744411706924438,4.023388862609863,0.3130779564380646,-0.5191429853439331,0.6966030597686768,1.9194830656051636
139,20877,20875,-0.04714537784457207,0.00969792902469635,1.038326621055603,-2.4588747024536133,0.20780038833618164,-2.7233264446258545,1.9741768836975098,4.023528099060059,0.3129784166812897,-0.5646629929542542,0.6888369917869568,1.8823801279067993
140,20887,20885,-0.026307767257094383,0.07692494988441467,0.9847149848937988,-4.868473052978516,-1.2846754789352417,-2.8921520709991455,1.975799560546875,4.022420883178711,0.31283584237098694,-0.4409225285053253,0.6400905847549438,1.8635793924331665
141,20897,20896,0.0017647602362558246,-0.018076186999678612,0.9777458906173706,-5.138537883758545,-3.0597500801086426,-2.7778217792510986,1.9758201837539673,4.022607326507568,0.3128199279308319,-0.46596288681030273,0.5655498504638672,1.8279683589935303
142,20907,20905,-0.0036335426848381758,0.0028284366708248854,1.0148106813430786,-4.971321105957031,-4.183581829071045,-3.2102603912353516,1.9770339727401733,4.022798538208008,0.31520599126815796,-0.3048611283302307,0.56880784034729,1.8184009790420532
143,20917,20915,0.04856216162443161,-0.0954684391617775,1.0048913955688477,-2.5185136795043945,-5.679920196533203,-3.133810043334961,1.9765801429748535,4.0228447914123535,0.3153414726257324,-0.30124810338020325,0.5004968643188477,1.7894340753555298
144,20927,20925,0.01329091191291809,-0.06333297491073608,1.0157054662704468,-1.703500747680664,-5.008789539337158,-2.2334437370300293,1.977553367614746,4.02256965637207,0.3153670132160187,-0.2814497649669647,0.4684590697288513,1.75399649143219
145,20937,20935,0.0043730949983000755,-0.17403607070446014,1.052236795425415,0.0707818940281868,-2.9259226322174072,-3.199169635772705,1.978157877922058,4.021623611450195,0.31210243701934814,-0.265384316444397,0.4634039103984833,1.7246201038360596
146,20947,20945,0.010501021519303322,-0.037242233753204346,1.0216214656829834,-0.16427220404148102,-1.8420835733413696,-3.0537376403808594,1.9794886112213135,4.020805835723877,0.3119792640209198,-0.2039501667022705,0.46369463205337524,1.688704252243042
147,20957,20955,0.00890395138412714,0.017498934641480446,0.9748212695121765,-1.011559247970581,0.4204529821872711,-3.4548773765563965,1.9797133207321167,4.021152019500732,0.3119637370109558,-0.1731775850057602,0.46016186475753784,1.6565314531326294
148,20967,20965,-0.02118762582540512,-0.0014999813865870237,1.01024329662323,-3.4464991092681885,0.7169701457023621,-3.486389398574829,1.9808449745178223,4.02144718170166,0.3099309504032135,-0.23925387859344482,0.4273921847343445,1.615541696548462
149,20977,20975,-0.007486171554774046,-0.0711158812046051,1.0184118747711182,-3.174947738647461,-0.5222097039222717,-3.384303569793701,1.9821531772613525,4.021779537200928,0.30970731377601624,-0.2078627049922943,0.3758447766304016,1.5850095748901367
150,20987,20985,0.026207853108644485,0.016261236742138863,1.0064386129379272,-3.6828866004943848,-0.16649490594863892,-3.139549493789673,1.9829556941986084,4.023314952850342,0.30955708026885986,-0.3503074645996094,0.4785221219062805,1.5519198179244995
151,20997,20995,0.0022485831286758184,-0.0061274743638932705,1.0107754468917847,-3.7970709800720215,-1.9471348524093628,-3.092617988586426,1.9858845472335815,4.022183418273926,0.3092997372150421,-0.21603308618068695,0.4028387665748596,1.534563422203064
152,21007,21005,-0.010480528697371483,-0.027141908183693886,1.053387999534607,-3.065314769744873,-3.1730217933654785,-3.5430386066436768,1.9850293397903442,4.023117542266846,0.31090566515922546,-0.2195812314748764,0.33782097697257996,1.510696291923523
153,21017,21015,-0.006621391512453556,0.013436170294880867,1.0538725852966309,-2.303901195526123,-3.929657459259033,-3.844475746154785,1.9859659671783447,4.02298641204834,0.3108573257923126,-0.057427652180194855,0.28210896253585815,1.4896560907363892
154,21027,21025,0.02022635191679001,-0.020579012110829353,1.0424015522003174,-3.129450798034668,-3.8473258018493652,-3.4555728435516357,1.9858359098434448,4.0240960121154785,0.3110126852989197,0.015695614740252495,0.30726033449172974,1.454868197441101
155,21037,21035,-0.009963469579815865,-0.01631070114672184,1.0271008014678955,-2.808901786804199,-2.8954904079437256,-3.6592395305633545,1.9865895509719849,4.0233941078186035,0.30941787362098694,-0.07469145208597183,0.2498306930065155,1.409990906715393
156,21047,21045,0.0111909294500947,-0.014879089780151844,0.981186032295227,-2.4799997806549072,-0.989151656627655,-3.3248438835144043,1.9888134002685547,4.024197101593018,0.309378981590271,0.05307376757264137,0.27518123388290405,1.371405005455017
157,21057,21055,-0.020455744117498398,0.024211077019572258,1.0019152164459229,-2.25398325920105,0.38246336579322815,-3.146515369415283,1.9887486696243286,4.02352237701416,0.30948999524116516,-0.008151866495609283,0.22140824794769287,1.3365834951400757
158,21067,21065,-0.03680228814482689,0.03593948483467102,1.0505913496017456,-2.4213054180145264,1.5647329092025757,-3.3233513832092285,1.989672064781189,4.0236711502075195,0.3089388310909271,-0.08333344012498856,0.17500483989715576,1.3101972341537476
159,21077,21075,0.03385104238986969,-0.05575282499194145,1.0653486251831055,-2.633164882659912,2.0175933837890625,-2.8832690715789795,1.9912220239639282,4.024080276489258,0.30890196561813354,-0.014385636895895004,0.20005938410758972,1.2825661897659302
160,21087,21085,0.023182610049843788,-0.012613547034561634,1.080532431602478,-2.396275281906128,0.7362967133522034,-2.6033248901367188,1.9904342889785767,4.023292064666748,0.3090348243713379,-0.10087286680936813,0.14888878166675568,1.2546197175979614
161,21097,21095,0.011935490183532238,-0.03992535173892975,0.9911983013153076,-2.6486237049102783,-0.677879273891449,-3.3906679153442383,1.9920498132705688,4.023468494415283,0.30910199880599976,-0.0796184092760086,0.09527111053466797,1.2326701879501343
162,21107,21105,0.0004778787260875106,-0.03491334617137909,1.002800703048706,-2.705051898956299,-1.6172891855239868,-3.386491298675537,1.9924079179763794,4.024428844451904,0.3085419535636902,-0.11889779567718506,0.04068371653556824,1.1991360187530518
163,21117,21115,0.01057804748415947,-0.01427755132317543,1.0150777101516724,-3.259028673171997,-1.5709638595581055,-3.5712008476257324,1.9930189847946167,4.024260997772217,0.3085819184780121,-0.06637309491634369,0.06239109858870506,1.1722108125686646
164,21127,21125,-0.00021884562738705426,0.004572243429720402,0.9753482937812805,-2.736116409301758,-2.209974765777588,-3.4528744220733643,1.9937628507614136,4.024500370025635,0.3087424635887146,-0.009940749034285545,-0.000716307433322072,1.139246940612793
165,21137,21135,-0.04360422119498253,0.06543423235416412,1.0312473773956299,-2.220830202102661,-2.676136016845703,-3.0186920166015625,1.994104266166687,4.0243377685546875,0.3086196780204773,0.05324678122997284,-0.047899484634399414,1.0942243337631226
166,21147,21145,-0.009470159187912941,0.02811427041888237,0.9979871511459351,-1.8216508626937866,-1.030834436416626,-2.2426605224609375,1.9936152696609497,4.024022579193115,0.30876943469047546,0.09231553226709366,-0.006614901125431061,1.0524847507476807
167,21157,21155,0.013064615428447723,-0.01613846980035305,1.002257227897644,-0.3879391849040985,0.003310895524919033,-1.8137636184692383,1.9941725730895996,4.023473739624023,0.30889636278152466,0.031903743743896484,-0.03243936598300934,1.037579894065857
168,21167,21165,-0.02371390163898468,0.008912967517971992,1.0275830030441284,0.39021626114845276,0.746149480342865,-2.158946990966797,1.9956389665603638,4.023606777191162,0.30581873655319214,-0.028507603332400322,-0.03982112929224968,1.0238912105560303
169,21177,21175,-0.010107842274010181,0.0558641143143177,0.9797285199165344,0.5523065328598022,2.7145473957061768,-2.6281323432922363,1.9968339204788208,4.023929595947266,0.3057376742362976,-0.040970928966999054,0.034909263253211975,0.9953536987304688
170,21187,21185,0.006654627155512571,0.032057035714387894,1.0007455348968506,-0.9319388270378113,2.11834454536438,-2.7648427486419678,1.997663974761963,4.0225725173950195,0.30567318201065063,-0.20926804840564728,0.015125581063330173,0.9619836211204529
171,21197,21195,-0.029625603929162025,0.022180037572979927,1.022519826889038,-2.0983755588531494,0.39307594299316406,-2.4493980407714844,2.000166893005371,4.022993087768555,0.3054502606391907,-0.11455995589494705,-0.029682260006666183,0.9323154091835022
172,21207,21205,-0.05592890828847885,0.11911241710186005,0.9837299585342407,-3.6017463207244873,-0.6313822865486145,-1.914780616760254,2.0001938343048096,4.022848129272461,0.30608031153678894,-0.3068552613258362,-0.08897168934345245,0.9163998365402222
173,21217,21215,-0.017677338793873787,0.04153815284371376,1.0451656579971313,-3.819096565246582,-3.276543378829956,-2.1653287410736084,2.0029609203338623,4.022191524505615,0.305854469537735,-0.2162764072418213,-0.16179783642292023,0.8902893662452698
174,21227,21225,-0.005166706629097462,0.0742306262254715,0.9656186103820801,-3.001723289489746,-6.254744052886963,-2.1063244342803955,2.0033600330352783,4.022634506225586,0.30594801902770996,-0.01618327386677265,-0.2174883633852005,0.8657253980636597
175,21237,21235,0.031479910016059875,-0.09305314719676971,1.0098257064819336,-2.2370765209198,-9.043817520141602,-1.740093469619751,2.0024187564849854,4.021914958953857,0.3043524920940399,0.0040671746246516705,-0.260018914937973,0.8402753472328186
176,21247,21245,-0.007879121229052544,0.0205323938280344,1.0220063924789429,-0.10141551494598389,-5.765776634216309,-1.7427130937576294,2.004181146621704,4.022557735443115,0.30422136187553406,0.07673301547765732,-0.2724217474460602,0.8295547366142273
177,21257,21255,0.007195761892944574,0.03620867431163788,0.9348142147064209,1.8096107244491577,-3.728856086730957,-1.6218030452728271,2.0049004554748535,4.0228142738342285,0.3041359782218933,0.2601524591445923,-0.2508288323879242,0.8265511989593506
178,21267,21265,-0.001033383421599865,0.029484674334526062,1.0282162427902222,2.3425843715667725,-2.1877317428588867,-1.5189014673233032,2.004620313644409,4.02255916595459,0.3054684102535248,0.3249818980693817,-0.059146467596292496,0.8068963885307312
179,21277,21275,-0.013130562379956245,0.06854720413684845,1.0010491609573364,2.584089517593384,0.5637984871864319,-1.291791558265686,2.0047552585601807,4.021517276763916,0.3054657280445099,0.18772540986537933,-0.029191099107265472,0.7954356074333191
180,21287,21285,0.019629301503300667,-0.10303499549627304,1.00179123878479,1.2336513996124268,4.809113502502441,-0.6112930178642273,2.007030487060547,4.020716667175293,0.30536332726478577,0.0895041897892952,-0.08819231390953064,0.7857707738876343
181,21297,21295,0.027749191969633102,-0.08494589477777481,1.0524101257324219,-1.8676005601882935,3.0393362045288086,-0.367623895406723,2.008491039276123,4.021230220794678,0.305203378200531,0.14295412600040436,-0.1099088191986084,0.780354917049408
182,21307,21305,0.022451251745224,-0.06758929789066315,1.0062075853347778,-2.8859806060791016,2.3518800735473633,-0.97319096326828,2.009031295776367,4.0213518142700195,0.30531224608421326,0.04494259133934975,-0.15982648730278015,0.793656587600708
183,21317,21315,-0.009062055498361588,0.008636681362986565,1.0480765104293823,-3.3463134765625,-0.09038637578487396,-0.8186350464820862,2.0102274417877197,4.021946907043457,0.3053729236125946,0.13979831337928772,-0.21787939965724945,0.7811787724494934
184,21327,21325,0.010811036452651024,0.008271628059446812,1.0095975399017334,-1.771272897720337,-2.2258968353271484,-1.0897014141082764,2.0097134113311768,4.022711277008057,0.30556854605674744,0.10877016931772232,-0.25663837790489197,0.7728830575942993
185,21337,21335,-0.002701651072129607,-0.0031381971202790737,1.0757368803024292,-0.5775554180145264,-3.7763235569000244,-1.1289656162261963,2.011268138885498,4.023456573486328,0.30760815739631653,0.2731894254684448,-0.2705358862876892,0.7761963605880737
186,21347,21345,0.0014508997555822134,0.017705241218209267,1.0428061485290527,1.0521472692489624,-2.753549814224243,-1.391336441040039,2.010650634765625,4.0231804847717285,0.3079895079135895,0.4150552749633789,-0.1821872740983963,0.7533102035522461
187,21357,21355,-0.0019295505480840802,0.006644384935498238,1.0070674419403076,3.4417378902435303,-1.6545054912567139,-1.3050931692123413,2.009920597076416,4.022378921508789,0.30839988589286804,0.2950178384780884,-0.14267420768737793,0.7468124628067017
188,21367,21365,-0.003559261793270707,-0.0055253473110497,1.0068492889404297,3.517820119857788,2.361943244934082,-0.8576761484146118,2.012394666671753,4.0213775634765625,0.3089205026626587,0.368632972240448,-0.0889681950211525,0.7387868165969849
189,21377,21375,0.003594366367906332,0.09968508034944534,1.0419268608093262,4.3767170906066895,3.4119367599487305,-1.3505170345306396,2.011538505554199,4.022267818450928,0.30938100814819336,0.17393814027309418,-0.10223624110221863,0.752937376499176
190,21387,21385,-0.00043123410432599485,0.07583758980035782,1.0087651014328003,2.905083179473877,5.290138244628906,-1.6361536979675293,2.014084815979004,4.022409439086914,0.30969783663749695,0.19020934402942657,-0.050229690968990326,0.7266431450843811
191,21397,21395,0.008477981202304363,0.025571024045348167,0.997474193572998,1.4560071229934692,4.975817680358887,-1.541452407836914,2.014216899871826,4.022686958312988,0.3109535276889801,0.19100667536258698,-0.027311868965625763,0.7131203413009644
192,21407,21405,-0.011809580959379673,-0.12955991923809052,1.0058737993240356,0.13623833656311035,3.284769296646118,-1.4932258129119873,2.014397382736206,4.022040367126465,0.311469703912735,0.13498467206954956,-0.02977369725704193,0.6958336234092712
193,21417,21415,-0.01567126251757145,-0.16368664801120758,1.0088309049606323,-1.0496033430099487,1.775072455406189,-1.907865047454834,2.015416383743286,4.021515846252441,0.311940997838974,0.18094804883003235,-0.04788115993142128,0.6621348857879639
194,21427,21425,0.007310729008167982,-0.018625855445861816,0.9983578324317932,-0.3121586740016937,0.6004420518875122,-1.7677483558654785,2.015071153640747,4.022571086883545,0.31249427795410156,0.24333690106868744,-0.06035509705543518,0.665034294128418
195,21437,21435,0.030502324923872948,0.0897398367524147,1.0034149885177612,0.3903384804725647,0.27669402956962585,-1.8385233879089355,2.014923095703125,4.023126125335693,0.31210559606552124,0.07779451459646225,-0.05848679319024086,0.6674506664276123
196,21447,21445,-0.0121157830581069,0.0027413228526711464,1.0090327262878418,1.0872093439102173,-0.058246005326509476,-2.307170867919922,2.017347812652588,4.023612976074219,0.31248071789741516,0.08565694093704224,-0.04738021269440651,0.6550728678703308
197,21457,21455,-0.015368456952273846,-0.05797137692570686,0.993057370185852,2.8716561794281006,1.278045892715454,-2.291053533554077,2.0181169509887695,4.023101329803467,0.3129274249076843,0.1540715992450714,-0.009772373363375664,0.6193774342536926
198,21467,21465,0.048624489456415176,0.07293020188808441,0.9887182712554932,2.487600326538086,2.6913232803344727,-2.4010305404663086,2.0167598724365234,4.022314071655273,0.3127686381340027,0.03224944695830345,-0.04618111997842789,0.5873957872390747
199,21477,21475,-0.04368777200579643,-0.03912588581442833,1.0136595964431763,2.564768075942993,2.7759742736816406,-2.1896185874938965,2.018514394760132,4.022264003753662,0.31311532855033875,0.004567176103591919,0.0025927689857780933,0.5613598823547363
200,21487,21485,0.017020536586642265,0.025014013051986694,0.9917842149734497,2.066133975982666,3.4905807971954346,-2.261155605316162,2.019455671310425,4.022237777709961,0.3135263919830322,0.03275398537516594,0.04128970205783844,0.5436347126960754
201,21497,21495,-0.02382086031138897,-0.0403057225048542,0.9925263524055481,1.4249475002288818,1.6684406995773315,-2.5238075256347656,2.018970012664795,4.021765232086182,0.3186782896518707,0.009152778424322605,-0.006704484112560749,0.522631049156189
202,21507,21505,-0.05950514227151871,-0.03315770626068115,0.9900146722793579,0.9737088680267334,1.4934905767440796,-2.2008795738220215,2.0195672512054443,4.022365570068359,0.3193380534648895,0.06310250610113144,0.020935868844389915,0.49490299820899963
203,21517,21515,-0.06460367143154144,-0.0016463905340060592,0.9988009333610535,1.0771210193634033,1.0736314058303833,-2.650240182876587,2.019414186477661,4.02245569229126,0.3200664818286896,0.11546055227518082,0.04282034933567047,0.4617224633693695
204,21527,21525,-0.10986526310443878,0.0008685106295160949,1.0045865774154663,1.3621951341629028,1.5648510456085205,-2.2918996810913086,2.019221782684326,4.021860122680664,0.32081151008605957,-0.0592544749379158,0.06220192834734917,0.4457249343395233
205,21537,21535,-0.08331473916769028,0.005358659662306309,1.0004392862319946,0.5593129396438599,3.2512850761413574,-1.323365330696106,2.0212225914001465,4.021143436431885,0.31812530755996704,-0.010188738815486431,0.07787702977657318,0.4129107892513275
206,21547,21545,0.003733562072739005,-0.00529510946944356,0.9725321531295776,0.33931708335876465,4.555280685424805,-1.335578203201294,2.021169662475586,4.020845413208008,0.3186264932155609,-0.07766808569431305,0.08528124541044235,0.39377152919769287
207,21557,21555,0.015200153924524784,-0.02115396410226822,0.9538955092430115,-0.9916089773178101,5.534640789031982,-1.6504100561141968,2.0216479301452637,4.020115852355957,0.3190141022205353,-0.16274213790893555,0.07638891041278839,0.36963269114494324
208,21567,21565,-0.10274559259414673,0.04379834234714508,0.9567174315452576,-0.05554918199777603,1.7602852582931519,-2.2715535163879395,2.0216407775878906,4.019534587860107,0.31798413395881653,-0.13468454778194427,0.06908828020095825,0.32489117980003357
209,21577,21575,-0.02446911856532097,-0.020877733826637268,0.9609267711639404,-0.02082548849284649,3.7478277683258057,-1.9539515972137451,2.0216147899627686,4.0199666023254395,0.3183426558971405,-0.11581273376941681,0.06899786740541458,0.3299052119255066
210,21587,21585,0.024105438962578773,-0.062258925288915634,0.9697345495223999,0.06872868537902832,2.7341148853302,-1.7841442823410034,2.0212833881378174,4.019108772277832,0.3186424672603607,-0.1649162471294403,0.0731431245803833,0.2994675934314728
211,21597,21595,0.0020478004589676857,-0.008326811715960503,0.9868693947792053,0.6414762735366821,2.0478007793426514,-1.580842137336731,2.0223629474639893,4.0191330909729,0.31864914298057556,-0.20372122526168823,0.08667290210723877,0.28125491738319397
212,21607,21605,0.007439546752721071,-6.176040915306658e-05,0.9748290181159973,1.3970001935958862,1.80281662940979,-1.2363958358764648,2.023365020751953,4.019011974334717,0.31884056329727173,-0.3932095170021057,-0.047593142837285995,0.26434504985809326
213,21617,21615,0.07099124789237976,-0.11064450442790985,0.9659693837165833,0.3124108612537384,2.1076819896698,-1.4877197742462158,2.0256705284118652,4.020514488220215,0.31887415051460266,-0.3337295949459076,-0.021696995943784714,0.2453107088804245
214,21627,21625,0.08115933835506439,-0.14676503837108612,0.9702383875846863,0.44368046522140503,1.2443073987960815,-1.4112094640731812,2.0260274410247803,4.020123481750488,0.3205135464668274,-0.2811086177825928,-0.08123335987329483,0.23451942205429077
215,21637,21635,-0.006060668732970953,-0.019140800461173058,1.0086983442306519,2.289551019668579,-0.09632531553506851,-1.7630972862243652,2.0246880054473877,4.019800186157227,0.32056310772895813,-0.4378605782985687,-0.03031783737242222,0.20010332763195038
216,21647,21645,-0.027278048917651176,0.020799582824110985,1.0124132633209229,3.76877760887146,-0.4194342792034149,-1.3079676628112793,2.0267510414123535,4.0194830894470215,0.3206818401813507,-0.33721059560775757,0.04054347798228264,0.18165944516658783
217,21657,21655,-0.0025843889452517033,0.007573948707431555,0.9914302229881287,5.494478225708008,-0.20044635236263275,-1.3664637804031372,2.0266706943511963,4.018550395965576,0.3210031986236572,-0.3248934745788574,0.06264358013868332,0.14707382023334503
218,21667,21665,0.0068328906781971455,0.05007636919617653,0.9915504455566406,5.709422588348389,-1.359744906425476,-1.1014299392700195,2.0267887115478516,4.017996788024902,0.3217810392379761,-0.3028106987476349,0.1697298288345337,0.11761098355054855
219,21677,21675,-0.00712666567414999,0.0474013052880764,0.9385102391242981,5.213832378387451,-0.20796321332454681,-0.42517125606536865,2.0276904106140137,4.017326831817627,0.32200556993484497,-0.29054123163223267,0.2664516568183899,0.10106543451547623
220,21687,21685,-0.017453845590353012,0.10604177415370941,0.9458265900611877,3.2768361568450928,0.43879279494285583,-0.8360700011253357,2.0276052951812744,4.016161918640137,0.322254478931427,-0.21970507502555847,0.3340705335140228,0.09326588362455368
221,21697,21695,-0.0280728992074728,0.1469895839691162,0.9587926864624023,1.121155858039856,0.656904935836792,-0.7085611820220947,2.0271012783050537,4.016570091247559,0.32035383582115173,-0.31504693627357483,0.20974206924438477,0.07965225726366043
222,21707,21705,-0.01114845834672451,0.14738526940345764,0.9512545466423035,-0.7699623703956604,2.085814952850342,-0.536097526550293,2.0289947986602783,4.017646789550781,0.3203544616699219,-0.3411346673965454,0.21790067851543427,0.05952538177371025
223,21717,21715,0.011095822788774967,-0.004241461865603924,0.9787846803665161,-1.8700050115585327,2.453268051147461,-1.0333691835403442,2.029916763305664,4.0177083015441895,0.32029300928115845,-0.29565370082855225,0.20217327773571014,0.05296070873737335
224,21727,21725,0.022766580805182457,0.05446898192167282,0.9694871306419373,-0.5715314149856567,2.1667349338531494,-1.224178671836853,2.030122756958008,4.017843723297119,0.3211413621902466,-0.33857378363609314,0.1992584764957428,0.04328588768839836
225,21737,21735,0.016869015991687775,0.04468097537755966,0.9700301885604858,0.2439487725496292,1.2640204429626465,-1.5807528495788574,2.0300991535186768,4.017666339874268,0.3211127519607544,-0.36640363931655884,0.20360571146011353,0.04685795307159424
226,21747,21745,0.01614058017730713,-0.026526005938649178,0.9715859293937683,2.0095138549804688,0.5534543991088867,-1.3541853427886963,2.0301284790039062,4.018519878387451,0.32103779911994934,-0.4546763300895691,0.23750510811805725,0.045991476625204086
227,21757,21755,0.03627363219857216,-0.11253649741411209,0.9565097689628601,2.806673526763916,0.38386261463165283,-1.25393545627594,2.031712293624878,4.017848968505859,0.3208191394805908,-0.5246521234512329,0.28637799620628357,0.01905544102191925
228,21767,21765,0.03888671472668648,-0.1867922991514206,0.970839262008667,3.4139575958251953,-0.1837768405675888,-0.9920032024383545,2.033033609390259,4.017696857452393,0.3193034827709198,-0.5063314437866211,0.3441753089427948,0.017384305596351624
229,21777,21775,-0.031924325972795486,-0.038253143429756165,1.0363123416900635,2.192767858505249,-1.1322238445281982,-0.676787793636322,2.033808469772339,4.017306327819824,0.31902870535850525,-0.5428171157836914,0.3887007236480713,0.002864307491108775
230,21787,21785,-0.05052567645907402,-0.11744653433561325,1.0559823513031006,0.45861953496932983,-2.351628303527832,-0.4259832501411438,2.034776449203491,4.016352653503418,0.31867659091949463,-0.4043218791484833,0.4040438234806061,-0.01591549627482891
231,21797,21795,-0.040592800825834274,-0.10548727959394455,1.0369153022766113,-2.616239309310913,-3.2946064472198486,-0.32919761538505554,2.034487724304199,4.016140460968018,0.31869304180145264,-0.33137327432632446,0.37476876378059387,-0.02288520708680153
232,21807,21805,-0.013194783590734005,-0.029374483972787857,1.004783272743225,-3.536015033721924,-4.573292255401611,-0.4955810606479645,2.034919261932373,4.015611171722412,0.3184792101383209,-0.17327745258808136,0.31772831082344055,-0.03990554437041283
233,21817,21815,-0.0339961014688015,0.05908598750829697,1.0143572092056274,-5.575772762298584,-3.515442132949829,-0.4657931625843048,2.034257411956787,4.015556335449219,0.3183811604976654,-0.3302038013935089,0.23757655918598175,-0.06923660635948181
234,21827,21825,-0.019039997830986977,0.11690851300954819,1.0123051404953003,-5.273263454437256,-1.1893393993377686,0.6953350901603699,2.0369718074798584,4.015493869781494,0.31773123145103455,-0.2751966118812561,0.15047051012516022,-0.0706699788570404
235,21837,21835,0.002926615299656987,0.11077101528644562,1.009781002998352,-4.300498962402344,-0.465954452753067,0.38008493185043335,2.037529468536377,4.0152482986450195,0.31755197048187256,-0.2437957376241684,0.23115608096122742,-0.07162483781576157
236,21847,21845,0.0104703139513731,-0.09725688397884369,1.0125099420547485,-1.5646941661834717,-0.08248353749513626,0.5459153056144714,2.0376579761505127,4.014779090881348,0.31740373373031616,-0.30867999792099,0.18265178799629211,-0.037153784185647964
237,21857,21855,0.011671100743114948,-0.05296845734119415,1.0133057832717896,0.30384260416030884,-1.387364387512207,0.6092248558998108,2.0390052795410156,4.015414714813232,0.3172079920768738,-0.2695925533771515,0.17504383623600006,-0.016325298696756363
238,21867,21865,0.03027145378291607,-0.0723290741443634,1.0213977098464966,0.6796519756317139,-1.934682846069336,0.06862828880548477,2.039238214492798,4.015151500701904,0.3167119324207306,-0.30181583762168884,0.17400991916656494,-0.011995232664048672
239,21877,21875,0.013499288819730282,-0.11211118847131729,1.0135774612426758,1.0938820838928223,-2.0685508251190186,1.050690770149231,2.040210008621216,4.015153408050537,0.31652212142944336,-0.24887089431285858,0.1864141970872879,0.004055651370435953
