,timestamp_start,timestamp_end,acc.x,acc.y,acc.z,gyro.x,gyro.y,gyro.z,stateEstimate.x,stateEstimate.y,stateEstimate.z,stabilizer.pitch,stabilizer.roll,stabilizer.yaw
0,36552,36548,0.0056016347371041775,-0.041834309697151184,1.0221383571624756,-0.08875250816345215,-9.960529327392578,1.5220823287963867,2.085466146469116,4.034116268157959,0.16229814291000366,0.01130941417068243,1.0217700004577637,2.6809115409851074
1,36562,36558,0.030356211587786674,0.04640347138047218,0.9729412198066711,-6.839907169342041,-10.17409610748291,1.9469985961914062,2.0850963592529297,4.034607887268066,0.16485854983329773,0.2739359438419342,0.8853446841239929,2.707200527191162
2,36572,36568,-0.009247650392353535,0.0661412701010704,1.0820162296295166,-14.10250186920166,-10.859527587890625,1.8894002437591553,2.0856242179870605,4.036041736602783,0.16634830832481384,0.44755738973617554,0.7915530204772949,2.7348906993865967
3,36582,36578,0.012182829901576042,-0.01600348763167858,1.0705066919326782,-17.59269905090332,-11.156717300415039,1.5821768045425415,2.084247350692749,4.0360565185546875,0.166580930352211,0.8565266132354736,0.5888413190841675,2.7811660766601562
4,36592,36588,0.02996041066944599,0.009121685288846493,0.9585199952125549,-19.896831512451172,-6.101564884185791,1.677668809890747,2.0840113162994385,4.037288188934326,0.16792450845241547,1.0656368732452393,0.3399258255958557,2.808692216873169
5,36602,36598,0.015056450851261616,-0.06575114279985428,1.0306859016418457,-17.576906204223633,1.1382453441619873,1.6170475482940674,2.0832133293151855,4.0356574058532715,0.16897423565387726,1.193588137626648,0.21272987127304077,2.8348748683929443
6,36612,36608,0.018152711912989616,-0.13316838443279266,1.1455597877502441,-14.40235424041748,6.8223042488098145,1.680795669555664,2.082427740097046,4.035630226135254,0.17042262852191925,1.1312885284423828,-0.10725424438714981,2.853954553604126
7,36622,36618,0.007315188180655241,-0.07074946165084839,1.0966486930847168,-8.398056030273438,10.414188385009766,1.7785474061965942,2.081239938735962,4.035159587860107,0.17165535688400269,1.1365300416946411,-0.2536008954048157,2.88090181350708
8,36632,36628,-0.017955012619495392,0.08572641015052795,1.0519453287124634,-2.3178482055664062,12.596283912658691,1.5241079330444336,2.081031084060669,4.033557415008545,0.17316552996635437,0.9839330911636353,-0.22202639281749725,2.8870623111724854
9,36642,36638,-0.008903673849999905,-0.03465479239821434,1.1650898456573486,0.45261818170547485,12.32297134399414,1.360718846321106,2.08107852935791,4.034688949584961,0.1748548299074173,0.8169358968734741,-0.36015141010284424,2.9109463691711426
10,36652,36648,0.024038812145590782,-0.12031629681587219,1.142591953277588,3.456287145614624,10.78076457977295,1.4593850374221802,2.07952618598938,4.036295413970947,0.17423701286315918,0.8337570428848267,-0.3405051827430725,2.9328126907348633
11,36662,36658,0.014545930549502373,-0.06567049026489258,1.0746361017227173,3.276520013809204,9.019560813903809,1.6957708597183228,2.078240394592285,4.036215305328369,0.17598512768745422,0.6014824509620667,-0.2776581346988678,2.939743995666504
12,36672,36668,-0.0076999356970191,-0.055518824607133865,1.097845435142517,1.194667100906372,6.643858432769775,1.7910785675048828,2.0767362117767334,4.03488826751709,0.17764036357402802,0.765649676322937,-0.23828209936618805,2.964380979537964
13,36682,36678,0.0006188429542817175,0.06030518561601639,1.0782545804977417,-0.7815263867378235,1.7726691961288452,2.2036547660827637,2.0768840312957764,4.036395072937012,0.1792069673538208,0.6122375130653381,-0.28829386830329895,2.9833199977874756
14,36692,36688,0.008487725630402565,0.06870326399803162,1.1171637773513794,-3.4072718620300293,1.6041905879974365,1.6039150953292847,2.076321840286255,4.036244869232178,0.18107500672340393,0.6722833514213562,-0.3724227845668793,3.01305890083313
15,36702,36698,0.033919721841812134,-0.06613331288099289,1.093204379081726,-4.841955661773682,2.656658411026001,1.2737499475479126,2.0755820274353027,4.035903453826904,0.18313591182231903,0.6442244052886963,-0.4212040305137634,3.0298690795898438
16,36712,36708,0.019493505358695984,-0.1330767273902893,1.0310311317443848,-3.2594776153564453,4.752242088317871,0.8662891983985901,2.076288938522339,4.039319038391113,0.18446728587150574,0.30509787797927856,-0.5417079925537109,3.039762258529663
17,36722,36718,0.029062747955322266,-0.07141808420419693,1.0465606451034546,-1.0867074728012085,5.552313804626465,0.9268892407417297,2.0748274326324463,4.042766094207764,0.18677212297916412,0.5442289710044861,-0.6971359848976135,3.0577964782714844
18,36732,36728,0.05627012625336647,-0.062032513320446014,1.0796668529510498,1.2623543739318848,5.449979782104492,0.5124739408493042,2.0743601322174072,4.0464959144592285,0.18913422524929047,0.3740651309490204,-0.7188618183135986,3.0658719539642334
19,36742,36738,0.012676519341766834,0.01742607168853283,1.0768595933914185,4.357423782348633,5.1910080909729,1.1654709577560425,2.0747976303100586,4.048649311065674,0.19143971800804138,0.29887327551841736,-0.6924991011619568,3.070467472076416
20,36752,36748,-0.011271560564637184,0.006154907867312431,1.09371817111969,8.862675666809082,5.887186527252197,0.1991007924079895,2.073148250579834,4.046518325805664,0.19357652962207794,0.36954912543296814,-0.4739660620689392,3.0779244899749756
21,36762,36758,0.04226866737008095,-0.04989159479737282,1.034521222114563,11.102643013000488,5.951711177825928,0.5120964050292969,2.073434829711914,4.048106670379639,0.19603967666625977,0.27292653918266296,-0.35387396812438965,3.086834192276001
22,36772,36768,0.001241754973307252,0.02526048943400383,1.0765600204467773,11.244985580444336,4.3603835105896,-0.02070814184844494,2.073423385620117,4.050686359405518,0.198619082570076,0.21300780773162842,-0.3407217264175415,3.090519666671753
23,36782,36778,0.0021049908827990294,-0.09272600710391998,0.9550279974937439,7.840487003326416,6.432240962982178,0.28349000215530396,2.070282459259033,4.0507588386535645,0.20096388459205627,0.4826187491416931,-0.12175391614437103,3.0791444778442383
24,36792,36788,-0.0026990610640496016,-0.05367140471935272,0.9905188679695129,2.4996843338012695,6.96265172958374,0.16028018295764923,2.0697154998779297,4.0521650314331055,0.20622822642326355,0.27325284481048584,0.10885098576545715,3.0911099910736084
25,36802,36798,0.01862321048974991,-0.009044685401022434,1.0188326835632324,-2.3099451065063477,9.108757019042969,-0.08877960592508316,2.0695760250091553,4.05609655380249,0.20726898312568665,0.13709577918052673,-0.4922395348548889,3.075660467147827
26,36812,36808,0.024079887196421623,-0.05744466930627823,0.9495173692703247,-5.230658531188965,9.172940254211426,-0.26942819356918335,2.067274332046509,4.057160377502441,0.2119530886411667,0.2027229368686676,-0.16028691828250885,3.0848207473754883
27,36822,36818,-0.025029851123690605,-0.059678815305233,0.9858438968658447,-5.845494747161865,12.402153968811035,-0.4993780255317688,2.067537546157837,4.0576581954956055,0.21476151049137115,0.04036356508731842,-0.11822325736284256,3.0884220600128174
28,36832,36828,-0.0017027165740728378,-0.049595218151807785,0.9585101008415222,-4.726268291473389,13.296355247497559,-0.6865032315254211,2.0663089752197266,4.057956218719482,0.22027981281280518,-0.18922875821590424,-0.23682983219623566,3.0806305408477783
29,36842,36838,0.030533824115991592,-0.13312594592571259,1.0021097660064697,-3.0731360912323,12.263970375061035,-0.6715600490570068,2.0661232471466064,4.059678554534912,0.21888726949691772,-0.272138774394989,-0.3284895122051239,3.070392370223999
30,36852,36848,0.08204765617847443,-0.1392100751399994,0.9582883715629578,0.24676835536956787,9.111889839172363,-0.7042190432548523,2.0657169818878174,4.059812068939209,0.22151035070419312,-0.48522788286209106,-0.38097402453422546,3.062563180923462
31,36862,36858,0.03203469514846802,-0.12482979893684387,0.9744442105293274,3.3941433429718018,5.770291805267334,-1.6456694602966309,2.065214157104492,4.059208393096924,0.22413571178913116,-0.6189030408859253,-0.15478667616844177,3.0727200508117676
32,36872,36868,-0.010118355043232441,-0.1602974385023117,0.9539158940315247,6.229928016662598,1.9849804639816284,-1.735849142074585,2.0658950805664062,4.060710430145264,0.22674867510795593,-0.7518610954284668,-0.1999926120042801,3.045844316482544
33,36882,36878,-0.05385040119290352,-0.08894102275371552,0.917836606502533,6.931317329406738,-2.159379720687866,-1.6140869855880737,2.0634992122650146,4.060952186584473,0.22995685040950775,-0.5762571692466736,-0.10572896152734756,3.0308427810668945
34,36892,36888,-0.049483772367239,-0.009971666149795055,0.9257204532623291,5.235226154327393,-4.041140079498291,-1.739438772201538,2.0617551803588867,4.063619136810303,0.23243187367916107,-0.4404943287372589,-0.01624569669365883,3.0202558040618896
35,36902,36898,-0.0042700557969510555,0.00595984747633338,0.9402620792388916,1.1412171125411987,-2.971163272857666,-2.0128045082092285,2.061875343322754,4.06346321105957,0.2348141372203827,-0.4391392171382904,0.17537732422351837,3.0239903926849365
36,36912,36908,-0.017552541568875313,0.012428639456629753,0.9716781973838806,-1.59835684299469,-2.0637853145599365,-1.9968961477279663,2.064619779586792,4.068460464477539,0.24125511944293976,-0.8312357664108276,-0.1543431133031845,2.951639413833618
37,36922,36918,-0.04905877262353897,0.025638502091169357,0.9815163612365723,-4.449641704559326,0.23359087109565735,-1.7103419303894043,2.0650432109832764,4.067896366119385,0.24636803567409515,-0.8984664082527161,-0.12966085970401764,2.9403598308563232
38,36932,36928,-0.004234926775097847,-0.021080054342746735,0.9214762449264526,-4.707634925842285,-0.9289928674697876,-1.2655799388885498,2.064675807952881,4.069655895233154,0.24635416269302368,-0.904077410697937,-0.21735456585884094,2.9193918704986572
39,36942,36938,-0.016404971480369568,0.09888582676649094,0.9415873289108276,-2.877939224243164,-4.198474884033203,-1.071291208267212,2.059629440307617,4.073042392730713,0.24990253150463104,-0.36924687027931213,-0.5111598968505859,2.867607831954956
40,36952,36948,0.0007240462000481784,0.13869673013687134,0.9191201329231262,0.15819735825061798,-5.136048793792725,-1.352113127708435,2.0527849197387695,4.073289394378662,0.25441810488700867,0.21856027841567993,-0.5254438519477844,2.8612570762634277
41,36962,36958,0.051011890172958374,0.07978798449039459,0.8765994310379028,6.0260467529296875,-1.9770312309265137,-1.5304858684539795,2.052806854248047,4.0738935470581055,0.2570742666721344,0.15009817481040955,-0.47578945755958557,2.8507654666900635
42,36972,36968,0.11777566373348236,0.040380481630563736,0.8646073341369629,10.297857284545898,7.239863395690918,-1.378429889678955,2.0536508560180664,4.0732502937316895,0.2573713958263397,0.02596207708120346,-0.3291913568973541,2.84294056892395
43,36982,36978,0.09165798127651215,0.05034042149782181,0.9207535982131958,12.291960716247559,14.235679626464844,-1.0516372919082642,2.052558422088623,4.074403285980225,0.26077690720558167,-0.1607857048511505,-0.05854004621505737,2.8488051891326904
44,36992,36988,0.06797070801258087,-0.07398789376020432,0.857048749923706,10.567935943603516,17.523271560668945,-1.6238195896148682,2.053762435913086,4.076322078704834,0.26328182220458984,-0.5846414566040039,0.14374658465385437,2.8483834266662598
45,37002,36998,0.07038159668445587,-0.0614471510052681,0.8506920337677002,6.871636390686035,17.024263381958008,-1.3730628490447998,2.053040027618408,4.078402996063232,0.26548734307289124,-0.719761312007904,0.14921583235263824,2.8217453956604004
46,37012,37008,-0.02282991074025631,0.0502161905169487,0.9112006425857544,1.254845380783081,11.826807975769043,-1.1445740461349487,2.0526669025421143,4.080343246459961,0.26765143871307373,-0.9015246033668518,0.3132554590702057,2.825227975845337
47,37022,37018,-0.050686102360486984,0.09347055852413177,0.9302120208740234,-4.324127674102783,6.709358215332031,-1.1889257431030273,2.053264856338501,4.081753730773926,0.26963818073272705,-1.166035532951355,0.21431797742843628,2.796994924545288
48,37032,37028,-0.024481892585754395,0.05520492419600487,0.9561737775802612,-6.731954574584961,-0.9587727785110474,-1.2201684713363647,2.0533347129821777,4.08338737487793,0.2714288532733917,-1.3118972778320312,0.25985944271087646,2.795874834060669
49,37042,37038,0.006503634620457888,-0.03415527567267418,0.9421665668487549,-9.203607559204102,-6.059042453765869,-0.8339107632637024,2.0523550510406494,4.084648609161377,0.2733217179775238,-1.240257740020752,0.10588561743497849,2.774503469467163
50,37052,37048,0.11186167597770691,-0.12520793080329895,0.8967489004135132,-8.545502662658691,-14.454938888549805,-0.6116638779640198,2.0518276691436768,4.0861101150512695,0.27508383989334106,-1.2017027139663696,0.01821018010377884,2.7649991512298584
51,37062,37058,0.023352667689323425,-0.016869982704520226,0.9226486682891846,-6.332053184509277,-18.214122772216797,-0.5310920476913452,2.0507395267486572,4.086002349853516,0.2767881453037262,-0.9563643336296082,0.02754695899784565,2.7784862518310547
52,37072,37068,0.00027060217689722776,-0.0009895432740449905,0.9175422191619873,-3.2134947776794434,-15.489203453063965,-0.301893025636673,2.0490901470184326,4.086536884307861,0.2784368395805359,-0.6813902258872986,-0.0765104666352272,2.7647557258605957
53,37082,37078,0.0501423142850399,-0.05721152946352959,0.8855894207954407,0.5870131254196167,-13.346211433410645,-0.17608261108398438,2.0480456352233887,4.0878071784973145,0.2790653705596924,-0.5155038833618164,-0.04550475627183914,2.7648470401763916
54,37092,37088,-0.05041108652949333,0.05917423591017723,0.8862494230270386,1.5755919218063354,-7.71462869644165,-0.011102517135441303,2.0503885746002197,4.087650775909424,0.28065255284309387,-0.6655445098876953,-0.04765127971768379,2.7485408782958984
55,37102,37098,-0.1060316264629364,0.1491864174604416,0.8775444626808167,1.7748502492904663,-2.575543165206909,0.02248276211321354,2.05100417137146,4.088089466094971,0.2818544805049896,-0.7458298206329346,0.03637709096074104,2.754509449005127
56,37112,37108,-0.031268928200006485,0.13230614364147186,0.8814612030982971,-0.08916322886943817,-0.3491457998752594,-0.015623965300619602,2.0519864559173584,4.089633464813232,0.2807762920856476,-0.8928388357162476,0.09509241580963135,2.759350061416626
57,37122,37118,0.030587632209062576,-0.006400425918400288,0.8765208125114441,-1.5423173904418945,-1.8272207975387573,0.19474752247333527,2.0515663623809814,4.089069366455078,0.28169670701026917,-0.8778977394104004,0.046777982264757156,2.7562673091888428
58,37132,37128,0.0230446457862854,-0.03845880180597305,0.9026595950126648,-3.2955105304718018,-5.3897271156311035,-0.0022231335751712322,2.050726890563965,4.09224271774292,0.2825091779232025,-0.799942672252655,-0.020060230046510696,2.7456541061401367
59,37142,37138,0.061641763895750046,-0.17863814532756805,0.9666678309440613,-4.8722333908081055,-9.300063133239746,0.5309323072433472,2.050549030303955,4.090149402618408,0.2820650339126587,-0.6544544100761414,0.2673934996128082,2.8179261684417725
60,37152,37148,0.07556963711977005,-0.15524369478225708,0.9537076354026794,-7.33595609664917,-10.920625686645508,-0.7397518754005432,2.049123525619507,4.090089321136475,0.28250110149383545,-0.46354761719703674,0.3429507315158844,2.8407981395721436
61,37162,37158,0.11228807270526886,-0.062443770468235016,0.8649945259094238,-8.806251525878906,-11.613375663757324,-0.9588958621025085,2.04833984375,4.092414855957031,0.2830391824245453,-0.25075918436050415,0.2122308760881424,2.8260648250579834
62,37172,37168,-0.01044721994549036,0.05858169496059418,0.9292026162147522,-11.865281105041504,-11.136702537536621,-0.32188934087753296,2.0500879287719727,4.0909857749938965,0.2835112512111664,-0.31303268671035767,0.13325649499893188,2.811110734939575
63,37182,37178,-0.08393679559230804,0.12460363656282425,0.9275625348091125,-13.654104232788086,-7.17167854309082,0.3509611189365387,2.049089193344116,4.094106674194336,0.2848450243473053,-0.11662272363901138,-0.15215791761875153,2.7874767780303955
64,37192,37188,-0.08593951910734177,0.23638585209846497,0.9362819790840149,-12.545076370239258,-3.6347134113311768,1.1089882850646973,2.048815965652466,4.093194961547852,0.28517308831214905,-0.030964551493525505,-0.2804602384567261,2.795077085494995
65,37202,37198,-0.05990564078092575,0.021617254242300987,0.9951720833778381,-9.387069702148438,-2.9609627723693848,1.344797134399414,2.048198699951172,4.094589710235596,0.2854061424732208,0.033561088144779205,-0.377501517534256,2.8119587898254395
66,37212,37208,-0.029651440680027008,-0.05208848416805267,1.0711500644683838,-7.062275409698486,3.0245325565338135,1.0665596723556519,2.0484213829040527,4.0968732833862305,0.2818828225135803,-0.08072976022958755,-0.5849918127059937,2.8056833744049072
67,37222,37218,-0.02258770354092121,-0.04026517644524574,1.0971274375915527,-1.066142201423645,-1.2405263185501099,1.7953193187713623,2.0510079860687256,4.096446514129639,0.2818918824195862,-0.3085998594760895,-0.5544810891151428,2.819504499435425
68,37232,37228,-0.04377121850848198,0.042630963027477264,1.0879186391830444,3.182000160217285,-4.000905513763428,1.9890495538711548,2.049330949783325,4.095662593841553,0.28202590346336365,-0.13476581871509552,-0.35962796211242676,2.8556058406829834
69,37242,37238,-0.025377219542860985,0.15434469282627106,0.9598119258880615,3.7319626808166504,-7.147298812866211,2.0344784259796143,2.0497779846191406,4.09549617767334,0.2817980945110321,-0.10307899862527847,-0.36757415533065796,2.8701488971710205
70,37252,37248,-0.03290433809161186,0.1048048585653305,1.002284288406372,0.9610346555709839,-7.750239849090576,2.1233139038085938,2.049950361251831,4.0965495109558105,0.2819649875164032,-0.10445062816143036,-0.38729795813560486,2.887892007827759
71,37262,37258,-0.0037720962427556515,-0.0028573595918715,1.0378862619400024,-2.5486152172088623,-12.01365852355957,2.225710153579712,2.0482864379882812,4.097650051116943,0.2821391522884369,0.07606250792741776,-0.4630683958530426,2.903986692428589
72,37272,37268,-0.030345473438501358,-0.010478390380740166,1.0305709838867188,-5.327678203582764,-12.341874122619629,2.4071452617645264,2.046933889389038,4.09756326675415,0.28058210015296936,0.3017979562282562,-0.5007976293563843,2.9205162525177
73,37282,37278,-0.003345952834933996,-0.09957246482372284,1.0256354808807373,-7.209042072296143,-11.50513744354248,2.6843607425689697,2.049196720123291,4.09898042678833,0.2807168662548065,0.1333368867635727,-0.5777095556259155,2.94266676902771
74,37292,37288,-0.008293699473142624,-0.09202602505683899,1.0166642665863037,-7.078621864318848,-9.672649383544922,2.731642484664917,2.0488924980163574,4.099183559417725,0.2808624505996704,0.2768263518810272,-0.7500867247581482,2.9644484519958496
75,37302,37298,0.004633166361600161,-0.032653581351041794,1.0098017454147339,-4.929084300994873,-8.035168647766113,2.8101651668548584,2.0494744777679443,4.100050449371338,0.2810172736644745,0.3107548654079437,-0.7338052988052368,2.9986824989318848
76,37312,37308,0.004777186084538698,0.007458018604665995,1.0347636938095093,-3.546351194381714,-7.579527854919434,3.3414864540100098,2.049877643585205,4.1016106605529785,0.28359559178352356,0.3946763277053833,-0.8505457639694214,3.0245578289031982
77,37322,37318,0.01224565226584673,0.04774634912610054,1.0994257926940918,-0.7819179892539978,-6.030819892883301,2.6584038734436035,2.0493290424346924,4.100419998168945,0.28395572304725647,0.46931806206703186,-0.767600953578949,3.0589945316314697
78,37332,37328,0.009072184562683105,0.03650457784533501,1.0561209917068481,2.3983094692230225,-5.330112457275391,2.3859457969665527,2.0487477779388428,4.100560188293457,0.28433045744895935,0.6020123362541199,-0.7992355227470398,3.081066131591797
79,37342,37338,-0.05692209675908089,0.028297023847699165,0.9997812509536743,3.24363374710083,-5.875768661499023,2.6174721717834473,2.0476949214935303,4.100353717803955,0.28592637181282043,0.7290614247322083,-0.784907877445221,3.1004557609558105
80,37352,37348,-0.05876849219202995,0.06293509900569916,1.0236239433288574,3.5576982498168945,-4.704689025878906,2.6739425659179688,2.047462224960327,4.100166320800781,0.2865200936794281,0.7608820199966431,-0.7593153715133667,3.1296536922454834
81,37362,37358,0.012028835713863373,-0.02327284775674343,1.0347791910171509,3.9082534313201904,-5.374974250793457,2.17327618598938,2.0479958057403564,4.100769996643066,0.28711411356925964,0.7743627429008484,-0.7338541150093079,3.1588354110717773
82,37372,37368,-0.005929020699113607,-0.04633775353431702,0.9735093712806702,3.9482011795043945,-1.8626224994659424,1.5563206672668457,2.0479583740234375,4.101056098937988,0.28744399547576904,0.8527153134346008,-0.6940500736236572,3.175570249557495
83,37382,37378,-0.03040214441716671,-0.019054928794503212,0.9011237025260925,1.3365812301635742,-0.3011109530925751,1.7518205642700195,2.048676013946533,4.100967884063721,0.2880347967147827,0.7299037575721741,-0.6795976161956787,3.2031404972076416
84,37392,37388,-0.04201830178499222,0.006996849086135626,1.029048204421997,1.4917168617248535,0.2943466603755951,1.1447681188583374,2.0480687618255615,4.100380897521973,0.28856924176216125,0.7591062784194946,-0.6809888482093811,3.2161011695861816
85,37402,37398,0.07613169401884079,-0.1626502275466919,0.9463460445404053,0.8915892839431763,-0.5963987112045288,0.9637839794158936,2.047910213470459,4.100661277770996,0.289045125246048,0.760607898235321,-0.6813289523124695,3.226162910461426
86,37412,37408,0.03736433386802673,-0.07331343740224838,0.9884069561958313,0.04813568666577339,-1.1244326829910278,1.7554837465286255,2.048029899597168,4.101289749145508,0.2887834310531616,0.7949296236038208,-0.6934220790863037,3.240427017211914
87,37422,37418,0.12943850457668304,-0.2377723753452301,1.0432668924331665,1.6616238355636597,-2.3553266525268555,0.6845728158950806,2.0475034713745117,4.10167121887207,0.2891862988471985,0.864850640296936,-0.6149135231971741,3.247431755065918
88,37432,37428,0.06673462688922882,-0.14629381895065308,1.0103259086608887,2.781480312347412,-1.3556658029556274,0.3076625168323517,2.0477538108825684,4.104382514953613,0.2896204888820648,0.8545454740524292,-0.5950759649276733,3.2484655380249023
89,37442,37438,0.034467633813619614,-0.03629149869084358,0.9907914400100708,3.113489866256714,0.2492874562740326,0.06995455920696259,2.047736406326294,4.104485034942627,0.290740430355072,0.8752202391624451,-0.5938364863395691,3.2456130981445312
90,37452,37448,0.030705822631716728,-0.06683526933193207,1.0794706344604492,3.3562753200531006,1.2578933238983154,-0.2767035663127899,2.04707932472229,4.105605602264404,0.29127010703086853,0.9024011492729187,-0.559419572353363,3.2469899654388428
91,37462,37458,0.028620412573218346,-0.1518872231245041,1.0664535760879517,2.8077428340911865,4.060631275177002,-0.25524306297302246,2.047445774078369,4.106130123138428,0.2917814552783966,0.9115559458732605,-0.529895007610321,3.2468161582946777
92,37472,37468,-0.005427682306617498,-0.07490300387144089,1.0500229597091675,2.3174986839294434,5.881369590759277,-0.3903328776359558,2.046165704727173,4.105393409729004,0.28986164927482605,0.9635837078094482,-0.4952132999897003,3.240522861480713
93,37482,37478,-0.04047739505767822,0.05067793279886246,0.9534198641777039,1.8663681745529175,9.39415168762207,-0.050193119794130325,2.0462875366210938,4.105248928070068,0.2903836965560913,0.8886001110076904,-0.459179550409317,3.236502170562744
94,37492,37488,0.03748072311282158,-0.19920983910560608,0.942744255065918,1.4396798610687256,6.73028564453125,-0.29920947551727295,2.0454750061035156,4.1045122146606445,0.2908998727798462,0.8171207904815674,-0.4344934821128845,3.231813669204712
95,37502,37498,-0.02761870250105858,-0.10444740951061249,1.0953954458236694,1.8803834915161133,2.606160879135132,-0.6405198574066162,2.0453646183013916,4.104146480560303,0.29134395718574524,0.6977647542953491,-0.427110493183136,3.2335455417633057
96,37512,37508,-0.0968995913863182,-0.10059340298175812,1.0810011625289917,1.6201449632644653,6.500636577606201,-1.2041057348251343,2.0454719066619873,4.105169773101807,0.29134851694107056,0.6440854072570801,-0.4164990186691284,3.226813793182373
97,37522,37518,-0.120093934237957,0.10794814676046371,1.0116273164749146,1.6954158544540405,6.484002113342285,-1.0920743942260742,2.0455322265625,4.105000972747803,0.29188811779022217,0.5631048679351807,-0.39770272374153137,3.2114832401275635
98,37532,37528,-0.04242681711912155,0.2166348099708557,1.0027294158935547,2.9779231548309326,4.660923957824707,-1.1618742942810059,2.044541120529175,4.104889392852783,0.29246070981025696,0.6057291626930237,-0.3739679455757141,3.1949832439422607
99,37542,37538,0.006722742225974798,0.07475648075342178,0.9967458844184875,3.6744420528411865,2.5193235874176025,-1.365984320640564,2.044085741043091,4.104384899139404,0.2921791076660156,0.5113044381141663,-0.33434075117111206,3.183020830154419
100,37552,37548,-0.01041506975889206,0.03747555986046791,0.9930761456489563,4.351175308227539,0.6009308695793152,-1.596593976020813,2.044074058532715,4.104150772094727,0.29267337918281555,0.4600415527820587,-0.28320029377937317,3.167642831802368
101,37562,37558,-0.06011626869440079,0.06705428659915924,0.9873936772346497,4.141347408294678,1.1709723472595215,-1.8743654489517212,2.043968915939331,4.10513162612915,0.2931871712207794,0.43572598695755005,-0.29680562019348145,3.1548867225646973
102,37572,37568,0.0007416734588332474,0.006017422303557396,1.0066070556640625,2.7502353191375732,4.31513786315918,-1.5758628845214844,2.0429656505584717,4.104265213012695,0.29503312706947327,0.46930184960365295,-0.2323724925518036,3.1286520957946777
103,37582,37578,0.05104922130703926,-0.06962655484676361,1.0300004482269287,2.9244983196258545,1.6476349830627441,-1.6483418941497803,2.0431058406829834,4.106457233428955,0.2956072688102722,0.4026486873626709,-0.1950758546590805,3.1060879230499268
104,37592,37588,0.007476300932466984,0.014344779774546623,0.9924602508544922,2.4935593605041504,1.732046365737915,-2.010615587234497,2.0428555011749268,4.105771064758301,0.2961839735507965,0.3702450096607208,-0.15717792510986328,3.095179796218872
105,37602,37598,0.017460517585277557,-0.04232366010546684,0.9673131704330444,3.0060248374938965,2.2991316318511963,-2.175588369369507,2.0428640842437744,4.10863733291626,0.29689234495162964,0.3259977102279663,-0.1975410431623459,3.0751452445983887
106,37612,37608,0.0744137316942215,-0.01512810681015253,0.9626418948173523,3.171318531036377,3.316396713256836,-2.407824754714966,2.042795181274414,4.108389377593994,0.29748794436454773,0.3190510869026184,-0.07332093268632889,3.0467467308044434
107,37622,37618,0.06960900872945786,-0.04034096747636795,0.9890759587287903,0.7744978666305542,4.225561618804932,-2.071183443069458,2.043288230895996,4.110439300537109,0.29804620146751404,0.1651376485824585,-0.11174678802490234,3.028573513031006
108,37632,37628,0.08185689896345139,-0.2561664283275604,0.9943768382072449,1.4444847106933594,2.231670618057251,-2.084634780883789,2.041909694671631,4.11128044128418,0.29868972301483154,0.3350241482257843,-0.021787036210298538,3.009464740753174
109,37642,37638,0.04241494461894035,-0.17532916367053986,0.9447506666183472,1.0306687355041504,1.6782402992248535,-1.727539300918579,2.0413265228271484,4.110850811004639,0.3007773160934448,0.28660523891448975,-0.0037810434587299824,2.988574266433716
110,37652,37648,0.05783646181225777,-0.13514283299446106,0.9637262225151062,-0.1154489517211914,2.3969504833221436,-1.6743615865707397,2.040496826171875,4.112252235412598,0.30137214064598083,0.3876892626285553,-0.0030273201409727335,2.9762470722198486
111,37662,37658,0.026685301214456558,-0.05006116256117821,0.9745219349861145,-0.41428887844085693,4.435863018035889,-2.195943832397461,2.0410866737365723,4.11184024810791,0.30200958251953125,0.24457931518554688,-0.015921181067824364,2.9600870609283447
112,37672,37668,0.014177952893078327,-0.052836284041404724,0.9550579190254211,-0.309106707572937,5.805790424346924,-1.544974684715271,2.0409412384033203,4.111507892608643,0.3000987470149994,0.17616045475006104,0.04932856932282448,2.935173273086548
113,37682,37678,0.009590639732778072,-0.001164524699561298,0.916985034942627,-0.30280041694641113,7.208673000335693,-1.7063109874725342,2.040695905685425,4.111513614654541,0.30047088861465454,0.16107913851737976,0.035537611693143845,2.9200754165649414
114,37692,37688,0.028043488040566444,0.049790430814027786,0.9110808372497559,0.2563401460647583,6.3355889320373535,-1.3526147603988647,2.0389468669891357,4.111028671264648,0.3007780611515045,0.16628070175647736,0.02426673099398613,2.905590534210205
115,37702,37698,6.254999607335776e-05,-0.005976768210530281,0.9810876846313477,0.7455260157585144,7.814731121063232,-1.23396897315979,2.0395243167877197,4.111920356750488,0.303512305021286,0.011735162697732449,0.018998920917510986,2.8904623985290527
116,37712,37708,-0.02899271249771118,-0.07087093591690063,1.00487220287323,0.5456307530403137,5.7855753898620605,-1.6401058435440063,2.037686824798584,4.110905170440674,0.30386221408843994,0.09903202205896378,0.09305725991725922,2.881495237350464
117,37722,37718,-0.1862059086561203,0.0017420888179913163,1.0096746683120728,0.3860769271850586,7.268327236175537,-1.6730035543441772,2.037841320037842,4.113075256347656,0.3043377697467804,-0.09987551718950272,0.017708629369735718,2.861342668533325
118,37732,37728,-0.10666278749704361,0.08593375235795975,0.9731098413467407,-0.19532808661460876,10.134271621704102,-1.5084123611450195,2.0380284786224365,4.113862991333008,0.3047041594982147,-0.2394242137670517,0.016514375805854797,2.8356823921203613
119,37742,37738,-0.09691492468118668,0.14831207692623138,1.0532739162445068,1.0407603979110718,5.098717212677002,-1.2328159809112549,2.0375771522521973,4.114138603210449,0.3033340871334076,-0.32436293363571167,-0.00020735534781124443,2.817844867706299
120,37752,37748,-0.05322732403874397,0.10568245500326157,1.0707682371139526,2.285080909729004,-1.2724217176437378,-1.2262752056121826,2.037332773208618,4.116363525390625,0.30358022451400757,-0.3994159698486328,0.007889658212661743,2.797903299331665
121,37762,37758,-0.06347222626209259,0.22833718359470367,1.0413386821746826,2.2965505123138428,-0.8495067358016968,-0.949893593788147,2.0372843742370605,4.116275787353516,0.3039005696773529,-0.3833329975605011,0.042545851320028305,2.784855604171753
122,37772,37768,-0.03979604318737984,0.20705518126487732,0.9904729127883911,2.0661635398864746,-3.291525363922119,-1.021098256111145,2.0362255573272705,4.117875099182129,0.30684223771095276,-0.31120771169662476,0.07458595186471939,2.7772128582000732
123,37782,37778,-0.0195549838244915,0.11104584485292435,1.0286694765090942,0.9835137128829956,-4.32294225692749,-0.862139880657196,2.0373075008392334,4.119187831878662,0.3073657751083374,-0.37083888053894043,0.09206272661685944,2.768054962158203
124,37792,37788,0.0035380073823034763,0.061705511063337326,0.9870809316635132,-0.5171726942062378,-4.618932247161865,-0.8886249661445618,2.0364792346954346,4.11951208114624,0.3079104423522949,-0.3169246315956116,0.02017303742468357,2.753518581390381
125,37802,37798,-0.02759847790002823,0.09991692006587982,0.9657634496688843,-1.4600580930709839,-3.6465072631835938,-1.2582662105560303,2.03662109375,4.118961811065674,0.306729257106781,-0.2771819233894348,0.0842834934592247,2.7444381713867188
126,37812,37808,0.005218625068664551,0.025818409398198128,0.9817759394645691,-1.2000259160995483,-2.5730679035186768,-0.7553105354309082,2.0362162590026855,4.119194984436035,0.3071416914463043,-0.2438630312681198,0.047713056206703186,2.7303919792175293
127,37822,37818,0.00885958131402731,-0.1318027675151825,1.0218063592910767,-2.3836112022399902,-0.06721185147762299,-0.40420836210250854,2.0359342098236084,4.118967056274414,0.30751174688339233,-0.2215639054775238,0.084298275411129,2.7268006801605225
128,37832,37828,-0.0206088125705719,-0.17378410696983337,1.0817384719848633,-0.7575976848602295,3.032238006591797,-0.30574464797973633,2.035975217819214,4.119461536407471,0.30792152881622314,-0.2326115518808365,-0.039378754794597626,2.7167959213256836
129,37842,37838,0.01649739220738411,-0.07809071987867355,0.9944737553596497,0.989092230796814,4.195033073425293,-0.28228721022605896,2.0359537601470947,4.11863374710083,0.3080313503742218,-0.2865356206893921,0.030766285955905914,2.7164604663848877
130,37852,37848,-0.007991533726453781,-0.0022276798263192177,0.9963273406028748,1.3826342821121216,3.1738545894622803,-0.2848014831542969,2.034978151321411,4.119240760803223,0.3084605634212494,-0.27888059616088867,0.04287875071167946,2.714704990386963
131,37862,37858,0.06649792194366455,-0.11345084756612778,0.9830003976821899,1.1615227460861206,3.2787985801696777,0.07780487090349197,2.0349998474121094,4.119466304779053,0.30892735719680786,-0.34321701526641846,0.055554453283548355,2.711533784866333
132,37872,37868,0.07568582892417908,-0.09722550958395004,0.9733923077583313,0.258184552192688,-0.029154878109693527,0.1262281835079193,2.0351274013519287,4.1208930015563965,0.30721142888069153,-0.3870432376861572,0.06770360469818115,2.707355260848999
133,37882,37878,0.03979237750172615,-0.07640940696001053,0.9410600662231445,-0.426514595746994,-6.628372669219971,0.3017024099826813,2.0353870391845703,4.120862007141113,0.3074934184551239,-0.3909023404121399,0.062133945524692535,2.7072508335113525
134,37892,37888,-0.012911772355437279,-0.039934612810611725,1.022359848022461,-1.7482091188430786,-3.685879945755005,1.2551077604293823,2.0339746475219727,4.121263027191162,0.3077361583709717,-0.24480277299880981,0.04439094290137291,2.7163679599761963
135,37902,37898,0.03443242609500885,-0.10551378130912781,0.9584130644798279,-1.807791829109192,-3.8332207202911377,1.59180748462677,2.03391432762146,4.12261438369751,0.30910584330558777,-0.26698604226112366,0.005100668407976627,2.7188308238983154
136,37912,37908,-0.018358435481786728,-0.008146535605192184,0.9999848008155823,-2.6634769439697266,-2.3040168285369873,2.0047247409820557,2.0326879024505615,4.122669696807861,0.30938369035720825,-0.12343060970306396,-0.03211725875735283,2.7380151748657227
137,37922,37918,0.0031174796167761087,-0.044343654066324234,0.9679564833641052,-1.6081472635269165,-0.6057581901550293,2.1904830932617188,2.0339956283569336,4.123337268829346,0.30970656871795654,-0.24394665658473969,-0.07276289165019989,2.7493631839752197
138,37932,37928,-0.049813613295555115,0.03060172125697136,1.0522620677947998,-2.2504031658172607,0.2563081383705139,2.2857375144958496,2.0330843925476074,4.123642921447754,0.3089149296283722,-0.14489151537418365,-0.10236798971891403,2.7753801345825195
139,37942,37938,-0.04051820561289787,0.013175463303923607,0.9916207790374756,-0.8038961887359619,0.1881531924009323,2.461820363998413,2.0339419841766357,4.123136043548584,0.3091564178466797,-0.2153535783290863,-0.06150076910853386,2.8019206523895264
140,37952,37948,-0.01724654622375965,-0.05708467587828636,1.0132628679275513,-0.2635248601436615,0.6105189919471741,2.886068105697632,2.0343337059020996,4.123040676116943,0.30939677357673645,-0.22127500176429749,-0.004864285234361887,2.834728240966797
141,37962,37958,0.013472666032612324,-0.08165246993303299,0.9923750758171082,0.32860416173934937,4.752204895019531,2.513482093811035,2.0339999198913574,4.122817039489746,0.3096512258052826,-0.23356366157531738,-0.020351869985461235,2.86202073097229
142,37972,37968,-0.037771742790937424,0.10921020060777664,1.0321425199508667,0.8077924847602844,-0.512849748134613,3.1659462451934814,2.033723831176758,4.123773574829102,0.3078388273715973,-0.30103421211242676,-0.033578310161828995,2.878488779067993
143,37982,37978,-0.05274060741066933,0.04009575769305229,1.0188705921173096,0.23676654696464539,-3.8785970211029053,3.163846492767334,2.0328257083892822,4.123745441436768,0.3079865872859955,-0.20302464067935944,-0.0343533419072628,2.9106616973876953
144,37992,37988,-0.08420859277248383,0.10945650190114975,1.0142855644226074,-0.7620238661766052,-5.205307960510254,3.5353264808654785,2.0322532653808594,4.124595642089844,0.3081624507904053,-0.13409215211868286,-0.036867979913949966,2.943344831466675
145,38002,37998,-0.01803005486726761,0.09244395792484283,1.0195887088775635,-0.8992259502410889,-5.336399078369141,3.6643216609954834,2.0322318077087402,4.125507354736328,0.30793875455856323,-0.058633770793676376,-0.05901654064655304,2.983144998550415
146,38012,38008,0.014225520193576813,0.04778840020298958,1.036838173866272,-0.6804478764533997,-5.382775783538818,3.358880043029785,2.0316786766052246,4.1271538734436035,0.3081072270870209,0.019124438986182213,-0.1632245033979416,3.0139482021331787
147,38022,38018,0.013945119455456734,-0.001462210901081562,0.9562544226646423,0.38857898116111755,-3.455875873565674,2.9656407833099365,2.032069683074951,4.127823352813721,0.30834606289863586,0.009993962943553925,-0.09027882665395737,3.047199010848999
148,38032,38028,-0.021017100661993027,-0.0009266947745345533,0.9837802052497864,-0.1540728360414505,-0.5599297881126404,3.178705930709839,2.032177209854126,4.128106117248535,0.30355891585350037,0.05279133841395378,-0.08755888789892197,3.069671630859375
149,38042,38038,0.017122216522693634,-0.0872560366988182,1.0364046096801758,2.2079379558563232,1.7981512546539307,2.731287717819214,2.0328941345214844,4.130725860595703,0.30346986651420593,-0.10070055723190308,-0.2533402442932129,3.0887129306793213
150,38052,38048,0.004310981370508671,-0.06824138015508652,1.0544053316116333,2.4220800399780273,2.8549063205718994,2.810460329055786,2.0326061248779297,4.128135681152344,0.303515762090683,-0.025541359558701515,0.03183634951710701,3.1321170330047607
151,38062,38058,0.08949200063943863,-0.1222609430551529,0.9174687266349792,3.6018857955932617,4.281388282775879,3.016690492630005,2.0311455726623535,4.127486705780029,0.303448885679245,0.02453845739364624,0.07341460138559341,3.1656713485717773
152,38072,38068,0.1423935890197754,-0.20595523715019226,0.9621639251708984,1.2214032411575317,2.7531566619873047,2.3052594661712646,2.031505584716797,4.127289295196533,0.3065723478794098,-0.07911163568496704,0.1070590689778328,3.1968274116516113
153,38082,38078,0.07229258120059967,-0.1802154928445816,0.9746280312538147,-0.4190320372581482,0.22733956575393677,2.0952212810516357,2.031306266784668,4.126360893249512,0.30661439895629883,-0.12014100700616837,0.1869080662727356,3.222019672393799
154,38092,38088,0.02244175225496292,-0.0586748868227005,0.9405603408813477,-4.362423896789551,-1.9862473011016846,1.6326749324798584,2.031311511993408,4.1269307136535645,0.3066287338733673,-0.10498584806919098,0.14506107568740845,3.2414276599884033
155,38102,38098,-0.012743555940687656,-0.06974063813686371,1.0254002809524536,-6.737987518310547,-4.941720962524414,1.49973464012146,2.031049966812134,4.128361225128174,0.30459073185920715,-0.0553356297314167,-0.03600143641233444,3.2560932636260986
156,38112,38108,-0.03764597699046135,-0.043891508132219315,1.0742182731628418,-6.590392589569092,-4.022596836090088,1.2068092823028564,2.030670166015625,4.126716613769531,0.30460992455482483,0.03284493461251259,0.07624778896570206,3.2743120193481445
157,38122,38118,-0.03537632152438164,-0.08088040351867676,1.0344425439834595,-5.7330169677734375,-1.6439182758331299,1.5034034252166748,2.030026435852051,4.128799915313721,0.30448853969573975,0.09673117846250534,-0.05877057462930679,3.2786478996276855
158,38132,38128,0.024069763720035553,-0.1703340709209442,0.9773756861686707,-3.919658899307251,-2.7718544006347656,1.9109187126159668,2.03001070022583,4.129383087158203,0.30464720726013184,0.1333063691854477,-0.16375572979450226,3.2873356342315674
159,38142,38138,0.001996051985770464,0.009693478234112263,1.0323277711868286,-2.049804449081421,-0.2906935214996338,1.4678905010223389,2.02944278717041,4.129275321960449,0.30461737513542175,0.15390241146087646,-0.07326264679431915,3.309221029281616
160,38152,38148,-0.11110103130340576,0.1581636369228363,0.9966329336166382,-0.9291605949401855,0.5181812047958374,1.7765774726867676,2.029644250869751,4.129749298095703,0.3046179711818695,0.20200638473033905,-0.029122691601514816,3.3257200717926025
161,38162,38158,-0.05024689808487892,0.08918380737304688,0.9999639987945557,-2.431094169616699,3.2790162563323975,1.9312546253204346,2.0292365550994873,4.128948211669922,0.304566890001297,0.16580244898796082,-0.00362570583820343,3.350034713745117
162,38172,38168,-0.021398106589913368,-0.0006087400834076107,1.0441935062408447,-4.246919631958008,3.887053966522217,1.8479318618774414,2.029512405395508,4.13118839263916,0.304051011800766,0.09162207692861557,-0.08564598858356476,3.358330488204956
163,38182,38178,-0.013291827403008938,0.0817049890756607,0.980819821357727,-6.188718318939209,3.3853611946105957,2.52249813079834,2.029888868331909,4.131467342376709,0.3040677011013031,0.01320093497633934,-0.18923364579677582,3.3764524459838867
164,38192,38188,-0.031114358454942703,0.10721942782402039,1.0189695358276367,-6.659841537475586,2.076917886734009,2.1696836948394775,2.028658151626587,4.131354808807373,0.30409178137779236,0.020362669602036476,-0.1635056585073471,3.4013047218322754
165,38202,38198,-0.04576922208070755,0.03640821948647499,1.1135889291763306,-6.598780155181885,-0.5457314252853394,2.208920478820801,2.0297937393188477,4.131855487823486,0.30136898159980774,-0.09527339786291122,-0.3111632168292999,3.4204866886138916
166,38212,38208,-2.1775023924419656e-05,0.06514003127813339,1.0259177684783936,-4.365906238555908,-1.5815128087997437,2.514169931411743,2.029057264328003,4.132436752319336,0.3012526035308838,-0.0001858811010606587,-0.43789997696876526,3.445100784301758
167,38222,38218,-0.0013782053720206022,0.1337593048810959,0.9931725263595581,-1.8439768552780151,-1.080061912536621,2.501983642578125,2.028843879699707,4.133201599121094,0.3011893928050995,0.011374596506357193,-0.5150958895683289,3.468402862548828
168,38232,38228,-0.011606660671532154,0.05471988767385483,1.0352063179016113,0.27720704674720764,-1.7707955837249756,2.434903621673584,2.0274641513824463,4.132266521453857,0.30313897132873535,0.11382970958948135,-0.46319153904914856,3.495452880859375
169,38242,38238,0.026972465217113495,-0.1217825710773468,1.0404223203659058,3.344989061355591,-3.3830714225769043,2.6946957111358643,2.029472827911377,4.1330718994140625,0.303324818611145,-0.015127147547900677,-0.3750554025173187,3.5225532054901123
170,38252,38248,0.04271557927131653,-0.0788247138261795,1.0076115131378174,3.366859197616577,-1.774537205696106,2.2424356937408447,2.029681921005249,4.133594989776611,0.3035043478012085,0.04561174288392067,-0.32800641655921936,3.5489420890808105
171,38262,38258,0.009631833992898464,-0.02080422267317772,1.024409532546997,1.7493010759353638,-1.0510181188583374,2.108693838119507,2.0288772583007812,4.132838726043701,0.30505460500717163,0.15284770727157593,-0.29465600848197937,3.580080270767212
172,38272,38268,-0.01808629184961319,0.030478505417704582,1.0139840841293335,-1.0969027280807495,0.04470112919807434,1.6908091306686401,2.0295932292938232,4.134284496307373,0.30509138107299805,0.1475152224302292,-0.30257636308670044,3.599879503250122
173,38282,38278,-0.019919315353035927,0.041971392929553986,1.035457730293274,-1.8481754064559937,-0.21134941279888153,1.1822748184204102,2.0296897888183594,4.134271621704102,0.3054587244987488,0.0636354610323906,-0.3446875512599945,3.61273193359375
174,38292,38288,-0.06737954914569855,0.07576979696750641,0.9724091291427612,-4.420849800109863,1.5149799585342407,1.4378032684326172,2.0297915935516357,4.13440465927124,0.30580487847328186,0.058171290904283524,-0.4090000092983246,3.627852201461792
175,38302,38298,0.008109412156045437,-0.035228047519922256,0.9843795895576477,-4.4429755210876465,1.32298743724823,1.5320262908935547,2.0297515392303467,4.134881019592285,0.305050253868103,0.044189248234033585,-0.4961701035499573,3.6415467262268066
176,38312,38308,0.020575255155563354,-0.1120220273733139,1.0005513429641724,-2.7858879566192627,0.07962153851985931,1.7527433633804321,2.029163122177124,4.1340837478637695,0.3052929937839508,0.028848202899098396,-0.49201783537864685,3.657351493835449
177,38322,38318,0.03592571243643761,-0.15161117911338806,0.9726260900497437,0.8370901346206665,-2.369349241256714,1.6478455066680908,2.02956485748291,4.135340690612793,0.3055526912212372,0.04011530801653862,-0.5319505929946899,3.6801681518554688
178,38332,38328,-0.0018526447238400578,-0.015410421416163445,0.9888468384742737,3.2524666786193848,-4.10900354385376,1.2360596656799316,2.0297129154205322,4.135074138641357,0.3078767657279968,0.01846485584974289,-0.5152002573013306,3.6987833976745605
179,38342,38338,0.010140086524188519,-0.02923792600631714,0.9820966124534607,4.960728645324707,-3.801225185394287,0.56264328956604,2.0293943881988525,4.135180950164795,0.3082675635814667,0.09194131195545197,-0.4616519808769226,3.709007978439331
180,38352,38348,0.004181257914751768,-0.04312656447291374,0.950676441192627,4.206088066101074,-3.813596725463867,0.5043454766273499,2.0285143852233887,4.135046005249023,0.30861756205558777,0.23232631385326385,-0.3866669237613678,3.7114601135253906
181,38362,38358,-0.06415501236915588,0.06876348704099655,0.9750130772590637,4.215148448944092,-4.1030168533325195,-0.05204714834690094,2.0275444984436035,4.134628772735596,0.30863237380981445,0.2895146608352661,-0.3219121992588043,3.707977056503296
182,38372,38368,-0.031783577054739,0.04464416578412056,0.9567945599555969,1.431894302368164,-1.4986356496810913,-0.09645640850067139,2.028397560119629,4.135115623474121,0.3089262545108795,0.2514963150024414,-0.27242785692214966,3.7131497859954834
183,38382,38378,-0.027891119942069054,-0.0034525692462921143,1.0238186120986938,-1.0165519714355469,2.331141948699951,0.24881139397621155,2.0277202129364014,4.134506702423096,0.3091762363910675,0.256144255399704,-0.2580610513687134,3.7121496200561523
184,38392,38388,0.05783554166555405,-0.09646351635456085,0.990426242351532,-1.754367709159851,2.310518264770508,-0.9383407831192017,2.027920722961426,4.135404109954834,0.3094199001789093,0.21928197145462036,-0.291066974401474,3.712877035140991
185,38402,38398,0.011299103498458862,-0.022147666662931442,0.9958023428916931,-3.1108596324920654,2.9182846546173096,-1.385007381439209,2.0275967121124268,4.1357903480529785,0.31364843249320984,0.25759413838386536,-0.33062002062797546,3.7064733505249023
186,38412,38408,0.009549977257847786,0.029231291264295578,1.0180177688598633,-2.367037057876587,1.449712872505188,-1.2803659439086914,2.0276083946228027,4.136212348937988,0.3141896724700928,0.13656803965568542,-0.3781645596027374,3.687037944793701
187,38422,38418,-0.016442837193608284,0.1725945621728897,1.0310600996017456,-1.0962772369384766,4.39174747467041,-1.6075745820999146,2.027390480041504,4.137149333953857,0.31469690799713135,0.16937385499477386,-0.4141586422920227,3.6747584342956543
188,38432,38428,0.05980348959565163,0.06742336601018906,0.8753653168678284,2.0964560508728027,3.249737024307251,-1.675572156906128,2.0271708965301514,4.137370586395264,0.31412214040756226,0.10999803245067596,-0.4229937791824341,3.6612024307250977
189,38442,38438,0.0129170510917902,0.007717573083937168,0.9400201439857483,4.077302932739258,-0.3073585331439972,-1.8211201429367065,2.0267579555511475,4.138008117675781,0.3145627975463867,0.1515805423259735,-0.376518577337265,3.641526222229004
190,38452,38448,-0.01969102956354618,0.06312800943851471,0.9788419604301453,5.467158317565918,-0.43156203627586365,-1.710857629776001,2.0261542797088623,4.137470245361328,0.31490856409072876,0.21586285531520844,-0.3054331839084625,3.622694492340088
191,38462,38458,0.02186541073024273,-0.049589723348617554,0.9753649234771729,4.160555362701416,0.04330838844180107,-2.197819709777832,2.0255181789398193,4.137056827545166,0.31382012367248535,0.18974539637565613,-0.2259141504764557,3.601283311843872
192,38472,38468,0.021123629063367844,-0.055035464465618134,0.9568177461624146,2.3222169876098633,0.07100927084684372,-2.277308464050293,2.025766372680664,4.136794567108154,0.31399258971214294,0.16570787131786346,-0.1673261523246765,3.5788774490356445
193,38482,38478,-0.04802445322275162,0.05879845470190048,0.9987795948982239,1.1324719190597534,0.2328881025314331,-2.6003782749176025,2.0251786708831787,4.136302947998047,0.3141336441040039,0.14360027015209198,-0.13869747519493103,3.55560302734375
194,38492,38488,-0.00959888007491827,-0.017105313017964363,0.983221709728241,-1.9055843353271484,2.7723941802978516,-3.1552741527557373,2.0234107971191406,4.135841369628906,0.31421518325805664,0.2720703184604645,-0.06397824734449387,3.518584728240967
195,38502,38498,0.026461344212293625,-0.022073470056056976,0.9570262432098389,-2.3379695415496826,1.9174578189849854,-2.8238914012908936,2.022892475128174,4.136358261108398,0.3139292299747467,0.20955686271190643,-0.19136512279510498,3.493103504180908
196,38512,38508,-0.04635123163461685,0.020375879481434822,1.0233783721923828,-2.4377918243408203,2.0454306602478027,-2.7866876125335693,2.0229146480560303,4.136441707611084,0.3140013813972473,0.16210995614528656,-0.22327746450901031,3.462023973464966
197,38522,38518,0.010340552777051926,-0.005941720679402351,0.9624457955360413,-2.122373104095459,4.02093505859375,-2.8018102645874023,2.023141384124756,4.136539459228516,0.31407466530799866,0.10184843093156815,-0.2591337561607361,3.4348325729370117
198,38532,38528,-0.06207636371254921,0.10157093405723572,1.014370322227478,0.32551756501197815,-0.6394569277763367,-2.539219617843628,2.0233242511749268,4.136681079864502,0.31408068537712097,0.02998131327331066,-0.2890606224536896,3.407832384109497
199,38542,38538,0.02468789368867874,-0.06678342074155807,0.9302014708518982,0.7915652394294739,3.499751567840576,-2.786301851272583,2.023329496383667,4.136765480041504,0.31410878896713257,0.007872199639678001,-0.27489686012268066,3.3810389041900635
200,38552,38548,0.04743986949324608,0.002890069270506501,0.9444221258163452,1.1195510625839233,3.062162160873413,-2.7460389137268066,2.0228307247161865,4.136126518249512,0.31415486335754395,0.027450310066342354,-0.2558092176914215,3.351337194442749
201,38562,38558,0.012525203637778759,0.03415921702980995,1.000143051147461,2.174762725830078,-0.36831429600715637,-2.245069742202759,2.023185968399048,4.13603401184082,0.3144215941429138,-0.024487284943461418,-0.23140928149223328,3.3255929946899414
202,38572,38568,-0.03148620203137398,-0.011780526489019394,1.0235227346420288,2.2959210872650146,-1.6311386823654175,-2.2932252883911133,2.023836851119995,4.136387348175049,0.3143578767776489,-0.11093945056200027,-0.19700554013252258,3.302675724029541
203,38582,38578,0.04364939406514168,-0.056700337678194046,0.9695068001747131,1.6067951917648315,-2.1306824684143066,-1.8390175104141235,2.022991418838501,4.136364459991455,0.3143075704574585,-0.015282385982573032,-0.16052375733852386,3.278285503387451
204,38592,38588,-0.006990839261561632,0.10305625200271606,1.0387792587280273,2.5426695346832275,-3.4974594116210938,-2.077716588973999,2.0230259895324707,4.137717247009277,0.3130851984024048,0.012070980854332447,-0.20450474321842194,3.2571399211883545
205,38602,38598,0.00209184642881155,0.0050958250649273396,0.9987564086914062,1.478085994720459,-2.7198750972747803,-1.1623866558074951,2.0221965312957764,4.137384414672852,0.3131347596645355,0.05570374056696892,-0.15858210623264313,3.2387678623199463
206,38612,38608,-0.053109001368284225,0.05607862025499344,1.000178575515747,-0.20421133935451508,-0.16820259392261505,-1.561741590499878,2.0220296382904053,4.137300968170166,0.3130207657814026,0.07067295908927917,-0.13552293181419373,3.223510503768921
207,38622,38618,-0.006150663830339909,-0.0077924104407429695,0.9695709347724915,-0.8879848718643188,0.7109051942825317,-1.7635678052902222,2.022186279296875,4.136921405792236,0.31292253732681274,0.0510173998773098,-0.13796599209308624,3.2070858478546143
208,38632,38628,-0.012420989573001862,-0.02098129130899906,1.0089802742004395,-1.417724609375,3.5294785499572754,-1.4050456285476685,2.0214996337890625,4.136949062347412,0.31500059366226196,0.016827629879117012,-0.1517632156610489,3.1845273971557617
209,38642,38638,0.010459980927407742,-0.08145885914564133,0.9911250472068787,0.6709343194961548,3.5692710876464844,-1.9872406721115112,2.0216853618621826,4.137101173400879,0.31499671936035156,-0.04765160381793976,-0.16130420565605164,3.167238473892212
210,38652,38648,0.02904987707734108,0.018497657030820847,0.9571695327758789,0.35013243556022644,3.136254072189331,-1.962876319885254,2.021937131881714,4.137333393096924,0.3150177001953125,-0.1214042454957962,-0.1466616839170456,3.1467995643615723
211,38662,38658,0.016156664118170738,-0.007999015040695667,1.0157084465026855,1.8403955698013306,-0.26274266839027405,-1.665667176246643,2.0219058990478516,4.138615608215332,0.31335583329200745,-0.16008274257183075,-0.12807583808898926,3.120205879211426
212,38672,38668,-0.0029019981157034636,0.07123924046754837,1.014415979385376,2.812995433807373,0.07361972332000732,-1.5267826318740845,2.021562099456787,4.138625621795654,0.3132658004760742,-0.0836544781923294,-0.08912241458892822,3.102390766143799
213,38682,38678,0.03470481559634209,0.08060937374830246,0.9730092287063599,3.6555843353271484,-1.2648701667785645,-1.7829371690750122,2.021512985229492,4.138591766357422,0.31317561864852905,-0.07625364512205124,-0.03264741227030754,3.089453935623169
214,38692,38688,0.11540661007165909,-0.11050987243652344,0.9771239161491394,2.37017822265625,-1.653397798538208,-1.454614281654358,2.0222325325012207,4.139120101928711,0.3163214921951294,-0.13189546763896942,0.02587917260825634,3.0741262435913086
215,38702,38698,0.048805709928274155,-0.06312169879674911,1.020243525505066,2.0332703590393066,-2.5769057273864746,-1.6754592657089233,2.021785020828247,4.138912200927734,0.3163996934890747,-0.09241341799497604,0.0652041807770729,3.060239315032959
216,38712,38708,-0.006774881388992071,-0.0460357628762722,1.0051405429840088,1.5222935676574707,-2.0155067443847656,-1.473982334136963,2.0219626426696777,4.140252590179443,0.3164941072463989,-0.05092516541481018,0.02051178738474846,3.0407941341400146
217,38722,38718,0.040011245757341385,-0.17457087337970734,1.0097541809082031,0.5816326141357422,-2.219621181488037,-1.83583402633667,2.0219924449920654,4.139522075653076,0.31657859683036804,-0.01141325756907463,0.1201210618019104,3.009472370147705
218,38732,38728,0.05666523426771164,-0.19423532485961914,1.0094026327133179,1.2431058883666992,-2.1846470832824707,-2.457753896713257,2.020256757736206,4.141873836517334,0.31539687514305115,0.02845928817987442,0.05194731801748276,2.9889132976531982
219,38742,38738,0.029465848580002785,-0.06684989482164383,1.005031704902649,-1.2982593774795532,3.6357362270355225,-1.7415813207626343,2.020219326019287,4.142457962036133,0.31541749835014343,0.03460592031478882,0.057305969297885895,2.964597225189209
220,38752,38748,0.06381912529468536,-0.20912706851959229,1.0859766006469727,0.5202389359474182,0.8677446246147156,-1.8487403392791748,2.0200631618499756,4.1428656578063965,0.31549370288848877,-0.014069491997361183,0.05071089416742325,2.939239978790283
221,38762,38758,0.1024957075715065,-0.1938895732164383,0.9725314378738403,1.6900286674499512,2.3714187145233154,-1.9543973207473755,2.0187559127807617,4.144248962402344,0.3160364329814911,0.10335515439510345,0.06454640626907349,2.9165048599243164
222,38772,38768,-0.03661300614476204,0.048649612814188004,0.9465855956077576,1.0570753812789917,1.7375452518463135,-1.8531938791275024,2.0194032192230225,4.144206523895264,0.316183477640152,-0.01972241699695587,0.09054422378540039,2.8932721614837646
223,38782,38778,-0.050954416394233704,0.15237228572368622,0.9715191721916199,-0.7333903312683105,3.891476631164551,-1.397102952003479,2.018542766571045,4.144020080566406,0.31634747982025146,0.004227518569678068,0.09891388565301895,2.870823383331299
224,38792,38788,-0.06812430173158646,0.07932787388563156,1.0211975574493408,-1.7947238683700562,3.1707518100738525,-1.332742691040039,2.0187928676605225,4.144704341888428,0.3179100453853607,-0.07563307881355286,0.08133649826049805,2.855252742767334
225,38802,38798,-0.05059942603111267,0.0771816223859787,0.9785266518592834,-1.2717065811157227,1.5561240911483765,-1.0629446506500244,2.018342971801758,4.145342826843262,0.31804701685905457,-0.059015851467847824,0.0521821454167366,2.84100604057312
226,38812,38808,-0.0811339020729065,0.09287770837545395,0.9954692721366882,-2.0258145332336426,1.1181708574295044,-0.9442200660705566,2.018244504928589,4.145142555236816,0.3181878626346588,-0.10806676745414734,0.02899198979139328,2.8290364742279053
227,38822,38818,-0.055621981620788574,0.03539196774363518,1.0704338550567627,-1.1937949657440186,-0.6947807669639587,-0.6208540797233582,2.0182759761810303,4.145965099334717,0.3207862675189972,-0.13661976158618927,-0.07915064692497253,2.8186240196228027
228,38832,38828,-0.010154742747545242,-0.020891787484288216,1.0509564876556396,-0.06621447205543518,0.14131836593151093,-0.5253831744194031,2.018284320831299,4.145338535308838,0.32109230756759644,-0.1413850039243698,-0.011889083310961723,2.8124401569366455
229,38842,38838,-0.012982537038624287,0.11327829211950302,0.9964079260826111,1.545698881149292,0.21289868652820587,-0.46131888031959534,2.0181586742401123,4.145427227020264,0.32142648100852966,-0.14827997982501984,-0.009681443683803082,2.8064358234405518
230,38852,38848,0.05984250828623772,0.05672183632850647,0.9333229064941406,1.4058550596237183,1.4851768016815186,-0.46525633335113525,2.0155832767486572,4.145282745361328,0.3218720555305481,0.05980444699525833,0.02247285656630993,2.810004234313965
231,38862,38858,-0.025163698941469193,0.00790476892143488,1.0186536312103271,2.0022644996643066,-0.844184160232544,-0.013847851194441319,2.0174453258514404,4.146742820739746,0.32642385363578796,-0.18108952045440674,0.05978203937411308,2.7985141277313232
232,38872,38868,0.025218695402145386,-0.062163759022951126,0.9664819836616516,1.3893208503723145,0.7122007608413696,-0.23120056092739105,2.016711950302124,4.146597862243652,0.32701781392097473,-0.09884572774171829,0.09019201993942261,2.8004016876220703
233,38882,38878,0.06284764409065247,-0.07391833513975143,0.963529109954834,-1.7993385791778564,1.4422425031661987,-0.26135605573654175,2.0161314010620117,4.147161483764648,0.3276524245738983,-0.12385442852973938,-0.04754737392067909,2.7956628799438477
234,38892,38888,0.11685995757579803,-0.15690262615680695,0.994369387626648,-2.833538055419922,1.1347951889038086,-0.41760775446891785,2.016807794570923,4.14739465713501,0.3258037269115448,-0.2180778980255127,-0.06695324927568436,2.790757656097412
235,38902,38898,0.02870555780827999,-0.054343435913324356,1.0236940383911133,-1.6714184284210205,1.1818645000457764,-1.0936704874038696,2.0152266025543213,4.147254467010498,0.32621410489082336,-0.15336263179779053,-0.10429380089044571,2.787635087966919
236,38912,38908,0.03492535278201103,-0.013585338369011879,0.8939273357391357,0.7289956212043762,0.35689347982406616,-0.8598185181617737,2.0173373222351074,4.147828102111816,0.3265901803970337,-0.3937340974807739,-0.10413412749767303,2.7675697803497314
237,38922,38918,0.024535473436117172,-0.012521825730800629,0.9196991920471191,1.5856540203094482,-1.079577088356018,-0.48181113600730896,2.0169155597686768,4.1472930908203125,0.3302592635154724,-0.3754127025604248,-0.07901088148355484,2.7609782218933105
238,38932,38928,-0.051494866609573364,-0.14048664271831512,1.0007814168930054,2.8300602436065674,-4.770104885101318,-0.8221815228462219,2.0143749713897705,4.1471757888793945,0.33085641264915466,-0.06025616079568863,0.04176361486315727,2.7692530155181885
239,38942,38938,-0.09287643432617188,-0.0944344624876976,1.013055443763733,3.542168617248535,-4.313137054443359,-1.0534430742263794,2.014270067214966,4.146910667419434,0.33135008811950684,-0.07949855178594589,0.09055627882480621,2.7582204341888428
