,timestamp_start,timestamp_end,acc.x,acc.y,acc.z,gyro.x,gyro.y,gyro.z,stateEstimate.x,stateEstimate.y,stateEstimate.z,stabilizer.pitch,stabilizer.roll,stabilizer.yaw
0,81146,81145,0.008597184903919697,-0.083770751953125,1.0190988779067993,7.458832263946533,12.07125186920166,0.6462625861167908,1.7360179424285889,3.766589641571045,0.174857497215271,1.6115995645523071,0.43528079986572266,2.9214189052581787
1,81156,81155,0.06396815180778503,-0.01869671232998371,1.0661203861236572,5.046446800231934,18.441280364990234,0.8132563233375549,1.7357399463653564,3.7678911685943604,0.17624014616012573,1.5294173955917358,0.49549877643585205,2.935999870300293
2,81166,81165,0.09256219863891602,-0.1262819468975067,1.0951451063156128,1.4478858709335327,21.447145462036133,-0.2511049211025238,1.7364563941955566,3.7679121494293213,0.1799098402261734,1.2041642665863037,0.517711877822876,2.933793783187866
3,81176,81175,0.1564253270626068,-0.21374553442001343,1.0620388984680176,-0.6037747859954834,16.02379035949707,0.3244345486164093,1.7373826503753662,3.769423484802246,0.18167740106582642,0.8677552342414856,0.5663413405418396,2.9147253036499023
4,81186,81185,0.20376382768154144,-0.09115730971097946,0.99419105052948,-2.314830780029297,11.696664810180664,0.7387077212333679,1.7374820709228516,3.7709572315216064,0.18345899879932404,0.761651873588562,0.5644420385360718,2.9304676055908203
5,81196,81195,0.035029035061597824,-0.02856050245463848,1.0000510215759277,-3.929738759994507,4.074977397918701,0.5210415124893188,1.7330399751663208,3.7697572708129883,0.18582876026630402,1.2272348403930664,0.8230654001235962,2.977888345718384
6,81206,81205,-0.03490559756755829,0.10076754540205002,1.0989100933074951,-5.161980628967285,0.9141438603401184,0.6437771320343018,1.7312440872192383,3.7714953422546387,0.1877223253250122,1.2045537233352661,0.7247481942176819,2.997648000717163
7,81216,81215,-0.008211498148739338,0.006566587369889021,1.054641842842102,-7.959129810333252,6.005146026611328,0.6034559011459351,1.7295734882354736,3.771604299545288,0.18934254348278046,1.2869445085525513,0.6757926344871521,3.0179901123046875
8,81226,81225,0.0007524468237534165,-0.023816566914319992,1.0442147254943848,-9.98164176940918,11.650053977966309,0.8052345514297485,1.7304654121398926,3.773423671722412,0.19130383431911469,1.0583398342132568,0.510581910610199,3.0107831954956055
9,81236,81235,-0.016055183485150337,-0.006917297840118408,1.0425915718078613,-9.301679611206055,15.708301544189453,0.6098989844322205,1.7309013605117798,3.7744014263153076,0.19345742464065552,0.8348443508148193,0.40422555804252625,3.003757953643799
10,81246,81245,-0.007453780621290207,-0.0035735357087105513,1.052921175956726,-6.668057441711426,18.132282257080078,0.09515617042779922,1.730407476425171,3.774052619934082,0.1955013871192932,0.6955735087394714,0.3817618787288666,3.0060741901397705
11,81256,81255,-0.022291507571935654,0.027242770418524742,1.0616569519042969,-4.5828704833984375,14.703558921813965,0.09218479692935944,1.7294789552688599,3.7747609615325928,0.1975419819355011,0.587057888507843,0.24067407846450806,3.0286176204681396
12,81266,81265,0.008218036033213139,-0.10605968534946442,1.0321470499038696,-4.686868667602539,18.494646072387695,0.30278804898262024,1.72739577293396,3.774601697921753,0.19830551743507385,0.5816946029663086,0.21241991221904755,3.051330089569092
13,81276,81275,0.06463739275932312,-0.06154223531484604,0.9987630248069763,-2.451324701309204,14.950037956237793,0.5546786189079285,1.7270268201828003,3.7756271362304688,0.2005814015865326,0.3047415018081665,0.11583082377910614,3.047614336013794
14,81286,81285,-0.02578183077275753,0.02710314840078354,1.048764705657959,-1.9615405797958374,12.812317848205566,0.47361549735069275,1.7277439832687378,3.7754499912261963,0.20285873115062714,0.01188391912728548,0.13054633140563965,3.031031847000122
15,81296,81295,0.009804417379200459,0.0006433881935663521,1.0176647901535034,-2.265038013458252,12.826065063476562,0.026286674663424492,1.7276318073272705,3.7759151458740234,0.20545099675655365,-0.22101865708827972,0.07493851333856583,3.0248475074768066
16,81306,81305,0.07168295234441757,0.050599321722984314,1.0399192571640015,-3.103914976119995,7.54139518737793,0.11255423724651337,1.7270489931106567,3.776655912399292,0.20766229927539825,-0.3389778137207031,-0.05240378528833389,3.0277271270751953
17,81316,81315,-0.003531605703756213,0.007477013859897852,1.0518025159835815,-2.8934216499328613,1.4310729503631592,-0.37787723541259766,1.7237470149993896,3.7757341861724854,0.2099439799785614,-0.16252464056015015,-0.10439930111169815,3.0531105995178223
18,81326,81325,-0.01088939793407917,0.032394059002399445,0.9735784530639648,-1.3917183876037598,-0.16407166421413422,-0.4907454252243042,1.7219414710998535,3.7753098011016846,0.21209922432899475,-0.07712768018245697,-0.07658396661281586,3.0592172145843506
19,81336,81335,-0.04366963729262352,0.048650819808244705,1.020185947418213,0.14222122728824615,1.5255955457687378,-0.019676266238093376,1.7211787700653076,3.776179790496826,0.214549258351326,-0.19841359555721283,-0.17684504389762878,3.040654182434082
20,81346,81345,0.016153324395418167,0.020580504089593887,0.9888840317726135,1.2800401449203491,5.155366897583008,0.04248473793268204,1.7204068899154663,3.775263547897339,0.21693184971809387,-0.25945231318473816,-0.09980592876672745,3.0416595935821533
21,81356,81355,-0.018861951306462288,0.07672300934791565,1.0381759405136108,2.5169360637664795,9.276714324951172,-0.4570327401161194,1.719592809677124,3.7742013931274414,0.21954578161239624,-0.3730432093143463,-0.01166172232478857,3.0436089038848877
22,81366,81365,-0.042125336825847626,0.061969250440597534,1.0045161247253418,1.4097899198532104,11.41425895690918,-0.8217170834541321,1.7200032472610474,3.7738218307495117,0.2219625562429428,-0.612647294998169,0.011899870820343494,3.0301451683044434
23,81376,81375,-0.020707381889224052,0.09341920912265778,0.9268150925636292,-1.251871109008789,10.668161392211914,-0.7567474246025085,1.719262719154358,3.7727980613708496,0.2243361920118332,-0.7153713703155518,0.08941341936588287,3.02961802482605
24,81386,81385,-0.010057732462882996,0.0715111568570137,0.9642906785011292,-4.239346981048584,11.772292137145996,-1.4858096837997437,1.7167677879333496,3.771354913711548,0.22665663063526154,-0.5809027552604675,0.18900756537914276,3.0471110343933105
25,81396,81395,0.03159322589635849,0.06396330893039703,0.9526620507240295,-4.905954360961914,5.074197769165039,-1.0739307403564453,1.7167136669158936,3.7746007442474365,0.2308928519487381,-0.8171585202217102,-0.2699827551841736,2.9711430072784424
26,81406,81405,-0.023953121155500412,-0.01285449881106615,1.0002142190933228,-3.9556424617767334,-0.9780840277671814,-0.7042979001998901,1.7169901132583618,3.7728025913238525,0.23349502682685852,-0.9647777080535889,0.026851417496800423,3.006659984588623
27,81416,81415,-0.058242782950401306,0.024333078414201736,0.9765990972518921,-2.412580728530884,0.7160224914550781,-1.5338270664215088,1.7151086330413818,3.77274751663208,0.23590998351573944,-0.802638590335846,-0.058001477271318436,2.9976449012756348
28,81426,81425,-0.03648216649889946,0.05795460194349289,0.9924238920211792,-1.1840150356292725,0.3465712368488312,-1.5519753694534302,1.7137465476989746,3.7727603912353516,0.23814870417118073,-0.7481619715690613,-0.11680938303470612,2.978736162185669
29,81436,81435,-0.0065920595079660416,0.009484902024269104,0.9331666827201843,-0.6947416663169861,1.3892513513565063,-1.769202709197998,1.713901400566101,3.7727885246276855,0.24052372574806213,-0.8418323993682861,-0.15447278320789337,2.9546332359313965
30,81446,81445,0.031879402697086334,-0.07818843424320221,0.8926320672035217,-0.3422718346118927,3.139294385910034,-2.408449172973633,1.7127389907836914,3.7719967365264893,0.24271848797798157,-0.7255827188491821,-0.03526511415839195,2.9639267921447754
31,81456,81455,-0.009927777573466301,-0.025883713737130165,0.9535232782363892,0.4618658423423767,4.857673168182373,-2.897747755050659,1.7119276523590088,3.771871566772461,0.24466417729854584,-0.7974845767021179,-0.06827639043331146,2.9325358867645264
32,81466,81465,-0.020380089059472084,0.004527296870946884,0.9661576151847839,-0.7283779978752136,5.860769271850586,-3.180475950241089,1.7131001949310303,3.7718112468719482,0.2468990534543991,-0.9578526616096497,-0.08768333494663239,2.8948402404785156
33,81476,81475,0.09138517081737518,-0.09314197301864624,0.922920823097229,-2.8122127056121826,6.073312759399414,-2.9189131259918213,1.7124476432800293,3.773066997528076,0.24904029071331024,-1.1203014850616455,-0.12825869023799896,2.8540427684783936
34,81486,81485,0.0950411707162857,-0.1468074768781662,0.9141384959220886,-3.637389659881592,3.132781744003296,-3.548095941543579,1.7122228145599365,3.7732484340667725,0.25104862451553345,-1.1957370042800903,-0.1977262794971466,2.8153622150421143
35,81496,81495,0.04243715852499008,-0.10066047310829163,0.8995267152786255,-3.4156692028045654,0.0891796201467514,-3.829507350921631,1.7121440172195435,3.7739737033843994,0.25364363193511963,-1.2890026569366455,-0.2711907923221588,2.7710933685302734
36,81506,81505,0.013193737715482712,-0.025258442386984825,0.9196526408195496,-0.9143257737159729,-4.257220268249512,-3.7681052684783936,1.7110966444015503,3.7737643718719482,0.25560152530670166,-1.242446780204773,-0.3305986523628235,2.72664475440979
37,81516,81515,0.010194482281804085,-0.021049346774816513,0.9262562394142151,1.0294188261032104,-8.60177993774414,-3.778333902359009,1.7107203006744385,3.7725419998168945,0.25750404596328735,-1.195591688156128,-0.200984925031662,2.7205424308776855
38,81526,81525,0.020538561046123505,-0.011940399184823036,0.9263447523117065,2.146188735961914,-10.696751594543457,-4.397223949432373,1.7105337381362915,3.77329683303833,0.258402556180954,-1.1622451543807983,-0.20829463005065918,2.678382396697998
39,81536,81535,-0.06923285126686096,0.0883241519331932,0.8960623741149902,1.483852744102478,-10.013409614562988,-4.542290687561035,1.7091448307037354,3.774519681930542,0.26004987955093384,-1.006433367729187,-0.1942879855632782,2.632856845855713
40,81546,81545,0.04964796453714371,0.05352773889899254,0.9488028883934021,0.29422953724861145,-8.881606101989746,-4.528131484985352,1.7084804773330688,3.775428533554077,0.2616155445575714,-0.8562116026878357,-0.18271034955978394,2.5866756439208984
41,81556,81555,0.04192822054028511,0.008573735132813454,0.9205469489097595,0.00011595609976211563,-4.475577354431152,-4.683277606964111,1.708256483078003,3.7753612995147705,0.2623921036720276,-0.7202886343002319,-0.11420851945877075,2.552459716796875
42,81566,81565,0.013997424393892288,-0.09614039957523346,0.9094488024711609,-0.9597870707511902,-0.9731607437133789,-4.708030700683594,1.70767080783844,3.775355100631714,0.263733834028244,-0.6685351729393005,-0.1359718143939972,2.5004470348358154
43,81576,81575,-0.008129647001624107,-0.04655076563358307,0.9387469291687012,-1.3242050409317017,-0.08794613927602768,-4.639519691467285,1.708095908164978,3.7751998901367188,0.2649497985839844,-0.6758197546005249,-0.09758258610963821,2.464794158935547
44,81586,81585,0.02230224199593067,0.0635792464017868,0.9097021818161011,-2.5171663761138916,3.3747456073760986,-4.474010944366455,1.7074836492538452,3.7760696411132812,0.2661336362361908,-0.7149714231491089,-0.07880765944719315,2.426748037338257
45,81596,81595,0.043318234384059906,-0.10126098990440369,0.9407671689987183,-3.083798885345459,1.9738291501998901,-4.079422950744629,1.7064837217330933,3.7768750190734863,0.26753705739974976,-0.6415289044380188,-0.15646085143089294,2.3736684322357178
46,81606,81605,-0.00898648053407669,-0.19654758274555206,1.0118684768676758,-3.7102253437042236,0.38787320256233215,-4.374741554260254,1.7011668682098389,3.7732465267181396,0.26826798915863037,-0.1149904802441597,0.1400647610425949,2.4004437923431396
47,81616,81615,-0.03645160049200058,-0.0537586435675621,0.9954509139060974,-3.7539501190185547,3.5518975257873535,-4.696649074554443,1.7012850046157837,3.7740774154663086,0.26966264843940735,-0.23530280590057373,0.012987494468688965,2.339592218399048
48,81626,81625,-0.05933758616447449,0.010046795010566711,0.9807419180870056,-4.982062816619873,1.5068210363388062,-4.50676155090332,1.7017067670822144,3.775383710861206,0.2678717374801636,-0.3836200535297394,-0.11084406822919846,2.2793636322021484
49,81636,81635,-0.015486424788832664,0.013488246127963066,0.9498346447944641,-7.922966003417969,7.717575550079346,-3.7695186138153076,1.7012357711791992,3.774775743484497,0.2687196135520935,-0.4443017542362213,-0.10205372422933578,2.2464821338653564
50,81646,81645,0.047194577753543854,0.016930582001805305,0.9575932025909424,-9.098518371582031,9.357691764831543,-3.408818006515503,1.7023894786834717,3.7773191928863525,0.2697317898273468,-0.6557387113571167,-0.2893207371234894,2.1926162242889404
51,81656,81655,0.03193270415067673,-0.012178747914731503,0.9721629619598389,-8.558128356933594,8.723164558410645,-3.0295279026031494,1.7031534910202026,3.7770214080810547,0.2693230211734772,-0.7950335741043091,-0.4044100046157837,2.15907621383667
52,81666,81665,0.0003009289794135839,-0.020240016281604767,1.0060309171676636,-5.957629680633545,3.460317373275757,-2.689486026763916,1.7020717859268188,3.7780728340148926,0.2700079679489136,-0.8130348324775696,-0.4980849623680115,2.1272778511047363
53,81676,81675,0.036101650446653366,-0.09431853890419006,0.9807829856872559,-2.0547292232513428,-0.4744065999984741,-2.108750820159912,1.7028032541275024,3.7789454460144043,0.27067112922668457,-0.9099403619766235,-0.6178367733955383,2.090646743774414
54,81686,81685,0.03585484251379967,-0.06523176282644272,1.0103235244750977,1.6541410684585571,-4.700740814208984,-1.858344554901123,1.7025126218795776,3.7786619663238525,0.2713741362094879,-0.9307040572166443,-0.5895516276359558,2.077631711959839
55,81696,81695,0.011241222731769085,0.01069654431194067,1.0143336057662964,4.231630802154541,-7.050372123718262,-1.525121808052063,1.7027311325073242,3.7788212299346924,0.2736670970916748,-0.8844541907310486,-0.5086467862129211,2.0711896419525146
56,81706,81705,0.027543779462575912,-0.06091078370809555,0.9898685216903687,4.88958740234375,-7.218151569366455,-1.1069648265838623,1.7022696733474731,3.7782223224639893,0.2745043635368347,-0.7937871217727661,-0.4654881954193115,2.0541515350341797
57,81716,81715,0.0015578331658616662,-0.03469598665833473,1.0066754817962646,3.482858180999756,-7.041145324707031,-1.2246448993682861,1.7033127546310425,3.778421640396118,0.27524545788764954,-0.7819039821624756,-0.4174143075942993,2.0448508262634277
58,81726,81725,-0.010251684114336967,-0.02965068630874157,0.9927193522453308,0.7508895993232727,-5.878233909606934,-1.0923423767089844,1.7028698921203613,3.7791833877563477,0.27696526050567627,-0.6897727847099304,-0.47781598567962646,2.019108772277832
59,81736,81735,0.011184814386069775,-0.15508469939231873,0.9950900673866272,-1.485827922821045,-5.491775989532471,-0.24048376083374023,1.7030203342437744,3.779848098754883,0.2777564525604248,-0.7671993970870972,-0.493504136800766,2.0119333267211914
60,81746,81745,0.017953207716345787,-0.11977186799049377,1.0248653888702393,-2.391599416732788,-6.390230655670166,-0.3387824594974518,1.704240322113037,3.7816038131713867,0.27857568860054016,-0.8517380356788635,-0.5469176769256592,2.007021427154541
61,81756,81755,-0.03474969044327736,-0.08633491396903992,1.0443259477615356,-2.502880096435547,-2.049870014190674,-1.1862399578094482,1.704395055770874,3.782407760620117,0.2795132100582123,-0.8333843946456909,-0.6043233871459961,1.997292399406433
62,81766,81765,0.09321790188550949,0.0075409975834190845,0.9316422939300537,-0.8198825120925903,-5.069183826446533,-0.8585854172706604,1.7040307521820068,3.7826952934265137,0.2803742289543152,-0.805056631565094,-0.6489652395248413,1.9817758798599243
63,81776,81775,-0.0067376671358942986,0.020757701247930527,1.0080567598342896,2.4064173698425293,-8.355982780456543,-0.27795901894569397,1.703602910041809,3.783147096633911,0.28122806549072266,-0.6976774334907532,-0.6516385078430176,1.9706426858901978
64,81786,81785,0.011034593917429447,-0.026377331465482712,0.9748923182487488,5.04996395111084,-11.177606582641602,0.026797588914632797,1.7023801803588867,3.783191442489624,0.2806614637374878,-0.5466694831848145,-0.6043981313705444,1.9677876234054565
65,81796,81795,0.04495562985539436,-0.0059125847183167934,0.9742043614387512,6.717584609985352,-12.498359680175781,-0.044207748025655746,1.7036681175231934,3.783087730407715,0.28139910101890564,-0.5904046297073364,-0.5239702463150024,1.9821032285690308
66,81806,81805,0.043798476457595825,-0.1642526090145111,0.9843763113021851,6.904868125915527,-11.584168434143066,-0.07413826137781143,1.7027329206466675,3.7819862365722656,0.2821347117424011,-0.36314651370048523,-0.4099520742893219,1.9829950332641602
67,81816,81815,0.017945600673556328,-0.06521888077259064,0.9994025230407715,5.525853157043457,-12.214735984802246,0.02442394569516182,1.7029173374176025,3.781013250350952,0.28280356526374817,-0.3005739152431488,-0.30919915437698364,1.9902621507644653
68,81826,81825,0.022666100412607193,-0.05175250023603439,0.9751356840133667,3.0665786266326904,-10.960258483886719,-0.42018556594848633,1.7019397020339966,3.780285358428955,0.28531667590141296,-0.0805514007806778,-0.23704111576080322,1.9862016439437866
69,81836,81835,0.07899995893239975,-0.035347070544958115,0.9482861161231995,0.6576926112174988,-7.689269542694092,-0.1329430788755417,1.7030980587005615,3.7798399925231934,0.2861228883266449,-0.12856532633304596,-0.20816627144813538,1.9912585020065308
70,81846,81845,0.13889415562152863,-0.0011695377761498094,0.9814423322677612,-2.6695683002471924,-5.167048454284668,-0.26618069410324097,1.7028776407241821,3.7817790508270264,0.28691962361335754,-0.0611371248960495,-0.2993651032447815,1.9815083742141724
71,81856,81855,0.016602130606770515,0.014790616929531097,0.9871978163719177,-2.9717986583709717,-8.706008911132812,-0.5421456694602966,1.702544927597046,3.78214430809021,0.28492990136146545,0.04876871407032013,-0.3523975610733032,1.9740923643112183
72,81866,81865,-0.03275701776146889,-0.036870457231998444,0.9533728957176208,-2.9809257984161377,-5.257913589477539,-0.5850975513458252,1.7042688131332397,3.78267502784729,0.2854931056499481,-0.046053316444158554,-0.40694960951805115,1.9742249250411987
73,81876,81875,-0.02337287925183773,-0.001060493290424347,1.0073058605194092,-1.380953311920166,-5.7249932289123535,-0.46645355224609375,1.7039676904678345,3.783276081085205,0.2860199511051178,-0.0020633346866816282,-0.45140472054481506,1.9688498973846436
74,81886,81885,0.03128967434167862,-0.07484759390354156,0.961418092250824,1.2839676141738892,-5.982829570770264,-0.4870552122592926,1.7035143375396729,3.7837703227996826,0.2857001721858978,0.1344626098871231,-0.45400676131248474,1.960976004600525
75,81896,81895,0.0549834668636322,-0.10872695595026016,0.9428421854972839,4.650667190551758,-7.231171607971191,-0.2870383560657501,1.7032374143600464,3.783299684524536,0.28615468740463257,0.19451934099197388,-0.41356363892555237,1.9582328796386719
76,81906,81905,0.06782043725252151,-0.05186481773853302,0.9850237965583801,6.939314842224121,-7.056751728057861,0.0794367790222168,1.7034811973571777,3.7825393676757812,0.28657451272010803,0.2705096900463104,-0.31846508383750916,1.9583768844604492
77,81916,81915,0.1097109392285347,-0.07925597578287125,1.0124740600585938,6.756163597106934,-7.320818901062012,-0.2352348417043686,1.704472303390503,3.782916784286499,0.28696495294570923,0.2683669924736023,-0.2749606668949127,1.959943175315857
78,81926,81925,0.050188325345516205,-0.0596151202917099,0.9852511882781982,4.322550296783447,-7.521359443664551,-0.3711906373500824,1.7035598754882812,3.782804012298584,0.28948086500167847,0.4256612956523895,-0.24083490669727325,1.953567385673523
79,81936,81935,0.03848857060074806,-0.06177680939435959,1.0143299102783203,1.962885856628418,-4.866825580596924,-0.4649639129638672,1.703681230545044,3.783451557159424,0.29000285267829895,0.48824548721313477,-0.2436569482088089,1.9502242803573608
80,81946,81945,-0.0024963021278381348,-0.00546584278345108,1.0116567611694336,0.5944729447364807,-4.436039924621582,0.02581053040921688,1.7025611400604248,3.783015727996826,0.2905278503894806,0.5879843831062317,-0.2046503722667694,1.9447916746139526
81,81956,81955,0.06849098205566406,-0.07133607566356659,0.9518221616744995,-0.09641741216182709,-1.0465606451034546,-0.4102299213409424,1.7024298906326294,3.783116340637207,0.2898503541946411,0.6651541590690613,-0.19113001227378845,1.942379117012024
82,81966,81965,0.08165447413921356,-0.05094611272215843,0.9863904118537903,0.611166775226593,-0.5171456336975098,-0.22285448014736176,1.7029281854629517,3.783198833465576,0.2903268039226532,0.6263378858566284,-0.17783455550670624,1.9383004903793335
83,81976,81975,0.051531996577978134,-0.03489890322089195,0.9936627745628357,1.7274515628814697,-0.9029676914215088,-0.6469945311546326,1.7037354707717896,3.7845542430877686,0.29078590869903564,0.5023438930511475,-0.22790782153606415,1.942197322845459
84,81986,81985,0.03491302952170372,-0.11351881176233292,1.0006076097488403,2.7305853366851807,-1.9258313179016113,-0.30693987011909485,1.703481674194336,3.784911632537842,0.28856194019317627,0.5501458048820496,-0.2592732012271881,1.9420709609985352
85,81996,81995,0.04689563438296318,-0.06208544224500656,1.0119253396987915,3.3750381469726562,-2.2884533405303955,-0.2823415994644165,1.702958106994629,3.7846033573150635,0.2888427972793579,0.6054720878601074,-0.1924278736114502,1.9359930753707886
86,82006,82005,0.03449637070298195,0.026750164106488228,1.001806378364563,4.257280349731445,-2.0437674522399902,-0.5032978653907776,1.703237533569336,3.7840535640716553,0.2891574501991272,0.6659458875656128,-0.11398077756166458,1.9293156862258911
87,82016,82015,0.08740236610174179,-0.014441112987697124,0.9340896606445312,4.4906768798828125,-1.8456153869628906,-0.3598881661891937,1.7029160261154175,3.7837226390838623,0.28949928283691406,0.6435141563415527,-0.02730904519557953,1.9207451343536377
88,82026,82025,0.04850497469305992,0.014948079362511635,0.994013786315918,3.809664249420166,-1.927046298980713,0.11609280854463577,1.7023224830627441,3.783207416534424,0.28846558928489685,0.6958712339401245,0.056543949991464615,1.9147988557815552
89,82036,82035,0.06285271048545837,-0.08770352602005005,1.0110421180725098,1.9328325986862183,-2.2531094551086426,0.5343701243400574,1.7013366222381592,3.7829129695892334,0.28862592577934265,0.7483347058296204,0.12044073641300201,1.9142440557479858
90,82046,82045,0.03032192774116993,-0.033485591411590576,1.0138074159622192,-0.27597057819366455,-1.1575781106948853,0.258535236120224,1.7008551359176636,3.784296751022339,0.28883177042007446,0.7929771542549133,-0.003382925409823656,1.93355393409729
91,82056,82055,-0.014143375679850578,0.005068642552942038,1.0186959505081177,-2.5563035011291504,0.36174237728118896,0.0974210798740387,1.7005727291107178,3.783726215362549,0.28834378719329834,0.8044702410697937,0.07287967205047607,1.925620198249817
92,82066,82065,0.032839659601449966,0.03853385150432587,0.9725813269615173,-3.428708553314209,4.212193489074707,-0.6288313865661621,1.7004343271255493,3.7845420837402344,0.28849613666534424,0.7801715731620789,0.03383718058466911,1.9263979196548462
93,82076,82075,0.02566801756620407,0.10749099403619766,0.9932058453559875,-2.946981191635132,5.4586687088012695,-0.7076408267021179,1.7016886472702026,3.784489870071411,0.2886817753314972,0.7091251611709595,-0.01570958085358143,1.9216283559799194
94,82086,82085,0.02890828065574169,0.020829124376177788,0.9952645897865295,-0.11394652724266052,3.95200252532959,-0.6815110445022583,1.7016849517822266,3.784276247024536,0.289584755897522,0.6351364850997925,-0.039809901267290115,1.9150573015213013
95,82096,82095,-0.04299131780862808,-0.015757471323013306,1.056680679321289,1.9540959596633911,2.0382320880889893,-0.2932232618331909,1.7007068395614624,3.7837328910827637,0.28977182507514954,0.6522737741470337,-0.026996511965990067,1.9107656478881836
96,82106,82105,-0.05347514525055885,0.047652341425418854,1.0661286115646362,3.8384158611297607,0.9970159530639648,-0.5485892295837402,1.7007026672363281,3.783419370651245,0.28997093439102173,0.6169828772544861,0.022735506296157837,1.9035102128982544
97,82116,82115,-0.05193372443318367,0.15851861238479614,1.0105664730072021,3.689596176147461,2.0945403575897217,-0.08969273418188095,1.699008584022522,3.7827467918395996,0.2925388813018799,0.7354913353919983,0.09037964046001434,1.898141860961914
98,82126,82125,-0.05287936329841614,0.05292556434869766,1.009100079536438,2.3500099182128906,1.4851747751235962,0.09685192257165909,1.6989363431930542,3.781937837600708,0.29295358061790466,0.6840120553970337,0.14936544001102448,1.8930021524429321
99,82136,82135,0.02732778899371624,-0.04330149292945862,1.0117331743240356,0.3557796776294708,2.9678449630737305,0.29116323590278625,1.6986933946609497,3.782675266265869,0.2934238910675049,0.6418371200561523,0.10464604943990707,1.9005213975906372
100,82146,82145,-0.044799111783504486,-0.027465876191854477,1.0583606958389282,-1.4084632396697998,2.244309902191162,-0.03842537850141525,1.698790431022644,3.783385753631592,0.29392656683921814,0.5846452713012695,0.11088693141937256,1.9017845392227173
101,82156,82155,-0.07315745949745178,-0.018550898879766464,1.0494790077209473,-0.6469874382019043,2.7327170372009277,-0.3111191391944885,1.6988487243652344,3.7834010124206543,0.29549872875213623,0.5302568078041077,0.09759680926799774,1.900710940361023
102,82166,82165,-0.047470856457948685,-0.04190034046769142,0.997008204460144,-1.4879428148269653,5.211110591888428,-0.11002904921770096,1.6973129510879517,3.7834627628326416,0.29608088731765747,0.6005717515945435,0.08350780606269836,1.9013563394546509
103,82176,82175,-0.003034451277926564,-0.0059011816047132015,1.015847086906433,-1.2149584293365479,4.925759315490723,-0.2253584861755371,1.6978026628494263,3.7826879024505615,0.29672351479530334,0.4902067184448242,0.13858871161937714,1.8888819217681885
104,82186,82185,0.0412902906537056,-0.08674757182598114,1.0051124095916748,-1.474241018295288,4.479989051818848,0.110367052257061,1.6961021423339844,3.7827513217926025,0.29883232712745667,0.5354923009872437,0.11421462893486023,1.8934792280197144
105,82196,82195,-0.011336642317473888,-0.034104179590940475,1.0152757167816162,-0.625550389289856,4.116824150085449,0.11201154440641403,1.6960505247116089,3.781702756881714,0.2995742857456207,0.44276514649391174,0.16748107969760895,1.8842272758483887
106,82206,82205,0.0030368671286851168,-0.13111408054828644,1.0096831321716309,-0.3242526948451996,1.9896782636642456,0.12930186092853546,1.6947304010391235,3.7815964221954346,0.3002716600894928,0.5106739401817322,0.15408654510974884,1.8921669721603394
107,82216,82215,-0.03280473127961159,-0.03535859286785126,1.036871075630188,-1.1096762418746948,6.451312065124512,-0.2265670895576477,1.693751335144043,3.7823009490966797,0.29963311553001404,0.5038438439369202,0.06625042110681534,1.9015566110610962
108,82226,82225,0.025540843605995178,0.00752547150477767,0.9569140076637268,-1.538018822669983,13.420323371887207,-0.32950863242149353,1.693565845489502,3.7831084728240967,0.30030933022499084,0.4150088131427765,-0.022960929200053215,1.9071242809295654
109,82236,82235,0.054836876690387726,0.03261237218976021,0.942057192325592,-2.0081520080566406,22.407411575317383,-0.42608508467674255,1.693790316581726,3.7826128005981445,0.301017165184021,0.1945769041776657,0.031319309026002884,1.8921053409576416
110,82246,82245,0.052260324358940125,-0.04662805423140526,0.956627368927002,-2.2388670444488525,26.326345443725586,-0.09530632197856903,1.6947134733200073,3.782397985458374,0.3016451299190521,-0.14810985326766968,0.0005183708854019642,1.885091781616211
111,82256,82255,0.02879081480205059,-0.0623585544526577,0.9715210795402527,-1.5936555862426758,28.817832946777344,-0.761976957321167,1.6941533088684082,3.782233715057373,0.3037653863430023,-0.3889843821525574,-0.03161720186471939,1.8842928409576416
112,82266,82265,-0.002510029822587967,0.019689733162522316,0.9771354794502258,-1.4190798997879028,30.79693603515625,-1.5014760494232178,1.6916882991790771,3.782576084136963,0.3044617772102356,-0.5057628750801086,-0.04838183894753456,1.8839472532272339
113,82276,82275,-0.018424637615680695,-0.000866384303662926,0.9602040648460388,2.577556848526001,20.03826332092285,-1.0797066688537598,1.6908477544784546,3.7828009128570557,0.3050471544265747,-0.7722945213317871,-0.12015676498413086,1.8741430044174194
114,82286,82285,-0.06258119642734528,0.04682110622525215,0.977881908416748,3.6276795864105225,17.238887786865234,-0.8377710580825806,1.6913210153579712,3.7823867797851562,0.30490201711654663,-1.0658267736434937,-0.0637722983956337,1.8582764863967896
115,82296,82295,-0.023143650963902473,-0.011905835010111332,0.965884804725647,3.872450113296509,14.200101852416992,-0.8031503558158875,1.6896493434906006,3.7812628746032715,0.3054860830307007,-1.1539969444274902,0.002291350858286023,1.8528822660446167
116,82306,82305,-0.006577708292752504,-0.004096013959497213,0.9740143418312073,3.809919595718384,10.537452697753906,-0.8746129274368286,1.6889711618423462,3.7805967330932617,0.3060092031955719,-1.2641639709472656,0.07190901041030884,1.8453618288040161
117,82316,82315,0.029791129752993584,-0.04645400494337082,0.9508522748947144,2.1917519569396973,7.5282816886901855,-1.1970890760421753,1.6892616748809814,3.780024766921997,0.3043856620788574,-1.4561982154846191,0.13191090524196625,1.8313624858856201
118,82326,82325,-0.03122720681130886,-0.05293607339262962,1.0027132034301758,0.5533655285835266,5.212822914123535,-1.1507068872451782,1.688874363899231,3.779510974884033,0.3047148883342743,-1.5170605182647705,0.1623004823923111,1.8207844495773315
119,82336,82335,-0.08273281157016754,-0.12858846783638,1.0007433891296387,-0.5425074696540833,4.640988826751709,-1.2746342420578003,1.6883963346481323,3.779752731323242,0.30503273010253906,-1.5437129735946655,0.1654152274131775,1.8099545240402222
120,82346,82345,-0.01659322902560234,-0.11550253629684448,0.9750490188598633,-2.0293588638305664,7.033316612243652,-1.476311206817627,1.6863234043121338,3.780024528503418,0.3053421080112457,-1.5015296936035156,0.1479681134223938,1.7966487407684326
121,82356,82355,-0.10256798565387726,0.11439812928438187,1.001564621925354,-2.6631500720977783,5.292346954345703,-1.9631969928741455,1.6866306066513062,3.7801272869110107,0.3091503381729126,-1.618975043296814,0.11486057937145233,1.774741768836975
122,82366,82365,-0.09436433017253876,0.15123261511325836,0.9629260301589966,-3.7414486408233643,9.500024795532227,-1.479998230934143,1.6859837770462036,3.7803432941436768,0.3096730411052704,-1.6783562898635864,0.06121596693992615,1.7523225545883179
123,82376,82375,-0.05600719526410103,0.18235965073108673,0.9731343984603882,-3.8225064277648926,11.222887992858887,-1.1849888563156128,1.6859569549560547,3.7799675464630127,0.3101319968700409,-1.7970653772354126,-0.0010549455182626843,1.7334426641464233
124,82386,82385,0.019369585439562798,-0.013739454559981823,0.9243879318237305,-2.4454617500305176,9.754021644592285,-1.479527473449707,1.6857026815414429,3.779662847518921,0.30904287099838257,-1.9174474477767944,0.018666040152311325,1.7320090532302856
125,82396,82395,-0.013469968922436237,-0.01185073796659708,0.9951055645942688,0.1589069813489914,7.497949600219727,-1.7123513221740723,1.6843438148498535,3.7799367904663086,0.3094285726547241,-1.9324597120285034,-0.09146791696548462,1.700494408607483
126,82406,82405,-0.09576347470283508,-0.028523169457912445,1.036962866783142,2.614716053009033,4.847840309143066,-2.0710620880126953,1.6839543581008911,3.7798709869384766,0.3097517490386963,-1.9908497333526611,-0.07526993751525879,1.6842029094696045
127,82416,82415,-0.09046581387519836,-0.1482418030500412,0.9957908391952515,4.439195156097412,2.697805404663086,-1.5250203609466553,1.683289885520935,3.7793891429901123,0.30621615052223206,-1.9961756467819214,-0.015821008011698723,1.672697901725769
128,82426,82425,-0.041518233716487885,-0.04367916285991669,1.0151090621948242,4.407593727111816,5.006663799285889,-1.6560159921646118,1.6832504272460938,3.7783966064453125,0.3062710464000702,-2.061802625656128,0.06256112456321716,1.6635723114013672
129,82436,82435,-0.03808210417628288,0.08488854020833969,0.9657699465751648,4.024155139923096,2.4237887859344482,-1.9159172773361206,1.6826943159103394,3.7789056301116943,0.3063737452030182,-2.0552074909210205,0.06153878569602966,1.6356260776519775
130,82446,82445,-0.049131084233522415,0.051380597054958344,0.9950067400932312,2.2296080589294434,4.433820724487305,-2.167637825012207,1.6815992593765259,3.777587890625,0.3055395483970642,-2.0441670417785645,0.12118707597255707,1.6245144605636597
131,82456,82455,0.018176544457674026,0.06312026083469391,0.9555227160453796,0.018410291522741318,3.9722962379455566,-2.6200153827667236,1.6818255186080933,3.7775702476501465,0.30551964044570923,-2.1235525608062744,0.1470646858215332,1.6019846200942993
132,82466,82465,0.028333786875009537,0.03946751356124878,0.9817706346511841,-1.7699379920959473,3.489706039428711,-3.020967483520508,1.6815249919891357,3.7770323753356934,0.3054942488670349,-2.188000440597534,0.13961189985275269,1.5729269981384277
133,82476,82475,-0.0630243718624115,-0.0606568418443203,1.0138908624649048,-2.246624708175659,1.6026008129119873,-3.1152846813201904,1.681864619255066,3.7769930362701416,0.3054451644420624,-2.233065128326416,0.10671263933181763,1.5376611948013306
134,82486,82485,-0.06868521124124527,-0.17863094806671143,0.9891249537467957,-2.13552188873291,-2.301384449005127,-3.61731219291687,1.6818082332611084,3.7771809101104736,0.30657610297203064,-2.2391185760498047,0.06681820005178452,1.49998140335083
135,82496,82495,-0.12582558393478394,-0.05526702105998993,1.036227822303772,-1.337965726852417,-2.1116130352020264,-3.193828582763672,1.6823543310165405,3.777526617050171,0.30654481053352356,-2.2798140048980713,0.037098728120326996,1.4606059789657593
136,82506,82505,-0.03173113241791725,-0.03617061302065849,1.0021337270736694,-0.9308446049690247,-1.5518925189971924,-2.875009536743164,1.6830651760101318,3.7776200771331787,0.30653277039527893,-2.3047616481781006,0.01623217761516571,1.4260168075561523
137,82516,82515,0.03301405906677246,0.009987864643335342,1.0137614011764526,0.3208428621292114,-3.2289042472839355,-2.999274730682373,1.68245267868042,3.777881622314453,0.30911359190940857,-2.240118980407715,0.005364070180803537,1.3947243690490723
138,82526,82525,0.04090521112084389,-0.08834538608789444,1.006678819656372,1.7447904348373413,-4.082956314086914,-2.8014235496520996,1.6833269596099854,3.777061700820923,0.30931952595710754,-2.2275307178497314,0.09347126632928848,1.3936874866485596
139,82536,82535,0.07196374237537384,-0.17451025545597076,0.994398832321167,2.2724416255950928,-5.75460147857666,-3.1037137508392334,1.6836777925491333,3.7771248817443848,0.309513121843338,-2.189178705215454,0.1211339682340622,1.3674423694610596
140,82546,82545,0.008548423647880554,-0.06847868114709854,1.0157196521759033,1.278244972229004,-8.624035835266113,-2.6745617389678955,1.6840051412582397,3.7764954566955566,0.30938950181007385,-2.110792398452759,0.14996697008609772,1.3403891324996948
141,82556,82555,0.00456593744456768,-0.08041439205408096,0.9817134141921997,-0.9294440746307373,-8.87588119506836,-2.7401046752929688,1.6852868795394897,3.7776522636413574,0.30952921509742737,-2.1466498374938965,0.0030562467873096466,1.256739854812622
142,82566,82565,0.01771439239382744,-0.003033714834600687,1.0066328048706055,-1.4014281034469604,-8.172707557678223,-1.803255558013916,1.684386134147644,3.7768290042877197,0.3098696172237396,-1.936774730682373,0.06570238620042801,1.261655569076538
143,82576,82575,0.07256975024938583,-0.004576217848807573,0.9978740811347961,-1.4128724336624146,-6.221993446350098,-1.944756031036377,1.6836609840393066,3.776437997817993,0.31012624502182007,-1.7498598098754883,0.043883681297302246,1.2414783239364624
144,82586,82585,0.10339829325675964,0.0040879566222429276,1.0271550416946411,-1.9732558727264404,-4.354987621307373,-2.2903404235839844,1.6860811710357666,3.7765281200408936,0.31124061346054077,-1.896675944328308,0.020478742197155952,1.2117042541503906
145,82596,82595,0.05954580381512642,-0.06194731593132019,1.024780511856079,-1.0644243955612183,-2.2182233333587646,-2.6390039920806885,1.6866276264190674,3.775362968444824,0.3115236461162567,-1.8357539176940918,0.06979618221521378,1.2112733125686646
146,82606,82605,0.014011181890964508,-0.009943938814103603,1.0239132642745972,-0.6749356389045715,-2.4567813873291016,-2.821798086166382,1.6886951923370361,3.775615930557251,0.31169259548187256,-1.9369920492172241,0.0459979772567749,1.1774457693099976
147,82616,82615,0.006040515843778849,-0.017705058678984642,0.9774489402770996,-0.3639739155769348,-5.435737609863281,-2.0916223526000977,1.6893887519836426,3.7755792140960693,0.31268709897994995,-1.9423131942749023,0.0328102745115757,1.149350881576538
148,82626,82625,-0.04269228130578995,0.05204443261027336,1.008466124534607,-0.8906606435775757,-8.24305534362793,-2.1925480365753174,1.689045786857605,3.775463342666626,0.31318506598472595,-1.7487123012542725,0.02056034468114376,1.128829002380371
149,82636,82635,-0.02602599747478962,0.06978221982717514,0.9989054203033447,-0.5117973685264587,-11.688888549804688,-1.7089923620224,1.6909624338150024,3.7744710445404053,0.3133864104747772,-1.8065828084945679,0.08007123321294785,1.12440824508667
150,82646,82645,0.000658277771435678,0.04390551522374153,1.0023565292358398,-1.0959110260009766,-14.009744644165039,-1.775470495223999,1.6910072565078735,3.774404764175415,0.3143267333507538,-1.5780084133148193,0.06437137722969055,1.1063268184661865
151,82656,82655,-0.060738082975149155,0.10332395136356354,1.0549814701080322,-0.5927387475967407,-15.798737525939941,-2.0931460857391357,1.6899093389511108,3.7741310596466064,0.3148798942565918,-1.246123194694519,0.035040032118558884,1.0860719680786133
152,82666,82665,-0.05493804067373276,0.04954291880130768,1.0095778703689575,-1.100934386253357,-13.977113723754883,-2.238456964492798,1.692258596420288,3.7742536067962646,0.31520774960517883,-1.295907974243164,-0.0657055526971817,1.0344411134719849
153,82676,82675,-0.0236061941832304,-0.02497514709830284,0.9742093682289124,-1.2485570907592773,-9.129878044128418,-1.723797082901001,1.6931904554367065,3.773759126663208,0.3155224025249481,-1.2229030132293701,-0.009929357096552849,1.0312577486038208
154,82686,82685,0.0005634730332531035,-0.013446008786559105,0.9846850037574768,-1.0176509618759155,-6.785088539123535,-1.7151025533676147,1.6936116218566895,3.7738823890686035,0.31681832671165466,-1.1331148147583008,-0.032889705151319504,1.0109543800354004
155,82696,82695,-0.0034756246022880077,-0.014129597693681717,0.9788822531700134,-1.084177017211914,-6.334953784942627,-1.8671133518218994,1.6955238580703735,3.7737491130828857,0.317179411649704,-1.1437989473342896,-0.05540661886334419,0.9877918362617493
156,82706,82705,-0.0362878181040287,-0.0011796943144872785,0.9962276816368103,-0.3392951786518097,-6.414323806762695,-1.8919548988342285,1.6959617137908936,3.7740795612335205,0.3176824450492859,-1.0010548830032349,-0.07164077460765839,0.96784907579422
157,82716,82715,0.029817113652825356,-0.05213276669383049,0.980464518070221,-1.3504911661148071,-7.621031284332275,-2.020559549331665,1.6965903043746948,3.7742035388946533,0.3178306519985199,-0.9506531953811646,-0.08541754633188248,0.9446046352386475
158,82726,82725,-0.0021999268792569637,-0.025162184610962868,0.9899423718452454,-0.7807191014289856,-11.041912078857422,-1.7087650299072266,1.698590874671936,3.7730910778045654,0.31817930936813354,-0.9283440113067627,0.04277392476797104,0.9496212005615234
159,82736,82735,-0.035150930285453796,0.010177199728786945,1.019123911857605,-2.3637542724609375,-9.653212547302246,-2.1904594898223877,1.6997895240783691,3.773709535598755,0.31851282715797424,-0.8705869913101196,0.005056196823716164,0.9258887767791748
160,82746,82745,-0.030587151646614075,-0.004541443195194006,0.98031085729599,-3.0324575901031494,-10.193143844604492,-2.341773509979248,1.6990408897399902,3.773716449737549,0.31649354100227356,-0.5802224278450012,-0.049395374953746796,0.9005768299102783
161,82756,82755,0.0026616959366947412,-0.05225173011422157,0.9452248215675354,-3.028261423110962,-9.799955368041992,-2.0958986282348633,1.7010658979415894,3.773909330368042,0.3166557848453522,-0.6009293794631958,-0.10927248746156693,0.8733267784118652
162,82766,82765,0.006055161356925964,-0.03308713436126709,0.9644201993942261,-2.8667244911193848,-8.801680564880371,-1.889634370803833,1.7019833326339722,3.774120569229126,0.31687936186790466,-0.4650394916534424,-0.1617036759853363,0.8501451015472412
163,82776,82775,-0.008928242139518261,0.015654591843485832,0.9919734597206116,-1.5133529901504517,-7.342396259307861,-1.9029850959777832,1.7030079364776611,3.775364398956299,0.31738677620887756,-0.3549176752567291,-0.27836740016937256,0.8219301104545593
164,82786,82785,0.013008499518036842,0.004773315507918596,0.9708097577095032,-0.12931808829307556,-6.178206920623779,-1.84673273563385,1.703747272491455,3.774472713470459,0.31756216287612915,-0.27449023723602295,-0.28620445728302,0.8046191930770874
165,82796,82795,0.030635058879852295,-0.02415315993130207,0.946555495262146,0.8228474259376526,-5.091004848480225,-1.7254765033721924,1.7065544128417969,3.773656129837036,0.31759771704673767,-0.3615049421787262,-0.19667823612689972,0.7927507758140564
166,82806,82805,0.023261645808815956,-0.021749941632151604,0.9591173529624939,3.045224189758301,-4.191364288330078,-1.9113954305648804,1.7066127061843872,3.7733588218688965,0.317787766456604,-0.2287708818912506,-0.1703627109527588,0.775502622127533
167,82816,82815,0.017484275624155998,-0.07838772982358932,0.9523450136184692,2.8878273963928223,-5.290685176849365,-1.8362581729888916,1.7056753635406494,3.7744123935699463,0.31870758533477783,-0.027563046663999557,-0.11595185846090317,0.7554693222045898
168,82826,82825,0.014213040471076965,-0.07647974044084549,0.9629141092300415,1.4237626791000366,-3.345756769180298,-2.90225887298584,1.7073436975479126,3.7740094661712646,0.31873059272766113,-0.06948143988847733,-0.07973729074001312,0.7333713173866272
169,82836,82835,0.020374391227960587,-0.08505820482969284,1.0023446083068848,0.5598864555358887,-2.955864191055298,-2.503814220428467,1.7082127332687378,3.7735209465026855,0.31875720620155334,-0.04840639606118202,-0.06423228979110718,0.7046553492546082
170,82846,82845,0.022866791114211082,-0.0844537541270256,0.9820303320884705,-1.5476033687591553,-2.078930377960205,-3.3478949069976807,1.7095611095428467,3.773165464401245,0.31917309761047363,-0.0323353111743927,-0.07285968959331512,0.6767368912696838
171,82856,82855,0.02682073414325714,-0.07092495262622833,0.9511833786964417,-2.7507855892181396,-1.0821250677108765,-3.3722896575927734,1.709693193435669,3.773266553878784,0.319263756275177,0.04926387965679169,-0.11022064089775085,0.6440580487251282
172,82866,82865,-0.008008263073861599,0.01090560108423233,1.0091063976287842,-1.7736997604370117,-0.8153001070022583,-3.435392379760742,1.7099148035049438,3.772087574005127,0.3191639184951782,0.02949807047843933,-0.15374985337257385,0.5962384343147278
173,82876,82875,-0.011111254803836346,0.028891097754240036,1.003536581993103,-0.09662284702062607,-1.4004517793655396,-3.106193780899048,1.709733009338379,3.772125005722046,0.3178648054599762,0.15894301235675812,-0.1749880462884903,0.5624940395355225
174,82886,82885,0.028951337561011314,-0.05150711163878441,0.957757830619812,0.6943356394767761,-3.009700059890747,-3.1147801876068115,1.7124167680740356,3.7723660469055176,0.31762179732322693,-0.00046168151311576366,-0.17216302454471588,0.5331549048423767
175,82896,82895,-0.008226271718740463,0.0582956038415432,0.984651505947113,2.081907033920288,-2.1296308040618896,-3.7386324405670166,1.7129149436950684,3.7724392414093018,0.3175754249095917,0.09397614747285843,-0.1499711275100708,0.49870729446411133
176,82906,82905,-0.03475845605134964,0.0856185033917427,1.0033466815948486,4.296011447906494,-6.599559307098389,-3.5057055950164795,1.7135528326034546,3.7724125385284424,0.3174435496330261,0.1280718296766281,-0.09820271283388138,0.4598179757595062
177,82916,82915,0.01344273891299963,-0.04184002801775932,0.9655741453170776,5.235381603240967,-6.6613240242004395,-2.719212293624878,1.7160600423812866,3.7717292308807373,0.31557151675224304,0.05000746250152588,-0.02297014184296131,0.4262036979198456
178,82926,82925,-0.028727848082780838,0.017658332362771034,1.026800274848938,5.604208469390869,-7.562688827514648,-1.9972519874572754,1.7158669233322144,3.77211856842041,0.3154594302177429,0.20393864810466766,-0.0126116294413805,0.40364983677864075
179,82936,82935,-0.07814563065767288,0.007959860377013683,1.0459299087524414,4.830237865447998,-7.609429359436035,-1.7103347778320312,1.7158881425857544,3.7721123695373535,0.31527838110923767,0.3568038046360016,0.07269087433815002,0.3781147003173828
180,82946,82945,-0.054023612290620804,-0.05257108435034752,1.0172773599624634,2.8626511096954346,-5.590917110443115,-1.8427066802978516,1.7192304134368896,3.7730066776275635,0.3139632046222687,0.33652037382125854,-0.013206087052822113,0.3760795295238495
181,82956,82955,-0.040259070694446564,0.036979224532842636,1.0365688800811768,1.8742389678955078,-2.369582414627075,-1.9751884937286377,1.7200541496276855,3.772193670272827,0.31374314427375793,0.3664413392543793,0.1078517884016037,0.34488630294799805
182,82966,82965,0.03760736063122749,-0.011134305968880653,0.9970248341560364,1.0160307884216309,1.5827254056930542,-1.9102740287780762,1.7215309143066406,3.7720515727996826,0.31349724531173706,0.359449565410614,0.13604332506656647,0.324197381734848
183,82976,82975,0.0469697043299675,-0.03160346299409866,1.0021331310272217,2.604491710662842,-2.079448938369751,-1.47842276096344,1.720602035522461,3.7720227241516113,0.3098471164703369,0.4815393090248108,0.1626114696264267,0.27569422125816345
184,82986,82985,0.025046052411198616,-0.10931911319494247,0.9770562052726746,3.425086736679077,-0.7716627717018127,-0.32363447546958923,1.7210865020751953,3.7704830169677734,0.30928266048431396,0.402359277009964,0.1369451880455017,0.26587703824043274
185,82996,82995,0.06354460120201111,-0.15244950354099274,1.0120950937271118,5.232044696807861,-1.0051480531692505,0.78656405210495,1.7225245237350464,3.7698135375976562,0.30882707238197327,0.39602723717689514,0.2100512832403183,0.2607988715171814
186,83006,83005,0.0385308638215065,-0.12398456782102585,1.0114479064941406,6.1029815673828125,-1.1719014644622803,1.5360020399093628,1.7231924533843994,3.768956184387207,0.30927982926368713,0.390394389629364,0.3035808205604553,0.25585001707077026
187,83016,83015,-0.034971266984939575,-0.005207538139075041,1.0475521087646484,6.143757343292236,-1.8024107217788696,2.098841428756714,1.7231156826019287,3.7684648036956787,0.3090364933013916,0.5291998386383057,0.396623432636261,0.26777327060699463
188,83026,83025,0.013114419765770435,-0.07435363531112671,0.9713948965072632,2.9531211853027344,2.2212367057800293,2.6608567237854004,1.7238107919692993,3.7688379287719727,0.30874258279800415,0.5655357837677002,0.399269700050354,0.300902396440506
189,83036,83035,-0.023394940420985222,0.14530347287654877,1.0579407215118408,0.01882285811007023,7.252228260040283,1.8362014293670654,1.724270224571228,3.770010471343994,0.30844417214393616,0.5364101529121399,0.3570934534072876,0.3490009903907776
190,83046,83045,0.04915952309966087,0.042042672634124756,0.9785088300704956,-2.892415761947632,5.4340386390686035,0.5088728666305542,1.72456693649292,3.770052909851074,0.3083871603012085,0.5367035269737244,0.3404584228992462,0.3683999180793762
191,83056,83055,-0.002209761179983616,0.035357873886823654,1.0533194541931152,-5.711178302764893,3.760296106338501,-0.36110183596611023,1.725464105606079,3.771054267883301,0.30810075998306274,0.40147536993026733,0.2750031054019928,0.38389191031455994
192,83066,83065,-0.0722276046872139,-0.03717011958360672,1.0055357217788696,-7.1160383224487305,0.23345234990119934,-0.9733700752258301,1.725149154663086,3.771231174468994,0.3079269528388977,0.44332045316696167,0.24574683606624603,0.38732072710990906
193,83076,83075,-0.05688123404979706,0.022513505071401596,1.0244076251983643,-7.499931812286377,0.2572583854198456,-0.8791460990905762,1.726207971572876,3.772418737411499,0.307409405708313,0.3734819293022156,0.12015268206596375,0.39733627438545227
194,83086,83085,0.0365469753742218,-0.06928537786006927,1.0248823165893555,-5.046538829803467,0.09025947749614716,-0.9211039543151855,1.726135015487671,3.7729055881500244,0.3072070777416229,0.4074270725250244,0.08230659365653992,0.39551109075546265
195,83096,83095,0.015173988416790962,-0.027823427692055702,1.0427156686782837,-1.0280238389968872,-4.6332573890686035,-0.10382513701915741,1.727925181388855,3.7706387042999268,0.3069683313369751,0.3123098313808441,0.24063026905059814,0.34108489751815796
196,83106,83105,0.008446541614830494,-0.026688210666179657,1.023715615272522,4.353957653045654,-1.1273512840270996,1.0047916173934937,1.7270735502243042,3.7717199325561523,0.308739572763443,0.48433902859687805,0.16433270275592804,0.3803267180919647
197,83116,83115,-0.025880130007863045,-0.05212632939219475,1.0318796634674072,5.267648220062256,-0.2692454159259796,2.6357598304748535,1.728392481803894,3.772160053253174,0.3087213933467865,0.449800968170166,0.16438578069210052,0.40522500872612
198,83126,83125,0.023269684985280037,-0.006851061712950468,1.0335094928741455,5.459597110748291,0.8968762755393982,3.1115524768829346,1.728652000427246,3.7717199325561523,0.30879148840904236,0.46928462386131287,0.24592015147209167,0.42251691222190857
199,83136,83135,0.012897991575300694,-0.07877933979034424,1.0003634691238403,4.473926544189453,1.964420199394226,4.669986248016357,1.729347825050354,3.771162509918213,0.30895280838012695,0.5365925431251526,0.3208080232143402,0.4532322883605957
200,83146,83145,0.010786909610033035,-0.04525101184844971,1.0084333419799805,2.1143150329589844,3.9835994243621826,5.5326409339904785,1.7298049926757812,3.77175235748291,0.30871012806892395,0.5039616823196411,0.30042290687561035,0.5169395804405212
201,83156,83155,0.015004996210336685,-0.013673503883183002,1.019391655921936,-1.175014615058899,6.788909912109375,4.973097801208496,1.7312309741973877,3.7723891735076904,0.30869370698928833,0.3647156059741974,0.31180286407470703,0.5777698755264282
202,83166,83165,0.018368713557720184,0.048125896602869034,0.9984045028686523,-5.168300628662109,9.17115592956543,4.278951644897461,1.7317882776260376,3.772507667541504,0.3088330924510956,0.34090811014175415,0.2626686096191406,0.6344859004020691
203,83176,83175,0.023580269888043404,0.0237523652613163,0.9984780550003052,-5.581780433654785,7.805243492126465,4.562345027923584,1.7322570085525513,3.772989273071289,0.307256281375885,0.29215356707572937,0.16510097682476044,0.6874943971633911
204,83186,83185,0.021156305447220802,-0.026932695880532265,0.9978835582733154,-4.670745849609375,9.73428726196289,4.975404739379883,1.733991026878357,3.7736451625823975,0.3071323037147522,0.08345423638820648,0.07753507047891617,0.7462155222892761
205,83196,83195,-0.009378823451697826,-0.035687655210494995,1.0033023357391357,-0.4481816589832306,6.319177627563477,6.172450065612793,1.735282301902771,3.7731034755706787,0.3070695996284485,-0.035478007048368454,0.09817906469106674,0.7863641381263733
206,83206,83205,0.004136976785957813,0.034880105406045914,1.0150080919265747,3.0991930961608887,2.992999315261841,7.262031078338623,1.7353013753890991,3.7734992504119873,0.30815160274505615,-0.026112010702490807,0.17879760265350342,0.8631396293640137
207,83216,83215,0.013169378973543644,0.03186117112636566,0.9910160303115845,6.119711875915527,-4.145474910736084,9.69361686706543,1.735358715057373,3.773381471633911,0.30819541215896606,-0.011590339243412018,0.2399008870124817,0.9652495384216309
208,83226,83225,-0.0006678627105429769,-0.0011225355556234717,0.9878027439117432,6.606250286102295,-7.667169570922852,10.748822212219238,1.734864592552185,3.773223400115967,0.30836984515190125,0.1646949201822281,0.3289153277873993,1.0645357370376587
209,83236,83235,-0.03718642145395279,0.00027737111668102443,1.0667831897735596,4.049938201904297,-6.736276626586914,11.489880561828613,1.7349895238876343,3.772580623626709,0.3084525763988495,0.2883443832397461,0.4144236445426941,1.1721398830413818
210,83246,83245,-0.024950966238975525,-0.052466876804828644,1.0316892862319946,0.3769625723361969,-6.207817554473877,11.947870254516602,1.7372527122497559,3.774082899093628,0.3076739013195038,0.17734256386756897,0.3023364245891571,1.3030294179916382
211,83256,83255,-0.04201618582010269,-0.047574836760759354,0.9937940239906311,-3.822828769683838,1.07571280002594,12.693209648132324,1.7374342679977417,3.773681163787842,0.30781033635139465,0.25593671202659607,0.2787646949291229,1.4164282083511353
212,83266,83265,0.034017231315374374,0.11242508143186569,1.010542392730713,-7.180767059326172,8.8356351852417,13.008535385131836,1.7385612726211548,3.7733914852142334,0.30791687965393066,0.2256622314453125,0.26827630400657654,1.5394392013549805
213,83276,83275,0.061311036348342896,-0.004587194416671991,0.9590612649917603,-10.074126243591309,8.61637020111084,12.632430076599121,1.7387890815734863,3.774451732635498,0.30810093879699707,0.16904513537883759,0.11518386006355286,1.6956580877304077
214,83286,83285,-0.023413682356476784,-0.0077939461916685104,0.9951311945915222,-8.885795593261719,7.215063095092773,13.34091567993164,1.7400532960891724,3.774094343185425,0.30815786123275757,0.037538446485996246,0.09450225532054901,1.814051628112793
215,83296,83295,0.023950334638357162,-0.08618921786546707,0.9912205338478088,-5.480317115783691,3.8867928981781006,13.537347793579102,1.7400356531143188,3.7749006748199463,0.3083115816116333,0.015607486478984356,-0.043399691581726074,1.956655740737915
216,83306,83305,-0.005875777918845415,-0.04605507850646973,1.0483661890029907,-4.528587341308594,-0.29056909680366516,12.755632400512695,1.7413212060928345,3.775831699371338,0.307860791683197,-0.11098792403936386,-0.1416068822145462,2.104340076446533
217,83316,83315,0.03597664833068848,-0.07239282131195068,0.9920949339866638,-1.3073526620864868,-9.58790397644043,13.651543617248535,1.7409329414367676,3.7753541469573975,0.30806636810302734,0.04444853588938713,-0.1205005794763565,2.2475602626800537
218,83326,83325,-0.01802142709493637,-0.049652401357889175,1.0014400482177734,-2.920694351196289,-9.063788414001465,14.407193183898926,1.740607500076294,3.7753047943115234,0.3082139790058136,0.2001347839832306,-0.08219679445028305,2.3827435970306396
219,83336,83335,-0.003977629356086254,-0.004621914122253656,0.9932452440261841,-5.129417419433594,-3.4137120246887207,14.997954368591309,1.741544246673584,3.775355577468872,0.30829402804374695,0.25649386644363403,-0.1533915400505066,2.5266199111938477
220,83346,83345,-0.0028223779518157244,0.13335347175598145,0.9925909638404846,-6.142432689666748,6.654765605926514,14.122754096984863,1.7418586015701294,3.7753615379333496,0.3090220093727112,0.26886874437332153,-0.25882235169410706,2.6702284812927246
221,83356,83355,-0.02767217718064785,0.011409556493163109,1.0161291360855103,-8.260217666625977,16.15475845336914,13.481164932250977,1.7429015636444092,3.7759158611297607,0.3090941607952118,0.12103080004453659,-0.36859360337257385,2.814223051071167
222,83366,83365,-0.014044144190847874,-0.09988640248775482,0.9793662428855896,-8.264819145202637,18.588300704956055,13.743157386779785,1.743958830833435,3.7763686180114746,0.3091721534729004,-0.07662422955036163,-0.49641624093055725,2.9570775032043457
223,83376,83375,0.04725348576903343,0.013468515127897263,0.9955011606216431,-8.892117500305176,19.802978515625,14.444926261901855,1.7451175451278687,3.7768356800079346,0.30808189511299133,-0.3035217225551605,-0.6267862915992737,3.098454713821411
224,83386,83385,0.10457634180784225,-0.013393501751124859,0.954952597618103,-8.494312286376953,13.847831726074219,14.110113143920898,1.745740294456482,3.7760164737701416,0.3082296848297119,-0.4339620769023895,-0.613574743270874,3.2313294410705566
225,83396,83395,0.015308408997952938,0.005705821327865124,0.9718116521835327,-5.794468879699707,2.5443460941314697,14.538268089294434,1.745740532875061,3.77669095993042,0.3082929253578186,-0.5180732607841492,-0.7329146265983582,3.3763020038604736
226,83406,83405,0.03717562183737755,-0.00034322109422646463,0.9737210273742676,0.6087713837623596,-11.075675010681152,15.255364418029785,1.7460395097732544,3.7764732837677,0.31420278549194336,-0.4328700602054596,-0.721900999546051,3.5205273628234863
227,83416,83415,0.01674424111843109,-0.015081463381648064,1.0021674633026123,6.831255912780762,-19.183168411254883,14.917868614196777,1.745793342590332,3.7765860557556152,0.3146090805530548,-0.206683948636055,-0.6778352856636047,3.6579647064208984
228,83426,83425,-0.03995784372091293,-0.09682200849056244,1.0600416660308838,13.368168830871582,-27.265573501586914,15.062149047851562,1.7466531991958618,3.7761287689208984,0.3149450719356537,-0.08646232634782791,-0.4455362856388092,3.838103771209717
229,83436,83435,-0.11628749221563339,0.051941581070423126,1.0155121088027954,15.112128257751465,-22.735597610473633,14.528424263000488,1.7487415075302124,3.7759625911712646,0.31161022186279297,0.022542620077729225,-0.29969996213912964,3.997903823852539
230,83446,83445,-0.032771721482276917,0.04532324895262718,0.9502652287483215,6.451800346374512,-11.125775337219238,13.337566375732422,1.7477514743804932,3.775768280029297,0.3118765652179718,0.35444164276123047,-0.18163254857063293,4.124932289123535
231,83456,83455,0.01518782414495945,-0.0030468422919511795,0.9715772867202759,-0.579409122467041,-5.051405906677246,11.578032493591309,1.7499237060546875,3.7761876583099365,0.3119698762893677,0.2321544587612152,-0.22591057419776917,4.263552188873291
232,83466,83465,-0.015781551599502563,0.009152484126389027,0.9794298410415649,-7.353084087371826,-1.8630539178848267,10.68316650390625,1.750572681427002,3.7761261463165283,0.31220313906669617,0.35756105184555054,-0.3019271492958069,4.364591598510742
233,83476,83475,-0.050646793097257614,0.05302494391798973,1.0113786458969116,-16.403615951538086,5.807140827178955,9.211971282958984,1.7529296875,3.777705430984497,0.31575101613998413,0.24783465266227722,-0.49593254923820496,4.493255138397217
234,83486,83485,-0.07918623089790344,0.029680730774998665,1.0048093795776367,-18.432533264160156,4.626298904418945,9.136126518249512,1.7532931566238403,3.777134895324707,0.31610107421875,0.2541275918483734,-0.6283543109893799,4.5716233253479
235,83496,83495,-0.0155616644769907,-0.10293355584144592,0.9236363768577576,-15.685501098632812,4.199783802032471,7.527898788452148,1.7530021667480469,3.7773001194000244,0.3164287507534027,0.2777385711669922,-0.8394834995269775,4.650659561157227
236,83506,83505,-0.029990529641509056,-0.08071097731590271,0.9170854091644287,-9.112306594848633,-3.5742037296295166,6.997920036315918,1.7546546459197998,3.777329206466675,0.31508761644363403,0.19491666555404663,-0.9776448607444763,4.725925445556641
237,83516,83515,0.00520029803737998,0.01809869147837162,0.9820754528045654,-0.6118561029434204,-5.927088737487793,4.8284711837768555,1.756049394607544,3.7762935161590576,0.3152305781841278,0.19915054738521576,-0.9200435876846313,4.781020641326904
238,83526,83525,-0.02805018238723278,0.0026625473983585835,1.0094903707504272,5.412834167480469,-8.48728084564209,3.566802501678467,1.75693941116333,3.7759029865264893,0.31529340147972107,0.22873561084270477,-0.896553099155426,4.820313453674316
