,timestamp_start,timestamp_end,acc.x,acc.y,acc.z,gyro.x,gyro.y,gyro.z,stateEstimate.x,stateEstimate.y,stateEstimate.z,stabilizer.pitch,stabilizer.roll,stabilizer.yaw
0,36085,36084,-0.0032740228343755007,-0.036177847534418106,0.9822823405265808,-2.84747314453125,-7.149425983428955,-4.451005935668945,1.8928422927856445,3.870604991912842,0.14891159534454346,-0.17184515297412872,1.2962623834609985,2.261570692062378
1,36095,36094,0.015521704219281673,0.006610350217670202,0.9951629042625427,-10.415016174316406,-4.028109073638916,-5.027717590332031,1.894228458404541,3.871361017227173,0.15072908997535706,-0.2302054762840271,1.2862509489059448,2.193105936050415
2,36105,36104,0.058873891830444336,-0.09189655631780624,0.9449342489242554,-16.589439392089844,-6.529983043670654,-4.621060371398926,1.8934327363967896,3.8769681453704834,0.15428271889686584,-0.08857831358909607,0.5702326893806458,2.1397478580474854
3,36115,36114,0.028572997078299522,-0.10265552997589111,0.9076740741729736,-19.086040496826172,-7.596038341522217,-4.857934474945068,1.8932653665542603,3.8776004314422607,0.15362480282783508,0.07345035672187805,0.5174568891525269,2.1101815700531006
4,36125,36124,-0.007808997295796871,-0.10795646905899048,0.9756742119789124,-11.740811347961426,-7.5926079750061035,-4.651242733001709,1.8926650285720825,3.878521203994751,0.1559087634086609,0.24621142446994781,0.5135385394096375,2.0804576873779297
5,36135,36134,0.028874322772026062,-0.09806308150291443,1.007729172706604,-1.1345491409301758,-4.4622907638549805,-3.946793556213379,1.8932536840438843,3.879517078399658,0.1579558402299881,0.18118911981582642,0.5211824178695679,2.025442123413086
6,36145,36144,0.04568493366241455,0.023654425516724586,1.0615789890289307,9.29116153717041,-6.59884786605835,-1.9626835584640503,1.893406629562378,3.8784828186035156,0.15977180004119873,0.2549585998058319,0.7463886737823486,1.989454746246338
7,36155,36154,-0.03225604072213173,0.09587547928094864,1.0466649532318115,14.287249565124512,-10.449499130249023,-0.6548842191696167,1.8918875455856323,3.8772430419921875,0.16142752766609192,0.41018882393836975,1.0033636093139648,1.9856411218643188
8,36165,36164,-0.04100683704018593,0.05690109729766846,1.1035808324813843,10.286779403686523,-2.692147731781006,-1.5022014379501343,1.889297604560852,3.8779425621032715,0.16353744268417358,0.9921814799308777,0.9849898219108582,2.0449142456054688
9,36175,36174,-0.04348018392920494,0.021684762090444565,1.0770148038864136,2.181123971939087,-1.2439218759536743,-0.3067129850387573,1.8881019353866577,3.8786230087280273,0.1650066077709198,1.1518852710723877,1.1418533325195312,2.0448246002197266
10,36185,36184,-0.005245204549282789,-0.06572496145963669,1.010692834854126,-6.986964702606201,5.044979572296143,-0.2508537173271179,1.8923561573028564,3.8738784790039062,0.16955910623073578,0.35436514019966125,1.8162033557891846,1.8862861394882202
11,36195,36194,0.016040101647377014,-0.11884831637144089,0.9654809236526489,-14.602079391479492,10.431488990783691,1.8894931077957153,1.8921706676483154,3.8754842281341553,0.17201505601406097,0.3238709270954132,1.7328084707260132,1.8865077495574951
12,36205,36204,0.004126245621591806,0.031673137098550797,1.0316730737686157,-22.939571380615234,9.93362808227539,1.7933762073516846,1.8911926746368408,3.8751392364501953,0.17515337467193604,0.5128775238990784,1.5180214643478394,1.9581564664840698
13,36215,36214,0.029220307245850563,0.07066699117422104,1.030659794807434,-31.523408889770508,2.864001989364624,1.2187762260437012,1.8913196325302124,3.8738460540771484,0.17661148309707642,0.3726693093776703,1.3221697807312012,1.9724180698394775
14,36225,36224,0.00042663438944146037,-0.08510073274374008,0.993520975112915,-32.0528450012207,-0.35812628269195557,1.8655064105987549,1.8911195993423462,3.8696231842041016,0.17816725373268127,0.3244207799434662,1.3758416175842285,1.9686484336853027
15,36235,36234,0.062103718519210815,-0.0522620789706707,0.9805774688720703,-30.506832122802734,-2.3041107654571533,1.6327319145202637,1.8910598754882812,3.8698885440826416,0.18099012970924377,0.3405720889568329,0.9128125905990601,1.999419093132019
16,36245,36244,-0.03657034784555435,0.055649533867836,1.0718021392822266,-26.759178161621094,-2.960747241973877,1.6997421979904175,1.8891195058822632,3.8704402446746826,0.18337340652942657,0.4734807014465332,0.5729473829269409,2.044832229614258
17,36255,36254,-0.03897986561059952,0.1277378350496292,1.0612601041793823,-20.42047882080078,-4.806386947631836,1.913041353225708,1.8880523443222046,3.869272232055664,0.18509072065353394,0.5315310955047607,0.3775222897529602,2.0610129833221436
18,36265,36264,-0.12244238704442978,0.0931500792503357,1.094849705696106,-13.316410064697266,-3.0180747509002686,1.672984004020691,1.8873203992843628,3.8690290451049805,0.18766458332538605,0.5812066197395325,0.05902550369501114,2.0850768089294434
19,36275,36274,0.06537874042987823,-0.15672090649604797,1.009901762008667,-8.927007675170898,-0.456194669008255,1.4322435855865479,1.88326895236969,3.8692283630371094,0.18969066441059113,0.9528535008430481,0.005317733623087406,2.142589569091797
20,36285,36284,0.01590833067893982,-0.18775998055934906,0.9259489178657532,-7.613757610321045,1.4075429439544678,1.5536706447601318,1.8834168910980225,3.8692002296447754,0.19162316620349884,0.870418131351471,-0.13803723454475403,2.152838945388794
21,36295,36294,0.04606504365801811,-0.018929174169898033,0.965521514415741,-8.061826705932617,11.856322288513184,0.6355065107345581,1.8835976123809814,3.8691165447235107,0.19425226747989655,0.7589457631111145,-0.2464730143547058,2.162843704223633
22,36305,36304,-0.040775708854198456,0.06266071647405624,1.008270502090454,-10.272552490234375,12.32695484161377,1.2181583642959595,1.8829892873764038,3.8678624629974365,0.1964685171842575,0.7506309747695923,-0.22717848420143127,2.169668674468994
23,36315,36314,-0.13083313405513763,0.26707106828689575,1.1169036626815796,-13.452802658081055,12.4164400100708,1.271188735961914,1.8828883171081543,3.867809295654297,0.19865819811820984,0.5553021430969238,-0.39419254660606384,2.1844921112060547
24,36325,36324,0.009607039391994476,0.1307055801153183,0.9771495461463928,-15.969792366027832,16.181501388549805,0.09967441111803055,1.8812838792800903,3.866286277770996,0.20097361505031586,0.5840598344802856,-0.5976826548576355,2.206890821456909
25,36335,36334,-0.11811922490596771,0.5733624696731567,1.1150540113449097,-18.073820114135742,15.040082931518555,0.6736500859260559,1.8797699213027954,3.8669192790985107,0.20322522521018982,0.556207537651062,-0.8370788097381592,2.2167670726776123
26,36345,36344,-0.09033080190420151,0.08494222164154053,0.9549620151519775,-14.535943984985352,14.259140014648438,1.398127794265747,1.8782274723052979,3.865994453430176,0.20526990294456482,0.5001603960990906,-0.9930140376091003,2.217151165008545
27,36355,36354,0.07048535346984863,-0.06505846232175827,0.8626866936683655,-8.861607551574707,16.165433883666992,1.389522671699524,1.8765300512313843,3.8636879920959473,0.20757423341274261,0.40975451469421387,-1.099211573600769,2.2224321365356445
28,36365,36364,0.02163122594356537,-0.052051227539777756,0.9215201139450073,-6.049495697021484,13.89847183227539,1.3330940008163452,1.8773046731948853,3.8645007610321045,0.21010351181030273,0.11892812699079514,-1.1403512954711914,2.2364015579223633
29,36375,36374,0.018184006214141846,-0.00805614236742258,0.8950197696685791,-3.4868111610412598,10.964829444885254,2.23608660697937,1.8763288259506226,3.862955331802368,0.21237267553806305,-0.0412372350692749,-1.3357428312301636,2.258543014526367
30,36385,36384,-0.13215596973896027,0.2597616910934448,1.0453155040740967,-0.6324889063835144,11.472319602966309,0.042785800993442535,1.8752083778381348,3.8630502223968506,0.2153318226337433,-0.16967546939849854,-1.4641636610031128,2.2831621170043945
31,36395,36394,0.007946164347231388,-0.11120474338531494,0.8858262300491333,1.4760600328445435,9.251721382141113,0.08199522644281387,1.8739396333694458,3.8634300231933594,0.21742504835128784,-0.28028133511543274,-1.5290541648864746,2.287053346633911
32,36405,36404,-0.17491306364536285,0.5789215564727783,0.9826732873916626,1.9534895420074463,5.2702178955078125,0.18478281795978546,1.8702338933944702,3.862778425216675,0.2195241004228592,-0.07831058651208878,-1.2766989469528198,2.2369956970214844
33,36415,36414,-0.05694660544395447,0.22670882940292358,0.9495948553085327,1.5092233419418335,5.569687366485596,-0.21860271692276,1.8700883388519287,3.8633759021759033,0.22214050590991974,-0.23860196769237518,-1.2645343542099,2.248077154159546
34,36425,36424,-0.10069408267736435,0.016884133219718933,0.992030680179596,1.3101755380630493,9.404330253601074,0.05332452058792114,1.868775486946106,3.8649399280548096,0.2240985929965973,-0.3008280396461487,-1.1746679544448853,2.2484891414642334
35,36435,36434,-0.08107376098632812,0.0885838121175766,1.031369686126709,-0.39916563034057617,13.596363067626953,0.14429707825183868,1.8688756227493286,3.8658769130706787,0.22628766298294067,-0.4794231653213501,-1.2428255081176758,2.265791654586792
36,36445,36444,-0.048241496086120605,0.3524359166622162,1.0136798620224,-1.7411516904830933,12.080249786376953,0.37924623489379883,1.8679041862487793,3.866882801055908,0.2307058721780777,-0.6402731537818909,-1.2584120035171509,2.269045114517212
37,36455,36454,-0.2036147564649582,0.37135833501815796,1.0538359880447388,-5.587767601013184,13.204448699951172,0.4932026267051697,1.8673979043960571,3.866212844848633,0.23293817043304443,-0.7517895698547363,-1.291739821434021,2.2712173461914062
38,36465,36464,-0.17252948880195618,0.20838411152362823,0.9326167106628418,-5.665569305419922,12.70581340789795,-0.6571015119552612,1.8660550117492676,3.867751359939575,0.23543451726436615,-0.9084957838058472,-1.4421875476837158,2.2704572677612305
39,36475,36474,0.04631124064326286,0.05133342370390892,0.8649874925613403,-3.552307367324829,6.529085159301758,-0.5742036700248718,1.8636412620544434,3.868006467819214,0.23764093220233917,-0.8947740197181702,-1.5850039720535278,2.2226803302764893
40,36485,36484,0.10600961744785309,-0.062458280473947525,0.9287667274475098,-0.1983678787946701,4.654724597930908,-0.13182678818702698,1.8632128238677979,3.867408514022827,0.24029198288917542,-1.0470243692398071,-1.5854624509811401,2.2349863052368164
41,36495,36494,0.0621558278799057,-0.07109228521585464,0.9225788712501526,3.8359265327453613,1.7391431331634521,0.17744538187980652,1.8623590469360352,3.867974042892456,0.2424105852842331,-1.1425244808197021,-1.6124190092086792,2.236052989959717
42,36505,36504,0.10880469530820847,0.017660442739725113,0.8827722072601318,8.093975067138672,2.8510642051696777,0.16134443879127502,1.860836148262024,3.8650221824645996,0.24443453550338745,-1.130629301071167,-1.4956682920455933,2.237424612045288
43,36515,36514,0.14646299183368683,-0.09432661533355713,0.8283389806747437,10.299321174621582,1.8709759712219238,0.3600192964076996,1.8603487014770508,3.8673629760742188,0.24532078206539154,-1.2797493934631348,-1.523255467414856,2.244520902633667
44,36525,36524,-0.06678345799446106,0.34545406699180603,1.0048826932907104,11.014372825622559,-2.476940155029297,0.317162424325943,1.8606762886047363,3.866844415664673,0.24699868261814117,-1.4558751583099365,-1.3781818151474,2.285998821258545
45,36535,36534,0.03323900327086449,0.07306161522865295,0.8458254933357239,10.46898078918457,-2.432187557220459,-0.7650728225708008,1.8598949909210205,3.867216110229492,0.24858863651752472,-1.404299020767212,-1.3638883829116821,2.2638137340545654
46,36545,36544,0.02433210425078869,-0.10374569147825241,0.8995172381401062,7.412632942199707,0.17078658938407898,-0.8478460311889648,1.8591420650482178,3.8678841590881348,0.2510324716567993,-1.4002703428268433,-1.3381611108779907,2.2478861808776855
47,36555,36554,-0.10359937697649002,-0.04264380410313606,0.9734349846839905,5.347218990325928,0.10236332565546036,-0.5202169418334961,1.8594326972961426,3.867647409439087,0.25253066420555115,-1.3899067640304565,-1.1975417137145996,2.25506591796875
48,36565,36564,-0.18685683608055115,-0.003908106125891209,1.0028067827224731,4.208245754241943,-2.035151481628418,-0.20846667885780334,1.8582706451416016,3.8687052726745605,0.25396206974983215,-1.3806265592575073,-1.1088082790374756,2.2586138248443604
49,36575,36574,-0.021446803584694862,0.11650789529085159,0.9763889908790588,3.9667696952819824,-1.7587671279907227,-0.742889404296875,1.8571007251739502,3.870920181274414,0.2589356303215027,-1.300284743309021,-1.0369442701339722,2.2496821880340576
50,36585,36584,-0.0203999150544405,0.5436823964118958,0.9986337423324585,5.328094005584717,-2.989084243774414,-1.1492186784744263,1.8569211959838867,3.8711588382720947,0.26055848598480225,-1.3139222860336304,-0.9687761664390564,2.251781463623047
51,36595,36594,-0.0683886706829071,0.2471695989370346,0.9752200841903687,6.869732856750488,-7.206740379333496,-1.2986910343170166,1.8554002046585083,3.870558738708496,0.2621948719024658,-1.263086199760437,-0.9441817402839661,2.2332451343536377
52,36605,36604,-0.08669943362474442,0.14235787093639374,0.9756466746330261,7.7500739097595215,-7.01903772354126,-1.0840603113174438,1.8555593490600586,3.8688929080963135,0.2638207674026489,-1.3064957857131958,-0.8392705917358398,2.243748188018799
53,36615,36614,0.0829012542963028,0.09576310962438583,0.8495736122131348,8.60816764831543,-11.072654724121094,-1.2485405206680298,1.8545185327529907,3.869448184967041,0.2671942412853241,-1.183475136756897,-0.7149618864059448,2.237434148788452
54,36625,36624,0.1834784746170044,0.00527392141520977,0.8837355971336365,8.847664833068848,-7.571753978729248,-1.7521350383758545,1.8536704778671265,3.8725125789642334,0.2689015865325928,-1.0821921825408936,-0.9517809152603149,2.1538193225860596
55,36635,36634,-0.03124682977795601,-0.014205679297447205,0.9627575278282166,8.028284072875977,-7.151066780090332,-1.0455318689346313,1.8592932224273682,3.875474214553833,0.2703358232975006,-1.6481974124908447,-1.0767978429794312,2.1879351139068604
56,36645,36644,-0.020929763093590736,-0.04819825664162636,0.8416376113891602,9.263960838317871,-5.833342552185059,-1.0567690134048462,1.8576654195785522,3.876542329788208,0.2690126299858093,-1.4752016067504883,-1.0839499235153198,2.14274001121521
57,36655,36654,-0.0652841180562973,0.05070512369275093,0.9833089113235474,11.497982025146484,-18.007221221923828,-0.45159703493118286,1.8569939136505127,3.87621808052063,0.2702087461948395,-1.3357023000717163,-1.0113401412963867,2.1164162158966064
58,36665,36664,-0.1669444888830185,0.09171951562166214,0.9214288592338562,13.591272354125977,-8.50810432434082,-0.290709525346756,1.8566948175430298,3.8766188621520996,0.2714681327342987,-1.155894160270691,-0.7233097553253174,2.1538808345794678
59,36675,36674,-0.5204712152481079,0.27375659346580505,0.9590981602668762,18.125186920166016,-10.310750961303711,-0.8655142188072205,1.8548434972763062,3.87673020362854,0.2730483412742615,-0.8941283226013184,-0.5402609705924988,2.1397597789764404
60,36685,36684,-0.16357561945915222,0.21013492345809937,1.017256736755371,16.81161117553711,-9.244111061096191,-1.4175633192062378,1.8555632829666138,3.877305030822754,0.2740703821182251,-0.8587771654129028,-0.34192898869514465,2.1424412727355957
61,36695,36694,-0.046127431094646454,0.17711281776428223,1.0022227764129639,15.357641220092773,-10.268220901489258,-1.3195699453353882,1.8542661666870117,3.8803224563598633,0.27506834268569946,-0.6672468781471252,-0.3266078233718872,2.088346004486084
62,36705,36704,-0.029005585238337517,0.23379677534103394,0.9942160844802856,15.067771911621094,-12.553506851196289,-0.5746228098869324,1.8532191514968872,3.879002571105957,0.2761382460594177,-0.4831462502479553,-0.09153178334236145,2.082631826400757
63,36715,36714,0.030600646510720253,0.17854204773902893,0.9911320805549622,13.254778861999512,-11.851940155029297,-0.7471879720687866,1.8532096147537231,3.879962682723999,0.27642419934272766,-0.39239102602005005,-0.03394772484898567,2.0611495971679688
64,36725,36724,0.20427289605140686,-0.04663532227277756,0.9235550761222839,10.680974006652832,-10.12586784362793,-1.5220893621444702,1.8530869483947754,3.878458023071289,0.27742788195610046,-0.333079993724823,0.1525869369506836,2.060309410095215
65,36735,36734,0.16506505012512207,0.2510240077972412,0.9696370959281921,9.25810432434082,-10.912224769592285,-1.107954740524292,1.8530097007751465,3.8806350231170654,0.2783301770687103,-0.18281257152557373,0.2380131334066391,2.0407497882843018
66,36745,36744,0.19903703033924103,-0.0927642211318016,0.8639426827430725,7.940516948699951,-8.378247261047363,-1.7487868070602417,1.8535634279251099,3.88137149810791,0.27635228633880615,-0.1633835732936859,0.3871411383152008,2.0394694805145264
67,36755,36754,0.01891893520951271,-0.058862924575805664,0.8912702798843384,6.742518901824951,-5.164633274078369,-1.3185181617736816,1.8540024757385254,3.881824254989624,0.2769157588481903,-0.08620061725378036,0.5045281052589417,2.0265774726867676
68,36765,36764,0.02486809529364109,-0.04429904371500015,0.9459695219993591,5.46683931350708,-1.365976333618164,-1.3444575071334839,1.8544213771820068,3.884167194366455,0.2773763835430145,-0.04093947261571884,0.45500269532203674,2.0038678646087646
69,36775,36774,-0.004889741539955139,0.05939861387014389,1.0029535293579102,4.291027069091797,0.30163630843162537,-1.7878681421279907,1.8539578914642334,3.8839516639709473,0.2761160731315613,0.06501137465238571,0.540879487991333,1.9950497150421143
70,36785,36784,-0.007887279614806175,0.5344377756118774,1.0253769159317017,3.760319948196411,1.080888271331787,-1.3491283655166626,1.8539081811904907,3.88619065284729,0.27639904618263245,0.018701499328017235,0.5970038175582886,1.9759654998779297
71,36795,36794,-0.2280803918838501,0.16960057616233826,1.0441620349884033,4.625960350036621,-0.7210644483566284,-0.5362696647644043,1.8542852401733398,3.8912596702575684,0.276691734790802,0.08907582610845566,0.5768490433692932,1.9626308679580688
72,36805,36804,-0.13535411655902863,0.026192042976617813,0.9765272736549377,5.597013473510742,0.8118709325790405,-1.9755867719650269,1.8538938760757446,3.892448902130127,0.27708983421325684,0.18836262822151184,0.73148512840271,1.9647178649902344
73,36815,36814,-0.09228237718343735,-0.011934471316635609,1.0430998802185059,7.508444786071777,-1.6044511795043945,-0.8574778437614441,1.852684497833252,3.8919150829315186,0.27627769112586975,0.29585975408554077,0.7337952852249146,1.9601500034332275
74,36825,36824,-0.06348837167024612,0.014004670083522797,0.9637807607650757,7.313178539276123,-2.8987343311309814,-1.1017471551895142,1.8526629209518433,3.8931057453155518,0.2765648066997528,0.37432757019996643,0.7703891396522522,1.9571458101272583
75,36835,36834,-0.2387046366930008,0.2597638666629791,1.1021748781204224,7.223271369934082,-1.6636874675750732,-0.9109053015708923,1.8523277044296265,3.8937740325927734,0.2769474685192108,0.44337692856788635,0.9518656730651855,1.9493378400802612
76,36845,36844,0.055733196437358856,0.04632766544818878,0.8825036883354187,5.657156944274902,0.7135894894599915,-0.7025317549705505,1.853684425354004,3.896266460418701,0.27702417969703674,0.33936184644699097,0.9619125723838806,1.928112506866455
77,36855,36854,-0.1051507219672203,0.10486239939928055,1.0642300844192505,6.436572551727295,-1.8624516725540161,-0.2099331170320511,1.8530136346817017,3.8966267108917236,0.27738454937934875,0.38644248247146606,1.033457636833191,1.9261707067489624
78,36865,36864,-0.04784609004855156,0.019459934905171394,1.022182583808899,2.5672640800476074,3.3386223316192627,-1.1837958097457886,1.8533167839050293,3.8960273265838623,0.27772441506385803,0.38428375124931335,1.1626700162887573,1.9177029132843018
79,36875,36874,0.0034202169626951218,-0.010439245030283928,0.9683054089546204,0.8505865931510925,4.127820014953613,-0.6458626985549927,1.8529398441314697,3.8953657150268555,0.2769909203052521,0.32930102944374084,1.1593371629714966,1.9056698083877563
80,36885,36884,-0.057156603783369064,0.10654973238706589,1.0047125816345215,-0.29502439498901367,2.7721517086029053,-0.2689765393733978,1.852081298828125,3.897679328918457,0.2772883176803589,0.31824660301208496,1.1334939002990723,1.9052363634109497
81,36895,36894,-0.14093442261219025,0.3252730667591095,1.1446940898895264,-0.9549766778945923,0.59291011095047,-0.3466064929962158,1.8519428968429565,3.896707534790039,0.27756938338279724,0.3309718072414398,1.160030722618103,1.9035996198654175
82,36905,36904,-0.13745179772377014,0.6073195934295654,1.134672999382019,-0.933164656162262,0.21891231834888458,-0.8773701786994934,1.85126531124115,3.897825241088867,0.277980238199234,0.3707989752292633,1.1103414297103882,1.9078757762908936
83,36915,36914,0.13638648390769958,0.02906465344130993,0.8827009201049805,0.09766784310340881,0.45862579345703125,-0.16346655786037445,1.8505663871765137,3.8963468074798584,0.27667924761772156,0.43251821398735046,1.1618092060089111,1.9094904661178589
84,36925,36924,-0.023432835936546326,-0.09740859270095825,0.985249400138855,-1.4705785512924194,0.7727349400520325,-0.3247615694999695,1.8497111797332764,3.8944966793060303,0.2770255506038666,0.43174511194229126,1.1884254217147827,1.9095001220703125
85,36935,36934,-0.025962384417653084,-0.11042170226573944,1.0013387203216553,-2.4639244079589844,1.0790092945098877,-0.9116809368133545,1.8496555089950562,3.8945987224578857,0.27735966444015503,0.43477940559387207,1.1940425634384155,1.9050341844558716
86,36945,36944,-0.049153879284858704,-0.18971574306488037,0.9057260751724243,-2.92383074760437,4.887412071228027,-0.7809412479400635,1.8499619960784912,3.8956921100616455,0.2761332392692566,0.4019254148006439,1.1797946691513062,1.884908676147461
87,36955,36954,0.03432876244187355,-0.06687504053115845,0.9486870169639587,-3.211599349975586,0.595565140247345,-0.5668115615844727,1.8491849899291992,3.896233558654785,0.2763099670410156,0.3897777497768402,1.1446197032928467,1.8896620273590088
88,36965,36964,0.07793138921260834,-0.17536768317222595,0.9112958908081055,-3.9700560569763184,-0.6199268698692322,-0.21311599016189575,1.8475537300109863,3.8956055641174316,0.276359885931015,0.5102989673614502,1.1874339580535889,1.9078630208969116
89,36975,36974,-0.03425547480583191,0.0028606848791241646,1.0585662126541138,-3.0507290363311768,0.4382747709751129,-0.9110459685325623,1.8474111557006836,3.89583420753479,0.27664074301719666,0.4797041118144989,1.1325525045394897,1.8990150690078735
90,36985,36984,0.014098869636654854,-0.033808041363954544,1.0266547203063965,-4.348908424377441,3.072298288345337,-0.22862443327903748,1.847154974937439,3.8963232040405273,0.276774525642395,0.3556451201438904,1.1542812585830688,1.86408269405365
91,36995,36994,0.11402188986539841,-0.027802815660834312,1.0592321157455444,-5.231583595275879,3.9538815021514893,-0.5137783288955688,1.8463737964630127,3.8960061073303223,0.2768987715244293,0.34297069907188416,1.0782215595245361,1.869838833808899
92,37005,37004,-0.04267793148756027,0.02832375466823578,1.107459306716919,-6.303737163543701,5.5574870109558105,-0.9444053173065186,1.846587061882019,3.8967907428741455,0.2752864956855774,0.2331540733575821,0.9800394773483276,1.8563874959945679
93,37015,37014,0.09728586673736572,-0.09615127742290497,0.9409241676330566,-6.709473609924316,3.6501996517181396,-0.6503778100013733,1.8468366861343384,3.8970837593078613,0.27540531754493713,0.16836680471897125,0.8820579051971436,1.8562214374542236
94,37025,37024,0.0047163893468678,-0.08400601893663406,0.9685529470443726,-5.935019016265869,-1.8327921628952026,0.2730284035205841,1.846387267112732,3.89547061920166,0.2755424380302429,0.13648660480976105,0.9171791076660156,1.8375141620635986
95,37035,37034,-0.010803589597344398,0.004138945136219263,1.0563287734985352,-3.8995773792266846,-2.6196324825286865,0.5448775291442871,1.8445764780044556,3.8963613510131836,0.27565792202949524,0.23742453753948212,0.8251609802246094,1.8620010614395142
96,37045,37044,0.0100437942892313,-0.05444931238889694,1.0264075994491577,-3.9875504970550537,-1.239522933959961,-0.779708206653595,1.8437342643737793,3.8953499794006348,0.27658429741859436,0.24976202845573425,0.8290770649909973,1.8556218147277832
97,37055,37054,0.050763413310050964,-0.019190741702914238,1.011594533920288,-4.051944732666016,0.9436476230621338,-0.46538835763931274,1.843186616897583,3.895723819732666,0.2767626643180847,0.321390300989151,0.9001094102859497,1.8523190021514893
98,37065,37064,-0.15119841694831848,0.1992534101009369,1.1259138584136963,-4.596976280212402,-0.9289630055427551,-0.9030685424804688,1.8425846099853516,3.8962535858154297,0.2770264744758606,0.2511414885520935,0.7962669730186462,1.839825987815857
99,37075,37074,0.05118563398718834,-0.12565727531909943,0.9975302219390869,-6.092085838317871,2.9216670989990234,-1.1518162488937378,1.8428453207015991,3.8969216346740723,0.2762754261493683,0.21327750384807587,0.6849951148033142,1.8309326171875
100,37085,37084,0.010932907462120056,-0.03753175958991051,1.0418511629104614,-8.607112884521484,6.331376552581787,-1.1909501552581787,1.8430677652359009,3.8992364406585693,0.27655473351478577,0.16854660212993622,0.530653178691864,1.8217731714248657
101,37095,37094,-0.04406649246811867,-0.03121298737823963,1.037940263748169,-8.245824813842773,14.265748977661133,-0.5748791694641113,1.8446133136749268,3.899895668029785,0.27688467502593994,-0.018136264756321907,0.5265633463859558,1.7910068035125732
102,37105,37104,0.00909513607621193,0.047432541847229004,1.0709290504455566,-6.384965896606445,19.963748931884766,-0.03260087966918945,1.8446882963180542,3.8999650478363037,0.27644476294517517,-0.10963872075080872,0.465183824300766,1.7978041172027588
103,37115,37114,-0.07930432260036469,-0.13882264494895935,0.9839589595794678,-6.585692882537842,22.38266944885254,-0.23293575644493103,1.8458285331726074,3.898874044418335,0.27678507566452026,-0.3672358989715576,0.49120867252349854,1.7820781469345093
104,37125,37124,-0.03279918432235718,0.07687593251466751,1.1192783117294312,-6.3483710289001465,21.472082138061523,-0.43895813822746277,1.845847487449646,3.8994648456573486,0.27719566226005554,-0.5983538627624512,0.35147619247436523,1.785500168800354
105,37135,37134,0.031206844374537468,-0.1521526724100113,0.9738513231277466,-6.855334281921387,19.410661697387695,-0.8001256585121155,1.8444900512695312,3.8983805179595947,0.2777606248855591,-0.6534799933433533,0.39546599984169006,1.7992373704910278
106,37145,37144,0.040772244334220886,-0.1257104128599167,0.9399100542068481,-6.365019798278809,13.668088912963867,-0.37710434198379517,1.8450894355773926,3.9007275104522705,0.2786530554294586,-0.8949387669563293,0.3158368170261383,1.7867066860198975
107,37155,37154,0.008995920419692993,-0.18443572521209717,0.8868803977966309,-6.610479831695557,10.12717342376709,-0.6807231903076172,1.8454837799072266,3.901740312576294,0.2790551483631134,-1.0636625289916992,0.1735313981771469,1.7770401239395142
108,37165,37164,0.02846330963075161,0.002127690240740776,1.0227288007736206,-6.9822258949279785,6.717522144317627,-1.2002063989639282,1.844541072845459,3.900782823562622,0.27937081456184387,-1.1445688009262085,0.10667391866445541,1.7712050676345825
109,37175,37174,0.02671937644481659,-0.08675196766853333,1.0503500699996948,-5.924330711364746,2.9884212017059326,-0.8326902389526367,1.8442881107330322,3.9006505012512207,0.27921345829963684,-1.2049142122268677,0.03921914100646973,1.7604515552520752
110,37185,37184,0.028628965839743614,0.07109654694795609,1.100273847579956,-4.0460429191589355,0.8191207051277161,-1.2764301300048828,1.8440966606140137,3.899141788482666,0.2795250117778778,-1.2435637712478638,0.07325020432472229,1.7541664838790894
111,37195,37194,-0.10795911401510239,0.21315044164657593,1.114298939704895,-2.102548599243164,0.3041400611400604,-0.8804393410682678,1.8435014486312866,3.8990252017974854,0.279921293258667,-1.285252571105957,-0.018993385136127472,1.7372702360153198
112,37205,37204,0.05488429218530655,-0.0495087206363678,0.9319255352020264,-0.8569655418395996,3.0896763801574707,-1.0728917121887207,1.8435821533203125,3.899038314819336,0.2817639410495758,-1.303192138671875,-0.08241065591573715,1.7241650819778442
113,37215,37214,-0.08985799551010132,0.04958878085017204,1.0489280223846436,-2.008380174636841,4.796058654785156,-1.3946728706359863,1.8441476821899414,3.8987183570861816,0.28236261010169983,-1.3343067169189453,-0.0687907263636589,1.7155612707138062
114,37225,37224,-0.07424908876419067,0.20245373249053955,1.1075161695480347,-1.8987723588943481,8.163762092590332,-1.2590547800064087,1.843005657196045,3.8983662128448486,0.2830793559551239,-1.2976120710372925,-0.06955953687429428,1.7082500457763672
115,37235,37234,0.00046833703527227044,-0.0654255747795105,1.011182188987732,-2.8915185928344727,12.681988716125488,-1.4167732000350952,1.8441369533538818,3.8979201316833496,0.28346189856529236,-1.5307517051696777,-0.14772389829158783,1.6833932399749756
116,37245,37244,-0.03137354552745819,0.13501930236816406,1.0973738431930542,-2.8790745735168457,7.713231086730957,-0.9416375756263733,1.8440711498260498,3.8968496322631836,0.28419309854507446,-1.6012842655181885,-0.22449891269207,1.6649842262268066
117,37255,37254,0.1226116344332695,-0.23177941143512726,0.9206342101097107,-3.6491031646728516,7.623378753662109,-1.11557936668396,1.844482421875,3.897273302078247,0.2849102020263672,-1.7352485656738281,-0.22720298171043396,1.6609489917755127
118,37265,37264,0.06730248779058456,-0.17013050615787506,0.957119345664978,-2.920124053955078,2.0301601886749268,-1.0091068744659424,1.8439013957977295,3.894807815551758,0.2856334447860718,-1.7493771314620972,-0.07916723191738129,1.685109257698059
119,37275,37274,-0.021580113098025322,-0.088698610663414,0.9458295702934265,-2.2004451751708984,2.0590786933898926,-1.432798981666565,1.8450363874435425,3.8961751461029053,0.2861146628856659,-1.751115322113037,-0.15081436932086945,1.6633771657943726
120,37285,37284,0.040474213659763336,-0.23335924744606018,0.8058370351791382,-3.037788152694702,1.184522032737732,-1.4389002323150635,1.8447123765945435,3.897812604904175,0.2867411971092224,-1.7288899421691895,-0.22952041029930115,1.640501856803894
121,37295,37294,-0.0016588149592280388,-0.11608768999576569,0.9583393931388855,-3.8490986824035645,-0.12417036294937134,-0.8581893444061279,1.8446892499923706,3.8975977897644043,0.2872731685638428,-1.6811031103134155,-0.23292456567287445,1.6336967945098877
122,37305,37304,-0.0007331191445700824,-0.2182529717683792,0.8881550431251526,-5.159636497497559,0.05230490490794182,-1.2577178478240967,1.8436274528503418,3.8971076011657715,0.2892700433731079,-1.5998107194900513,-0.17087677121162415,1.6456540822982788
123,37315,37314,-0.011257972568273544,0.0739433616399765,0.9569547176361084,-5.984936714172363,1.3723498582839966,-1.4159295558929443,1.8450376987457275,3.897338390350342,0.28962573409080505,-1.7281169891357422,-0.23729205131530762,1.6327646970748901
124,37325,37324,0.05422751232981682,-0.04952439293265343,0.9000060558319092,-6.460916519165039,1.5191212892532349,-1.9600433111190796,1.8467943668365479,3.896591901779175,0.28978440165519714,-1.909600019454956,-0.2171318531036377,1.6410729885101318
125,37335,37334,0.05036319047212601,-0.014801411889493465,0.8580458760261536,-6.294588088989258,0.22539082169532776,-1.8722952604293823,1.8465338945388794,3.8984010219573975,0.29003044962882996,-1.8455721139907837,-0.3454452157020569,1.6028012037277222
126,37345,37344,0.07319094240665436,-0.1443454772233963,0.9006018042564392,-6.994166374206543,-1.5364048480987549,-1.6518125534057617,1.8479033708572388,3.8988959789276123,0.2900310158729553,-1.9173240661621094,-0.409471333026886,1.5917636156082153
127,37355,37354,-0.023198772221803665,0.020301884040236473,1.0429431200027466,-5.145218372344971,-4.891088962554932,-1.5388998985290527,1.846988558769226,3.8988444805145264,0.29017847776412964,-1.7815495729446411,-0.4733244478702545,1.5717289447784424
128,37365,37364,0.03370564430952072,-0.0062721711583435535,1.0008478164672852,-2.9412176609039307,-8.369584083557129,-1.5726157426834106,1.846453070640564,3.8985435962677,0.2902144491672516,-1.6556602716445923,-0.5745444297790527,1.5405296087265015
129,37375,37374,0.19914104044437408,-0.1746349334716797,0.8869688510894775,-0.7367473840713501,-10.13399887084961,-1.4656121730804443,1.848311424255371,3.898939371109009,0.2946193516254425,-1.678034782409668,-0.6278548836708069,1.520710825920105
130,37385,37384,0.08627638220787048,-0.19573283195495605,0.9778491258621216,-0.181885227560997,-10.687742233276367,-1.2293236255645752,1.8482873439788818,3.899169445037842,0.2948164641857147,-1.5476855039596558,-0.5777391195297241,1.5176408290863037
131,37395,37394,0.11234311014413834,0.17665596306324005,1.0172789096832275,2.1813461780548096,-12.459785461425781,-0.6378036737442017,1.8489398956298828,3.8996574878692627,0.2949739098548889,-1.4562311172485352,-0.5822088122367859,1.5056782960891724
132,37405,37404,0.028100358322262764,0.011424452066421509,0.948070764541626,2.7130680084228516,-12.098760604858398,-0.5909091830253601,1.8497343063354492,3.8990800380706787,0.29468056559562683,-1.3926888704299927,-0.4899124205112457,1.5214039087295532
133,37415,37414,1.1497566447360441e-05,0.07676041126251221,1.0399295091629028,2.27223801612854,-9.035150527954102,-0.5037930607795715,1.8487968444824219,3.8977160453796387,0.29480990767478943,-1.212632417678833,-0.3995380997657776,1.5222290754318237
134,37425,37424,-0.013591361232101917,0.10123462229967117,1.0607647895812988,0.6555778384208679,-3.844451904296875,-1.0020849704742432,1.8507100343704224,3.8993046283721924,0.2949122190475464,-1.223225474357605,-0.5569208264350891,1.4849740266799927
135,37435,37434,-0.04150673374533653,0.46324896812438965,1.0866812467575073,-2.4332022666931152,-6.571465015411377,-0.6964990496635437,1.851076602935791,3.8989040851593018,0.2956467866897583,-1.2849962711334229,-0.6040270924568176,1.4719643592834473
136,37445,37444,-0.02798658236861229,0.5511883497238159,1.0297634601593018,-3.879831552505493,-8.44633960723877,-0.40832048654556274,1.8530418872833252,3.8994648456573486,0.2958103120326996,-1.3383365869522095,-0.6829313039779663,1.465658187866211
137,37455,37454,0.008285467512905598,0.33769261837005615,1.1131463050842285,-2.393038034439087,-10.730354309082031,0.25122010707855225,1.8528066873550415,3.9007925987243652,0.29623669385910034,-1.1405951976776123,-0.7530104517936707,1.4475263357162476
138,37465,37464,-0.10596422851085663,0.1248391717672348,1.1000418663024902,1.115689754486084,-11.902304649353027,-0.12831851840019226,1.8531893491744995,3.8998661041259766,0.2967012822628021,-1.0046645402908325,-0.6132152080535889,1.476502537727356
139,37475,37474,0.0022240192629396915,-0.02338719181716442,1.0173383951187134,4.016318321228027,-10.94651985168457,0.02152603678405285,1.8550466299057007,3.900557041168213,0.3011815845966339,-0.9365071654319763,-0.5854290127754211,1.483972191810608
140,37485,37484,-0.09959933161735535,0.0634826272726059,1.035685420036316,5.994054317474365,-10.07593059539795,0.011512992903590202,1.8567922115325928,3.900792360305786,0.3018288016319275,-0.9342299103736877,-0.6013051271438599,1.4902523756027222
141,37495,37494,0.014046324416995049,0.11987095326185226,1.0392060279846191,4.38230562210083,-3.7770347595214844,-0.8420581817626953,1.8571782112121582,3.901945114135742,0.30284082889556885,-0.7261018753051758,-0.5796660780906677,1.4730215072631836
142,37505,37504,0.003555654315277934,0.08491300046443939,1.0199865102767944,5.292413711547852,-4.768522262573242,-0.10868188738822937,1.8568679094314575,3.9020655155181885,0.30454006791114807,-0.5517686009407043,-0.5073907375335693,1.4616193771362305
143,37515,37514,0.030575470998883247,-0.1792622208595276,0.9164460301399231,3.099058151245117,-9.994244575500488,0.7401762008666992,1.8574163913726807,3.9021220207214355,0.3054681420326233,-0.4331025779247284,-0.4424932897090912,1.4671260118484497
144,37525,37524,0.045743875205516815,-0.0634821206331253,0.8885399699211121,2.184256076812744,-7.284862518310547,1.0295785665512085,1.8598614931106567,3.9021568298339844,0.30619773268699646,-0.4984973669052124,-0.4105982780456543,1.4941712617874146
145,37535,37534,-0.2224501222372055,0.20234642922878265,1.1045863628387451,1.9680687189102173,-4.45330810546875,0.8015952110290527,1.8616762161254883,3.903350353240967,0.30960673093795776,-0.489738792181015,-0.4760128855705261,1.5058201551437378
146,37545,37544,-0.051921021193265915,0.14289423823356628,0.9609805941581726,0.428835928440094,-1.7137666940689087,0.08136183768510818,1.8619827032089233,3.903541088104248,0.31060147285461426,-0.4022495746612549,-0.5329739451408386,1.4938294887542725
147,37555,37554,-0.11920853704214096,0.6220111846923828,1.0959601402282715,1.2179689407348633,-0.9447106122970581,0.48237133026123047,1.863048791885376,3.9021658897399902,0.3116888105869293,-0.37311527132987976,-0.4789036512374878,1.4936221837997437
148,37565,37564,-0.04173213988542557,0.3901826739311218,1.1110934019088745,2.9647185802459717,-1.1150100231170654,1.2332347631454468,1.864302396774292,3.9023001194000244,0.31566664576530457,-0.3464787006378174,-0.4646086096763611,1.4978276491165161
149,37575,37574,-0.04912499710917473,0.29637229442596436,1.126718521118164,3.9475948810577393,-2.648277997970581,1.779606580734253,1.8656830787658691,3.902090072631836,0.3169882595539093,-0.38402703404426575,-0.42612555623054504,1.5165760517120361
150,37585,37584,-0.04871714115142822,0.1921486258506775,1.0024844408035278,3.680912971496582,-4.720715045928955,1.702009677886963,1.8660590648651123,3.9021310806274414,0.31851252913475037,-0.29818400740623474,-0.4633983075618744,1.518353819847107
151,37595,37594,-0.10543393343687057,0.4728970527648926,1.0125473737716675,3.2693517208099365,-6.6685404777526855,1.677396297454834,1.8684210777282715,3.9031784534454346,0.31986042857170105,-0.3480771481990814,-0.4833352565765381,1.5438365936279297
152,37605,37604,0.12632347643375397,1.1822702884674072,0.86082923412323,7.034396648406982,-7.247274398803711,2.830406665802002,1.87106454372406,3.904642343521118,0.3186841905117035,-0.45159420371055603,-0.5034712553024292,1.581207275390625
153,37615,37614,0.4099501967430115,0.4974731206893921,0.7520062327384949,5.686361789703369,-3.644045829772949,2.493983030319214,1.8715702295303345,3.9042437076568604,0.3199208974838257,-0.320893794298172,-0.3757286071777344,1.6143347024917603
154,37625,37624,0.12411478161811829,-0.07477308064699173,0.8365200161933899,5.27730655670166,-1.0216516256332397,1.5187798738479614,1.8735146522521973,3.9069128036499023,0.3207014501094818,-0.3746430277824402,-0.39690133929252625,1.6503572463989258
155,37635,37634,0.01159543078392744,0.1530970185995102,0.8258703947067261,3.477299213409424,-0.9469766020774841,1.7115041017532349,1.8744685649871826,3.9071521759033203,0.31637659668922424,-0.2972690463066101,-0.26367849111557007,1.6639312505722046
156,37645,37644,-0.23075300455093384,0.2713516652584076,0.9961985349655151,1.1408659219741821,-1.8425939083099365,1.9169410467147827,1.8751118183135986,3.9082183837890625,0.3167285919189453,-0.20219922065734863,-0.3509545624256134,1.6774500608444214
157,37655,37654,-0.4078702926635742,0.2852253317832947,1.0420273542404175,1.162247896194458,-0.723304033279419,0.9357840418815613,1.8744419813156128,3.907918930053711,0.31716808676719666,-0.04040168225765228,-0.3108145594596863,1.6727601289749146
158,37665,37664,-0.18914510309696198,0.4319227337837219,0.9758322834968567,2.229379177093506,2.056169033050537,1.1454986333847046,1.875363826751709,3.9072341918945312,0.3186996579170227,-0.06074146181344986,-0.2976037263870239,1.6734377145767212
159,37675,37674,-0.23817013204097748,0.3084738254547119,1.0059987306594849,5.007230281829834,-1.268223524093628,1.6751439571380615,1.8752549886703491,3.9089558124542236,0.3191184103488922,-0.006528922356665134,-0.35620835423469543,1.6892707347869873
160,37685,37684,-0.10262089967727661,0.23813585937023163,1.023168683052063,4.404789924621582,1.0555068254470825,1.6004600524902344,1.8746187686920166,3.9083993434906006,0.31960079073905945,0.0927630141377449,-0.2540487051010132,1.6999224424362183
161,37695,37694,0.12262655794620514,-0.054707374423742294,0.8794569373130798,5.622237682342529,1.766772985458374,1.3719699382781982,1.876336693763733,3.9081833362579346,0.3199459910392761,0.030044933781027794,-0.13054411113262177,1.7260640859603882
162,37705,37704,0.09130548685789108,0.057950615882873535,0.8391826152801514,4.646605968475342,0.24209144711494446,1.4645380973815918,1.8782782554626465,3.908830404281616,0.3202693462371826,0.08513779938220978,0.03393886610865593,1.7458453178405762
163,37715,37714,-0.013353477232158184,0.3343845009803772,0.9758244752883911,1.5038647651672363,-1.9670499563217163,0.4409286379814148,1.8778663873672485,3.908381462097168,0.32052987813949585,0.30479565262794495,0.06505405157804489,1.746291160583496
164,37725,37724,0.0514993816614151,-0.1929517388343811,0.90919029712677,-2.4420151710510254,-4.966453552246094,1.2420636415481567,1.8779773712158203,3.9090898036956787,0.32069480419158936,0.41445034742355347,0.02605495974421501,1.7581570148468018
165,37735,37734,-0.13708432018756866,0.16409839689731598,1.0891259908676147,-7.739977836608887,-2.1916112899780273,1.4541161060333252,1.8765701055526733,3.910723924636841,0.32079821825027466,0.5240870118141174,-0.06316233426332474,1.7826881408691406
166,37745,37744,-0.0959860309958458,0.4221143126487732,1.0433582067489624,-10.457347869873047,1.157762050628662,0.07890576124191284,1.8805416822433472,3.9115958213806152,0.32102498412132263,0.2480073869228363,-0.2340349555015564,1.8062182664871216
167,37755,37754,-0.03800280764698982,0.10567806661128998,0.9952876567840576,-8.787131309509277,7.990018367767334,0.04944707453250885,1.880035400390625,3.9121270179748535,0.3210251033306122,0.17775887250900269,-0.3756965696811676,1.8115172386169434
168,37765,37764,-0.1324949562549591,0.15478676557540894,0.8461478352546692,-4.598630905151367,7.227485656738281,-0.5470418930053711,1.8804985284805298,3.9121079444885254,0.32048752903938293,0.15559442341327667,-0.44016918540000916,1.7998284101486206
169,37775,37774,0.2705518305301666,0.6308645009994507,0.8439757823944092,1.5307493209838867,5.5992536544799805,-1.6477630138397217,1.881578803062439,3.912855625152588,0.32054442167282104,0.08052791655063629,-0.40941426157951355,1.8086740970611572
170,37785,37784,0.23485197126865387,0.2140319049358368,0.98423832654953,7.965651988983154,4.840343952178955,-2.3427765369415283,1.8832101821899414,3.9134225845336914,0.32052332162857056,-0.06335228681564331,-0.3462938070297241,1.7988253831863403
171,37795,37794,0.13515609502792358,-0.18092235922813416,0.8782800436019897,12.180059432983398,1.7217388153076172,-3.028940200805664,1.884886384010315,3.913977861404419,0.3202820122241974,-0.1953609436750412,-0.3199632465839386,1.7845505475997925
172,37805,37804,0.10443947464227676,-0.32324713468551636,0.8283166289329529,12.508443832397461,-0.23199458420276642,-5.270926475524902,1.8841830492019653,3.9132680892944336,0.31834957003593445,-0.09081009775400162,-0.1296892613172531,1.745682716369629
173,37815,37814,0.009631890803575516,-0.10314653813838959,0.9341102242469788,9.318000793457031,-2.1427834033966064,-4.907850742340088,1.8854365348815918,3.914440393447876,0.31780439615249634,-0.1192268580198288,-0.11623504757881165,1.718641757965088
174,37825,37824,-0.05963564291596413,-0.09603874385356903,0.9799678921699524,6.702633857727051,-0.9128133654594421,-4.948118209838867,1.8854233026504517,3.914191722869873,0.3173653483390808,-0.034060705453157425,0.09745572507381439,1.6676692962646484
175,37835,37834,-0.013122417032718658,0.026225117966532707,0.93536776304245,5.728891372680664,-1.1403921842575073,-4.89296817779541,1.8856494426727295,3.91606068611145,0.3147820234298706,0.06832282990217209,0.11333609372377396,1.6358082294464111
176,37845,37844,-0.06773458421230316,0.40638619661331177,1.0049872398376465,2.927490472793579,1.9940681457519531,-5.468829154968262,1.8854875564575195,3.9160242080688477,0.31407907605171204,0.20237389206886292,0.24462862312793732,1.5813299417495728
177,37855,37854,-0.10606008768081665,0.812221348285675,1.0865466594696045,0.7677769064903259,5.805398941040039,-5.935634136199951,1.8859373331069946,3.914987325668335,0.31329846382141113,0.23229020833969116,0.31611353158950806,1.5111182928085327
178,37865,37864,-0.035144317895174026,0.681063711643219,1.0302748680114746,-0.5380536913871765,6.408352851867676,-4.550865173339844,1.8882118463516235,3.9155406951904297,0.3130166828632355,0.07332831621170044,0.3524385988712311,1.4629805088043213
179,37875,37874,-0.09118901938199997,0.21766631305217743,0.9817184805870056,-2.070859670639038,7.820943832397461,-3.680818796157837,1.888165831565857,3.9181313514709473,0.31241148710250854,0.12487325817346573,0.20156605541706085,1.4361193180084229
180,37885,37884,-0.06648210436105728,0.027445435523986816,1.0787283182144165,-0.7576160430908203,10.732643127441406,-4.93316650390625,1.8887709379196167,3.917448043823242,0.3117693066596985,0.03311588615179062,0.2072923332452774,1.3798397779464722
181,37895,37894,-0.015231727622449398,-0.038787536323070526,1.0439436435699463,2.4996774196624756,13.234190940856934,-5.335972309112549,1.8895456790924072,3.9189627170562744,0.31115996837615967,-0.07392067462205887,0.15826594829559326,1.3435946702957153
182,37905,37904,0.04441327974200249,-0.05908629298210144,1.0698493719100952,7.026556015014648,9.239030838012695,-5.749324321746826,1.8900082111358643,3.9186294078826904,0.3094816505908966,-0.18410319089889526,0.16908346116542816,1.2847527265548706
183,37915,37914,0.07382826507091522,-0.3520589768886566,0.9300076961517334,9.676424980163574,5.612573623657227,-5.100710868835449,1.893131136894226,3.9199986457824707,0.3087683618068695,-0.4876922369003296,0.17875491082668304,1.2355103492736816
184,37925,37924,0.10176989436149597,-0.09901498258113861,0.9874893426895142,10.402374267578125,0.6268326044082642,-4.294643878936768,1.8934544324874878,3.921581745147705,0.30829447507858276,-0.4693712592124939,0.22781288623809814,1.2015012502670288
185,37935,37934,0.04928726330399513,-0.22088079154491425,0.9000769257545471,8.57601261138916,-4.095639705657959,-4.173145771026611,1.8934940099716187,3.9211947917938232,0.3070932924747467,-0.4681016504764557,0.2895439863204956,1.1454485654830933
186,37945,37944,-0.01612950675189495,-0.08328574895858765,1.013255000114441,4.367037773132324,-8.695652961730957,-3.232257127761841,1.8943742513656616,3.9213192462921143,0.30643561482429504,-0.4629236161708832,0.46974873542785645,1.096904993057251
187,37955,37954,-0.008288382552564144,0.1116093173623085,1.1001379489898682,2.5054678916931152,-11.213778495788574,-0.9180488586425781,1.8945088386535645,3.922797203063965,0.3057926297187805,-0.30506664514541626,0.5072940587997437,1.0835683345794678
188,37965,37964,-0.062201596796512604,0.07362506538629532,1.1163769960403442,-0.6948441863059998,-10.272727966308594,-0.2032969444990158,1.895418643951416,3.922985315322876,0.30540624260902405,-0.2150106430053711,0.5746777057647705,1.0638993978500366
189,37975,37974,-0.07182492315769196,0.2050751894712448,1.1797024011611938,-2.208477735519409,-8.286707878112793,0.9846310615539551,1.8950575590133667,3.923708200454712,0.3048988878726959,-0.015725314617156982,0.5961929559707642,1.084950566291809
190,37985,37984,-0.028523942455649376,0.09349431097507477,1.0083494186401367,-3.9085559844970703,-1.8445968627929688,1.4705890417099,1.897079586982727,3.924353837966919,0.30443868041038513,-0.04200006276369095,0.5831543207168579,1.0938410758972168
191,37995,37994,-0.051399633288383484,-0.025961333885788918,1.004225492477417,-4.399165630340576,2.1702845096588135,2.122789144515991,1.8969879150390625,3.924856662750244,0.30406489968299866,0.02133447863161564,0.5498532056808472,1.1090576648712158
192,38005,38004,0.023941058665513992,-0.119718536734581,0.9626709818840027,-5.270579814910889,7.1573052406311035,2.0763731002807617,1.8967902660369873,3.926180601119995,0.30375728011131287,0.08825287222862244,0.5068868398666382,1.1616623401641846
193,38015,38014,-0.00917067751288414,-0.20287634432315826,0.9732489585876465,-4.518049240112305,8.966501235961914,2.075300455093384,1.8970444202423096,3.9268548488616943,0.3034622073173523,0.08045262098312378,0.45658719539642334,1.1930264234542847
194,38025,38024,0.022805972024798393,0.01840093918144703,1.0410349369049072,-2.302750587463379,14.014139175415039,1.7322986125946045,1.8987433910369873,3.9267427921295166,0.30299338698387146,-0.14024613797664642,0.40726304054260254,1.1993666887283325
195,38035,38034,-0.011688409373164177,-0.031231265515089035,1.00433349609375,-1.7461727857589722,1.760819435119629,2.188260316848755,1.8996405601501465,3.926633834838867,0.30294427275657654,-0.3246970474720001,0.39654773473739624,1.2019697427749634
196,38045,38044,-0.020746372640132904,0.04068398103117943,1.0924561023712158,3.3895561695098877,3.149904489517212,2.3403468132019043,1.8994474411010742,3.928884506225586,0.3026600182056427,-0.319186270236969,0.2704310119152069,1.2539759874343872
197,38055,38054,-0.020314786583185196,0.07425151765346527,1.1030151844024658,2.575364351272583,2.1332273483276367,0.5835645794868469,1.9010398387908936,3.928475856781006,0.30236077308654785,-0.45550090074539185,0.4377426505088806,1.2780925035476685
198,38065,38064,0.017349116504192352,0.07571572065353394,1.1062710285186768,2.9918975830078125,-3.3365347385406494,0.8663443326950073,1.9024262428283691,3.928457260131836,0.3034578859806061,-0.5348578095436096,0.5112054347991943,1.282562494277954
199,38075,38074,-0.011872554197907448,0.019290998578071594,1.084086537361145,0.7520002722740173,-6.893537521362305,0.6761361956596375,1.9022061824798584,3.9288876056671143,0.3035840690135956,-0.4036831855773926,0.48673927783966064,1.2952111959457397
200,38085,38084,-0.020384613424539566,0.162051722407341,1.152404546737671,-0.9131280183792114,-11.5771484375,0.8439754247665405,1.9033293724060059,3.9281909465789795,0.30365848541259766,-0.37201645970344543,0.5092320442199707,1.2790719270706177
201,38095,38094,-0.07797102630138397,0.2529681622982025,1.119403600692749,-0.9034107327461243,-12.864296913146973,0.4430629014968872,1.9037156105041504,3.929330348968506,0.3039165437221527,-0.26273563504219055,0.4290617108345032,1.2968451976776123
202,38105,38104,-0.11486374586820602,0.21920950710773468,1.1221381425857544,-0.6665107011795044,-10.052574157714844,-0.2695696949958801,1.904937505722046,3.9288101196289062,0.3041500151157379,-0.28451573848724365,0.41887614130973816,1.2817796468734741
203,38115,38114,-0.1567225456237793,0.17026567459106445,1.1913396120071411,-0.20045694708824158,-3.1812922954559326,-0.5888142585754395,1.904411792755127,3.9289708137512207,0.3047933876514435,-0.022592421621084213,0.415785014629364,1.2963184118270874
204,38125,38124,-0.055173613131046295,0.18182699382305145,1.148585557937622,2.3802330493927,7.226105213165283,-1.2329771518707275,1.9059011936187744,3.9278314113616943,0.30536210536956787,-0.06272697448730469,0.4433855414390564,1.2665942907333374
205,38135,38134,-0.11747423559427261,0.012583081610500813,1.0453171730041504,5.634900093078613,5.526211738586426,-0.6311303973197937,1.9073125123977661,3.927999496459961,0.30700981616973877,-0.17739394307136536,0.447344571352005,1.2497246265411377
206,38145,38144,-0.1389368176460266,0.23014014959335327,1.0974282026290894,2.8163232803344727,6.979975700378418,-0.565592885017395,1.9080454111099243,3.927934169769287,0.3080117404460907,-0.18570414185523987,0.536857545375824,1.2453206777572632
207,38155,38154,-0.1834762990474701,0.29761067032814026,1.1429264545440674,-1.0458652973175049,4.1424150466918945,-0.6299744248390198,1.908415675163269,3.9278323650360107,0.30911847949028015,-0.2177245020866394,0.4931207299232483,1.2248996496200562
208,38165,38164,-0.11349207907915115,0.1642327904701233,1.050102710723877,-5.7057414054870605,-0.832210898399353,-0.45978930592536926,1.9090231657028198,3.9290988445281982,0.3066719174385071,-0.2668290436267853,0.39435553550720215,1.2208662033081055
209,38175,38174,-0.08844192326068878,0.23716196417808533,1.1069873571395874,-7.775996208190918,-3.2869253158569336,-0.010168313980102539,1.9091652631759644,3.9313161373138428,0.3077614903450012,-0.1975967139005661,0.31938478350639343,1.2611427307128906
210,38185,38184,-0.02808377705514431,-0.0055999536998569965,0.9325261116027832,-7.4444580078125,-7.698903560638428,0.5307466983795166,1.9108879566192627,3.9318995475769043,0.30880290269851685,-0.2879106402397156,0.22085802257061005,1.2426114082336426
211,38195,38194,-0.044726911932229996,0.1601165235042572,1.069656491279602,-8.69861888885498,-5.463864326477051,-0.29017922282218933,1.9113295078277588,3.9318759441375732,0.309376060962677,-0.157367542386055,0.20738421380519867,1.2648869752883911
212,38205,38204,-0.08391513675451279,0.4816572368144989,1.0083063840866089,-2.6145057678222656,0.5097661018371582,-0.5999779105186462,1.9133614301681519,3.9320764541625977,0.31037572026252747,-0.26799333095550537,0.10719738155603409,1.246904969215393
213,38215,38214,-0.09638319909572601,0.3307667374610901,0.9069554805755615,2.8953330516815186,2.6756227016448975,-0.5392008423805237,1.913581132888794,3.9324710369110107,0.3116336464881897,-0.18488287925720215,0.08490379899740219,1.252793788909912
214,38225,38224,0.09524174779653549,0.3799440860748291,0.9307978749275208,4.246227264404297,12.199702262878418,-1.949162244796753,1.9152536392211914,3.9336276054382324,0.31284254789352417,-0.21845178306102753,0.1684751808643341,1.2788881063461304
215,38235,38234,0.1601627916097641,0.2694144546985626,0.8679961562156677,8.867213249206543,7.551681995391846,-1.4515514373779297,1.9154114723205566,3.933389186859131,0.31393036246299744,-0.2349482774734497,0.23350124061107635,1.2507928609848022
216,38245,38244,-0.1021028533577919,0.1509740799665451,1.0072031021118164,8.256684303283691,3.4111645221710205,-0.4635203182697296,1.9162112474441528,3.9338488578796387,0.3148398995399475,-0.3160317540168762,0.2509653866291046,1.2541780471801758
217,38255,38254,-0.21254834532737732,0.19295498728752136,1.1339987516403198,4.873380184173584,0.4590732753276825,-0.5888826847076416,1.9164795875549316,3.9350438117980957,0.31581956148147583,-0.3024020195007324,0.40182051062583923,1.2908437252044678
218,38265,38264,-0.31578630208969116,0.19121788442134857,1.058344841003418,-0.7123041152954102,1.289607048034668,-1.2212716341018677,1.9166635274887085,3.934791088104248,0.314738005399704,-0.2767902612686157,0.4854933023452759,1.2797518968582153
219,38275,38274,-0.33616381883621216,0.2954643666744232,1.0534493923187256,-5.44945764541626,3.6502370834350586,-2.3243298530578613,1.9191927909851074,3.936753273010254,0.3155193626880646,-0.4480086863040924,0.45638152956962585,1.302735686302185
220,38285,38284,-0.25480324029922485,0.18538199365139008,1.0597143173217773,-5.57334566116333,0.8710863590240479,-1.378817081451416,1.9191876649856567,3.9369163513183594,0.3165539801120758,-0.39276033639907837,0.38151806592941284,1.283266544342041
221,38295,38294,-0.18108490109443665,0.225346639752388,0.9010798335075378,-6.039322376251221,4.181209087371826,-0.2373352199792862,1.921360969543457,3.9381139278411865,0.3151491582393646,-0.5628775358200073,0.2733975648880005,1.276710033416748
222,38305,38304,0.13255591690540314,0.042756088078022,0.7592071294784546,-4.0784430503845215,2.350808620452881,0.7705758810043335,1.9209684133529663,3.936840057373047,0.3160049021244049,-0.5256063938140869,0.20011629164218903,1.2403297424316406
223,38315,38314,0.006445986218750477,-0.02136777900159359,0.8912773728370667,0.8266113996505737,-9.687309265136719,0.7753370404243469,1.920807957649231,3.9370970726013184,0.3167784512042999,-0.4359651505947113,0.19058172404766083,1.2650718688964844
224,38325,38324,-0.01673651859164238,0.030428897589445114,0.903980016708374,4.5987348556518555,-13.192238807678223,1.0912935733795166,1.9216127395629883,3.9376769065856934,0.3151770532131195,-0.37125828862190247,0.21230153739452362,1.290480375289917
225,38335,38334,-0.4182373881340027,0.34127551317214966,0.8466851711273193,2.995091676712036,-7.261440277099609,0.3915172517299652,1.9229376316070557,3.93758225440979,0.31541529297828674,-0.33000925183296204,0.2887808084487915,1.308005452156067
226,38345,38344,-0.3223244249820709,0.9744012355804443,1.116082787513733,2.363257884979248,-1.7522021532058716,-0.41340142488479614,1.9242185354232788,3.9375905990600586,0.31562095880508423,-0.2040959745645523,0.33706313371658325,1.3211807012557983
227,38355,38354,-0.19278593361377716,0.34539830684661865,0.9907610416412354,3.740314483642578,0.2185293734073639,1.3580076694488525,1.9258300065994263,3.9371070861816406,0.31573042273521423,-0.25787872076034546,0.3800613284111023,1.299197793006897
228,38365,38364,0.06257134675979614,0.09928417950868607,0.8200506567955017,2.454401969909668,2.021334171295166,1.8662868738174438,1.9258685111999512,3.9376964569091797,0.310886025428772,-0.16635505855083466,0.4443698227405548,1.3353967666625977
229,38375,38374,0.06293100118637085,0.11380670964717865,0.8790992498397827,-0.2335670292377472,0.40214037895202637,2.434840679168701,1.9263718128204346,3.936750888824463,0.3106596767902374,-0.23525245487689972,0.483024537563324,1.3416814804077148
230,38385,38384,-0.039231445640325546,0.11997019499540329,0.9665815830230713,-4.436485290527344,0.08360113948583603,2.268921375274658,1.9256600141525269,3.936882495880127,0.3105359673500061,-0.08330799639225006,0.4721190333366394,1.3903589248657227
231,38395,38394,-0.2386905997991562,0.2935343384742737,1.1284419298171997,-7.8757710456848145,2.4340898990631104,3.847339391708374,1.9273701906204224,3.9390718936920166,0.30755770206451416,-0.16617369651794434,0.3684675097465515,1.4571068286895752
232,38405,38404,-0.09956014156341553,0.6032172441482544,1.024000883102417,-10.363964080810547,9.475512504577637,4.2118635177612305,1.9283088445663452,3.9390432834625244,0.3070452809333801,-0.24850499629974365,0.20029136538505554,1.4642348289489746
233,38415,38414,0.05808655917644501,0.04458475857973099,0.8931864500045776,-7.775339603424072,3.7104692459106445,5.156344890594482,1.9295873641967773,3.940337896347046,0.306511789560318,-0.425185889005661,0.0555218905210495,1.5325448513031006
234,38425,38424,0.3245120346546173,-0.2766672968864441,0.7988277077674866,-7.2574005126953125,1.2644356489181519,6.480573654174805,1.930006980895996,3.9391183853149414,0.30252525210380554,-0.5117921829223633,0.038380298763513565,1.5704385042190552
235,38435,38434,0.15109863877296448,-0.04021666944026947,0.9844979047775269,-4.284367561340332,-4.703070163726807,8.229976654052734,1.932804822921753,3.9389209747314453,0.30144479870796204,-0.7307062745094299,0.013961761258542538,1.6376527547836304
236,38445,38444,-0.02095714397728443,-0.2399880588054657,0.977027952671051,1.076623797416687,-11.696518898010254,8.820138931274414,1.9317355155944824,3.9391722679138184,0.30092668533325195,-0.44822004437446594,-0.02151925303041935,1.7382489442825317
237,38455,38454,-0.16529223322868347,0.2912784516811371,0.9461063146591187,2.6632626056671143,-10.181052207946777,8.541839599609375,1.9308960437774658,3.9393770694732666,0.3001827001571655,-0.15273833274841309,0.019797544926404953,1.8507397174835205
238,38465,38464,-0.062242504209280014,0.2205064743757248,1.0797055959701538,7.293844223022461,-7.095817565917969,9.123858451843262,1.9306801557540894,3.9387006759643555,0.297448068857193,0.040254585444927216,0.19098299741744995,1.9704166650772095
239,38475,38474,-0.09434448927640915,0.10208053886890411,1.024502158164978,7.783210277557373,-12.390501976013184,10.363815307617188,1.931825876235962,3.9377501010894775,0.2963551878929138,0.008099248632788658,0.2989668548107147,2.0537197589874268
240,38485,38484,-0.31766894459724426,0.2613624334335327,1.169100046157837,1.1248387098312378,-3.9906771183013916,9.706787109375,1.9328651428222656,3.9388349056243896,0.29541483521461487,0.04554743319749832,0.2911140024662018,2.159193992614746
