,timestamp_start,timestamp_end,acc.x,acc.y,acc.z,gyro.x,gyro.y,gyro.z,stateEstimate.x,stateEstimate.y,stateEstimate.z,stabilizer.pitch,stabilizer.roll,stabilizer.yaw
0,95277,95276,-0.106573537,0.0062049511,1.0806641579,-8.275343895,-3.1053335667,0.1411223263,2.0509903431,4.0160493851,0.1587296128,-0.136317119,1.9115177393,2.4419300556
1,95287,95286,-0.0313248783,0.1769973189,1.0517451763,-9.8799152374,-8.3066291809,0.5357736945,2.0502588749,4.0163836479,0.1598526239,-0.05563692,1.7730365992,2.4519388676
2,95297,95296,0.001939074,0.0732728243,1.0412784815,-10.8894958496,-11.0714139938,0.9506869316,2.0497465134,4.0162491798,0.1609948426,-0.049274385,1.6159728765,2.4297246933
3,95307,95306,0.0063352189,-0.0700763837,0.9914935231,-11.5358352661,-12.6833372116,0.6187288165,2.0485982895,4.0171923637,0.1622387767,0.2283855826,1.4468820095,2.4777445793
4,95317,95316,0.0111524314,-0.034372896,1.0392024517,-9.5019140244,-9.9799013138,1.2459548712,2.0500965118,4.016201973,0.1643066108,-0.0557758659,1.342875123,2.3686244488
5,95327,95326,0.0476243198,-0.0993350819,1.0707057714,-7.0160388947,-7.1582522392,2.1922795773,2.0506806374,4.0166049004,0.1653413624,-0.0197453629,1.2575439215,2.3574666977
6,95337,95336,0.0649548918,-0.1112465933,1.0741415024,-5.0534543991,-6.3059577942,2.5167412758,2.0511217117,4.0143213272,0.1665073633,0.0497063696,1.2022132874,2.3635914326
7,95347,95346,-0.0174185187,0.047066085,1.079067111,-2.3491575718,-4.6081414223,1.7528543472,2.0515878201,4.0132741928,0.1682546139,0.1719320416,1.2451217175,2.412103653
8,95357,95356,-0.0462961756,0.0967720002,1.0962684155,-2.5518221855,-6.2385878563,1.8176213503,2.0506470203,4.0155105591,0.1696488112,0.2593055069,1.2377250195,2.4562261105
9,95367,95366,0.0144973565,-0.0869293138,1.10468328,-4.6723155975,-7.3678545952,1.55750072,2.0499095917,4.0159306526,0.1713122427,0.4301578403,1.1548726559,2.4938607216
10,95377,95376,0.0314934142,-0.0558719896,1.0454230309,-6.7854399681,-7.2467398643,1.7049267292,2.0507292747,4.0149478912,0.1720046848,0.3401072323,1.0516886711,2.4659383297
11,95387,95386,0.0206109695,-0.045919653,1.0652939081,-9.43953228,-3.5943353176,1.6553215981,2.0493125916,4.0151543617,0.173623547,0.4708345234,0.9253433347,2.493347168
12,95397,95396,0.0295957308,-0.0151657583,1.0764238834,-9.3547687531,-6.4914855957,1.7875748873,2.0495178699,4.0136470795,0.1753179431,0.4652312696,1.0441685915,2.512938261
13,95407,95406,0.0555322208,0.0359756015,1.0991173983,-9.2552833557,-7.2835836411,1.8550304174,2.0490655899,4.0138654709,0.1784294546,0.4368825257,1.1218899488,2.5376861095
14,95417,95416,0.035116978,0.0230079684,1.0819576979,-9.8613348007,-9.3275527954,1.8880544901,2.0499863625,4.015349865,0.1805353016,0.4255409539,0.8854352236,2.5307433605
15,95427,95426,-0.0142425848,0.0121981492,1.0471506119,-10.9960317612,-11.4101934433,1.7771997452,2.0493197441,4.0143837929,0.1828085184,0.6563193798,0.7299787998,2.570330143
16,95437,95436,-0.0031689636,-0.0173826218,1.0355975628,-10.4783945084,-12.2576360703,1.8206766844,2.0496327877,4.0147147179,0.1849529594,0.7701884508,0.5710962415,2.5858433247
17,95447,95446,-0.0154137462,-0.0441699848,1.0049692392,-10.0912313461,-10.2079496384,2.052315712,2.0499544144,4.0151267052,0.1863685697,0.8892346025,0.3484251797,2.60039258
18,95457,95456,0.0106922807,-0.0095110256,1.0539591312,-8.7219781876,-6.8213057518,1.5728690624,2.0493433475,4.0157551765,0.1884465665,1.1248054504,0.1488635391,2.6354503632
19,95467,95466,-0.0220606495,0.0047278539,1.016500473,-5.5673851967,-2.8458311558,1.6242879629,2.0519340038,4.0150690079,0.1909598112,0.8511931896,0.1245446131,2.6114704609
20,95477,95476,0.005800222,0.0831591785,1.0487196445,-2.7492549419,-2.5870771408,2.1246323586,2.0529808998,4.014799118,0.1934081912,0.8597970605,0.0655066073,2.6237063408
21,95487,95486,0.007016039,-0.0551399514,1.033752203,-0.3884423077,-2.4314637184,2.3645496368,2.0534179211,4.0135116577,0.1957350671,0.9220923781,0.1935147792,2.6422114372
22,95497,95496,0.0084597273,-0.0952143669,0.9610016942,0.8583818078,-5.8144445419,2.4229929447,2.0533075333,4.0125660896,0.1981159449,1.0429929495,0.1967712343,2.6654441357
23,95507,95506,0.0007825071,-0.074301973,0.9657535553,-0.2450251728,-6.2709240913,2.5569524765,2.0530405045,4.0116553307,0.2025598735,1.1316390038,0.2224743515,2.6897015572
24,95517,95516,0.0477515496,-0.1233609915,0.9644815326,-4.2653274536,-6.5456585884,2.5105648041,2.0523161888,4.0101232529,0.2049140632,1.2944122553,0.300163269,2.7134656906
25,95527,95526,0.0487333871,-0.1518229544,1.0571265221,-9.2396059036,-3.9198217392,1.6853969097,2.0511260033,4.009086132,0.207332015,1.446510911,0.1729433388,2.7439932823
26,95537,95536,0.1221323311,-0.1522267312,0.9644423127,-11.4213552475,-0.2376318723,1.2073616982,2.050409317,4.0099396706,0.2098005265,1.5561608076,-0.087477006,2.7847578526
27,95547,95546,0.0628606752,-0.0458544604,0.9675342441,-11.2800245285,4.6523237228,0.9997903109,2.0564756393,4.0116209984,0.2128599137,0.7510305643,-0.3639415801,2.7973601818
28,95557,95556,0.0576126426,-0.0686191544,0.9290205836,-8.2215337753,6.1208848953,1.6173368692,2.0555756092,4.0122699738,0.2156325579,0.81427598,-0.4155020118,2.8158140182
29,95567,95566,0.0844010413,-0.1496996582,0.9427347779,-2.8000257015,-0.0864548907,1.5997738838,2.0556721687,4.0123410225,0.218229115,0.8268471956,-0.5015001893,2.8279659748
30,95577,95576,0.0014371407,-0.0292313639,0.9963997602,1.8627141714,-5.1670856476,1.064842701,2.0549287796,4.0134654045,0.2208566815,0.9099339843,-0.5098003149,2.8530471325
31,95587,95586,0.047403831,-0.0443208665,0.9676001072,5.7765889168,-10.6223583221,0.2574533224,2.0552852154,4.0123171806,0.2234812975,0.936925292,-0.3842024505,2.8557510376
32,95597,95596,-0.0240666755,0.1108592376,0.9659578204,7.5904526711,-12.7863321304,-0.1188256294,2.0545380116,4.0118122101,0.2258804142,1.106221199,-0.2680227458,2.8553862572
33,95607,95606,0.0995674282,0.0269724857,0.8793386817,6.3495464325,-11.4909572601,-0.5186476111,2.0536663532,4.0121216774,0.2293113619,1.3739043474,-0.1854971498,2.8550832272
34,95617,95616,-0.0529380925,0.0424920246,0.9613245726,4.2753334045,-14.4552183151,-0.7941097021,2.056653738,4.0137648582,0.2318055332,1.1326447725,-0.2593172491,2.8799314499
35,95627,95626,-0.1024817303,0.0444211029,0.97986871,-2.4656629562,-6.8430504799,-0.7992001772,2.0533072948,4.0099444389,0.2345287204,1.7714818716,0.1966273189,2.8114807606
36,95637,95636,-0.0150810368,0.0210007075,0.9614260197,-7.9712972641,0.2941753864,-1.0056331158,2.0511832237,4.0167794228,0.238366887,1.9782286882,-0.6833562255,2.8807768822
37,95647,95646,-0.0199653301,0.0321813747,0.9065257907,-9.2877540588,8.3636264801,-1.8831448555,2.0574328899,4.0181584358,0.2422461212,1.2829912901,-0.7014786005,2.9198410511
38,95657,95656,0.099261649,0.0591635928,0.911105454,-5.0420970917,12.8678407669,-1.4832230806,2.0583100319,4.0179929733,0.2448027879,1.1490876675,-0.759598434,2.9124109745
39,95667,95666,0.0396972783,0.0855157599,0.9167478085,1.3459694386,8.5674095154,-1.5836330652,2.0573170185,4.0180268288,0.247406438,1.1159088612,-0.5993354321,2.876139164
40,95677,95676,0.0192797948,-0.0327212922,0.9134573936,6.4333310127,6.0764474869,-1.5445790291,2.054923296,4.0190186501,0.2491389811,1.1428035498,-0.5033925176,2.8699374199
41,95687,95686,-0.0094269533,0.0333988257,0.9105356932,9.8932971954,-1.5039305687,-1.8701909781,2.0542495251,4.0193357468,0.2514903843,1.1908720732,-0.3978554308,2.8360431194
42,95697,95696,-0.0056667305,-0.108465679,0.9079414606,9.9354801178,-6.0761303902,-1.3890845776,2.0525109768,4.0194063187,0.2534601092,1.3475013971,-0.2487099618,2.8219048977
43,95707,95706,-0.015532013,-0.060585238,0.8928943872,7.2754340172,-7.412419796,-1.6939424276,2.0521075726,4.0197381973,0.2569757104,1.4643465281,-0.0973934159,2.7791538239
44,95717,95716,-0.0217230711,0.013164497,0.9627739787,2.7241547108,-5.6132826805,-1.5900161266,2.0527088642,4.0195560455,0.2588989437,1.5854153633,-0.0049668583,2.7662727833
45,95727,95726,0.2122541666,0.0423141643,0.9154253006,-2.1519060135,1.1275891066,-2.3584024906,2.0513880253,4.0183734894,0.2607540786,1.662211895,0.0106655005,2.7443733215
46,95737,95736,0.0127758123,0.1044081151,0.9090844393,-5.8442211151,3.3502140045,-2.935939312,2.0513219833,4.0187420845,0.2625980675,1.6356784105,-0.0502664447,2.727013588
47,95747,95746,-0.0860661492,-0.0736037344,0.9057546258,-9.1758956909,10.3958454132,-2.8531208038,2.0516123772,4.0191960335,0.2640826404,1.5477958918,-0.1733737737,2.7085087299
48,95757,95756,-0.0157204587,-0.0178630389,0.9435207248,-8.7737340927,12.9003686905,-2.4070453644,2.0513298512,4.0184855461,0.2656687796,1.4421910048,-0.2658002377,2.68034482
49,95767,95766,-0.0648860633,-0.0404561944,0.9474013448,-5.2139115334,14.3818416595,-2.4767487049,2.0497617722,4.0191054344,0.2671136856,1.440736413,-0.4180976152,2.6562924385
50,95777,95776,-0.0093329996,-0.026667539,0.9160016775,-0.6809920669,13.7553863525,-2.3438389301,2.0519385338,4.0194425583,0.2678951323,1.0452814102,-0.5047841668,2.6502821445
51,95787,95786,-0.0830056965,-0.0319403559,0.9474474788,5.3080401421,10.4933710098,-2.6627233028,2.0528328419,4.0199494362,0.2691852748,0.7593290806,-0.5097106695,2.6351289749
52,95797,95796,-0.0085765496,0.0523321331,0.9416553378,8.3252439499,5.7502198219,-1.7972403765,2.0533106327,4.0196347237,0.2703979909,0.6201218963,-0.4176102281,2.6084139347
53,95807,95806,-0.0265166052,0.0499699451,0.9391833544,10.3189287186,-0.5099294186,-1.9121489525,2.0481436253,4.0162396431,0.2713926435,1.0934252739,0.029005507,2.5177907944
54,95817,95816,-0.0187816843,-0.0418385155,0.9504630566,8.9894723892,-3.8241436481,-0.6601834297,2.0524706841,4.0185379982,0.273101449,0.6249017715,-0.1402855515,2.5614640713
55,95827,95826,0.0132303266,-0.1168491542,0.9061866403,2.4514505863,-3.7880163193,-1.4133012295,2.0500292778,4.0171256065,0.2742791474,0.8544747233,-0.0131703811,2.5381193161
56,95837,95836,-0.0557962097,-0.0195165146,0.9466255307,-1.4698439837,-2.5470199585,-1.5064599514,2.0516109467,4.0169625282,0.275203824,0.6835996509,0.0135246012,2.5351104736
57,95847,95846,-0.0381890573,0.0500567667,0.9528221488,-4.9664740562,-2.6803047657,-1.712838769,2.0580310822,4.0198993683,0.275975585,0.0514627956,-0.3370424807,2.5608448982
58,95857,95856,0.01860491,0.0906654224,0.905369103,-7.1783833504,1.0220183134,-1.7285087109,2.0415861607,4.0169696808,0.2802041769,1.6629452705,-0.1871476322,2.4540205002
59,95867,95866,-0.0127712544,0.1036288068,0.998509109,-4.4952731133,0.3307158649,0.2957479656,2.0400907993,4.0159053802,0.2810697556,1.7126643658,-0.226210624,2.437349081
60,95877,95876,0.0096689826,0.0352332816,1.0054634809,-2.4033608437,12.6423521042,-0.2633411586,2.0397458076,4.0143909454,0.2822161913,1.5511821508,-0.2316294163,2.434158802
61,95887,95886,-0.0107609229,0.0001894613,0.9756360054,0.8331344724,23.0612030029,-0.7645599246,2.0386581421,4.0120959282,0.2831047475,1.4354211092,-0.0477266833,2.4145350456
62,95897,95896,0.0947388783,-0.036645364,0.9311541915,1.6323604584,31.89220047,-0.2453444153,2.039198637,4.0112280846,0.2843804359,1.0098403692,-0.0583647974,2.4135549068
63,95907,95906,0.0846964866,-0.0118854484,0.9474313855,0.2534937263,33.0285758972,-0.9463992715,2.0386624336,4.0113449097,0.2851941586,0.6285501719,-0.0565808229,2.4119064808
64,95917,95916,0.009065819,-0.0036407302,0.9115079641,-2.4407799244,30.6049232483,-0.8508357406,2.0365548134,4.0099167824,0.2858940363,0.457254827,0.0708765462,2.3847715855
65,95927,95926,-0.0668374971,0.0331251323,0.9991769195,-3.8510158062,21.2501373291,0.1526964903,2.0349946022,4.0082092285,0.2866327465,0.1848803312,0.0638991743,2.3647372723
66,95937,95936,0.0193258729,-0.0306635499,0.9207549691,-7.9711461067,17.0244979858,-0.2866399288,2.0346577168,4.0074586868,0.2858507633,-0.0279353652,0.0236364119,2.3722484112
67,95947,95946,0.0175559763,-0.0185555462,0.9591001272,-8.9865159988,16.5821399689,0.3070417047,2.0329217911,4.0065965652,0.2864029706,-0.1705835313,-0.0026852828,2.369385004
68,95957,95956,0.0775685161,-0.1364420205,0.9355157614,-10.1200304031,20.8008937836,0.3787347674,2.0315330029,4.0059628487,0.2869594991,-0.3355678022,-0.0549775958,2.3718292713
69,95967,95966,0.0138385212,-0.0669313446,0.9680486321,-10.8855638504,23.8458194733,0.2977431118,2.0325067043,4.0062627792,0.2876477242,-0.7172346711,-0.2750814259,2.3748352528
70,95977,95976,-0.0102460291,-0.0861509144,0.9578562975,-9.2004795074,27.1495761871,0.3044089675,2.0289757252,4.00502491,0.2900468111,-0.7515955567,-0.339524895,2.3780791759
71,95987,95986,0.0339087248,-0.0286128316,0.9593474865,-7.2990736961,29.4887123108,-0.3436957896,2.0290460587,4.0036935806,0.290645808,-1.1638519764,-0.3023869991,2.3902807236
72,95997,95996,-0.0948402509,0.0346678682,1.0378599167,-5.3843536377,27.0577793121,0.0489194244,2.0294594765,4.0041041374,0.2911520898,-1.661490202,-0.3992461264,2.3905005455
73,96007,96006,-0.0092225699,-0.060686294,0.9575429559,-4.2784190178,25.2737197876,-0.3504047692,2.0261631012,4.0044002533,0.2925148606,-1.6451244354,-0.4611014128,2.3860907555
74,96017,96016,-0.0026965048,-0.0474685654,0.9928175211,-3.4229645729,21.3445129395,0.1195228845,2.0261156559,4.0049242973,0.2930553555,-2.0634140968,-0.5021274686,2.3855319023
75,96027,96026,-0.0095884614,-0.0606812201,0.9892370105,-2.3465719223,12.9252357483,-0.1247042045,2.0240559578,4.004837513,0.2937087119,-2.1550605297,-0.6019986272,2.3670284748
76,96037,96036,0.0175516363,-0.0126398066,0.9735304117,-1.5812066793,7.061653614,-0.0507738329,2.0230431557,4.0045118332,0.2940603793,-2.3565273285,-0.5266943574,2.394340992
77,96047,96046,-0.0032234881,0.1684455276,0.9915661216,-1.3888890743,3.6536560059,-0.0115313912,2.0217418671,4.0030674934,0.294585824,-2.378663063,-0.4500203431,2.4144411087
78,96057,96056,-0.0540538207,0.1041884571,1.0268336535,-0.6036608815,3.1460268497,-0.1439134479,2.0211949348,4.0037741661,0.2951433063,-2.4280705452,-0.5296039581,2.3944952488
79,96067,96066,0.0206219982,0.0245392714,0.9582764506,-1.5239223242,4.1136894226,-0.5479294062,2.019329071,4.0032234192,0.2957009971,-2.3875463009,-0.5896281004,2.3719909191
80,96077,96076,-0.0300045367,0.0747497603,1.03769207,-2.3108904362,4.282561779,-0.5574432611,2.0193479061,4.0029568672,0.2962103188,-2.5061769485,-0.582905829,2.3780174255
81,96087,96086,-0.0098758014,-0.0782040358,0.9492803812,-3.5497853756,8.3580999374,-1.332498312,2.0196452141,4.0016069412,0.2966633141,-2.6209743023,-0.5121079683,2.409870863
82,96097,96096,-0.0454324484,-0.1040194407,0.941916585,-3.0843436718,6.8668217659,-0.9623298049,2.0195484161,4.0018787384,0.2971919179,-2.7033483982,-0.6244434714,2.3686628342
83,96107,96106,-0.0192715805,0.111899443,0.9990878701,-3.8226501942,5.0257234573,-0.8477301598,2.0173213482,4.0019235611,0.2979410887,-2.6174871922,-0.6469374299,2.3532581329
84,96117,96116,0.0321285054,0.0375439078,0.940684855,-2.2523086071,2.6236608028,-1.4493300915,2.0175852776,4.0006222725,0.2983584702,-2.7388551235,-0.6762393713,2.3492734432
85,96127,96126,0.0054784254,-0.0819990933,0.9637238383,-1.6510566473,2.7370634079,-1.1608198881,2.0167064667,4.0001077652,0.2988025546,-2.7235560417,-0.6740945578,2.3427085876
86,96137,96136,-0.0011871151,-0.042812895,0.997669518,-0.7217364311,-0.6610446572,-1.517187953,2.0165407658,4.0002989769,0.2991531491,-2.782535553,-0.7422709465,2.3072171211
87,96147,96146,0.0016786532,-0.0077540805,0.9746105671,-0.2640195191,-1.2654833794,-1.3053710461,2.01648283,3.9988586903,0.2994851172,-2.7859630585,-0.7145192623,2.3099274635
88,96157,96156,-0.0168938935,0.0095205028,0.9924894571,0.7077414393,-3.4334847927,-1.1329989433,2.0163798332,3.9991691113,0.2998522818,-2.771971941,-0.6808004379,2.3148617744
89,96167,96166,0.006169274,-0.0068082716,1.0100461245,0.957110703,-2.1810436249,-1.5831022263,2.0145864487,4.00060606,0.2982509732,-2.7258167267,-0.7111639977,2.2814192772
90,96177,96176,0.0418322571,-0.0431756973,0.9601210952,0.966432333,-2.4677782059,-1.3734405041,2.0145287514,3.9995069504,0.2984539866,-2.6841964722,-0.6558055282,2.2881324291
91,96187,96186,0.0136866784,-0.0209590141,1.020714879,0.9508230686,-2.893812418,-1.733320117,2.0149650574,3.998925209,0.2985817492,-2.7184562683,-0.680119276,2.2619326115
92,96197,96196,0.0061893403,-0.0320218243,1.0010108948,0.5660445094,-2.7943296432,-1.4519058466,2.0154018402,3.9981985092,0.298730284,-2.734259367,-0.69974792,2.2338216305
93,96207,96206,-0.0542451181,0.0412851311,0.9741892815,-0.450958997,-2.9561481476,-1.890136838,2.0159313679,3.9990410805,0.2974396944,-2.7456278801,-0.7290194035,2.2056722641
94,96217,96216,0.009224711,-0.014340952,0.9592949748,-1.6061663628,-2.8542366028,-1.9537606239,2.0164573193,3.9975049496,0.2974684536,-2.7421834469,-0.6919441819,2.2099230289
95,96227,96226,-0.0141725475,0.0359073132,1.0297516584,-1.7248768806,-4.3045096397,-1.6591411829,2.0159840584,3.9978163242,0.2975626886,-2.6466522217,-0.7532739043,2.1656346321
96,96237,96236,0.0462977402,0.0091831498,1.0037027597,-1.6639324427,-6.7223544121,-1.3668482304,2.0151445866,3.9975512028,0.297662437,-2.521594286,-0.8050690889,2.1263010502
97,96247,96246,0.0003557351,-0.0268453266,0.9812868237,0.4881808162,-7.7377433777,-1.255817771,2.0161933899,3.9968950748,0.2976716757,-2.5177912712,-0.7693727016,2.1418163776
98,96257,96256,-0.0463826619,-0.0131668728,1.0241209269,2.2639937401,-8.433599472,-1.143127799,2.0157325268,3.9969468117,0.297770828,-2.3406965733,-0.7829672694,2.1126585007
99,96267,96266,0.0278051663,0.0867416188,0.9708541632,3.5247478485,-7.1573724747,-1.332547307,2.0178124905,3.9967484474,0.2948668301,-2.4671061039,-0.7627502084,2.1178970337
100,96277,96276,-0.0350436941,0.12224935,1.085570097,5.607211113,-6.857275486,-0.7286692858,2.0169634819,3.9965445995,0.2948444188,-2.2795703411,-0.7144861221,2.1010425091
101,96287,96286,0.0463107564,-0.0769768357,0.9410894513,5.6916561127,-6.3605508804,-0.6758204699,2.0181343555,3.9961810112,0.2946982086,-2.2534346581,-0.6344456673,2.1095736027
102,96297,96296,-0.0647030994,-0.0319694765,1.0596240759,4.2822408676,-6.7101941109,-0.7516381741,2.0199663639,3.9956572056,0.2944838107,-2.2996826172,-0.560613215,2.1224036217
103,96307,96306,-0.0495981351,-0.0570400134,1.0284093618,2.3702712059,-8.0517692566,-0.8399745822,2.0198144913,3.9954903126,0.2977775037,-2.1688981056,-0.5123928189,2.1138699055
104,96317,96316,0.0292570386,-0.1286335886,1.0111958981,0.5495293736,-9.693110466,-0.7707634568,2.0224766731,3.9947707653,0.2977681756,-2.2515640259,-0.4965353012,2.1176819801
105,96327,96326,-0.0338494405,-0.0732828602,1.0164048672,-0.9932371974,-12.2347164154,-0.7531734705,2.0216810703,3.9954762459,0.2981955111,-1.98092556,-0.5139038563,2.0903990269
106,96337,96336,0.0004788515,0.04315966,1.0330822468,-1.2117903233,-14.9809932709,-1.0011683702,2.0233333111,3.9957575798,0.2975116968,-1.9124073982,-0.5486302376,2.0781900883
107,96347,96346,-0.0090761716,-0.077505827,0.9939725399,-0.944257915,-14.716006279,-0.6256911755,2.024532795,3.9957110882,0.2976397872,-1.7871968746,-0.5797334313,2.0652415752
108,96357,96356,0.0496858098,0.0104570352,1.0324845314,0.2670516968,-16.2319202423,-1.0426398516,2.0238919258,3.9966385365,0.2979580164,-1.5215978622,-0.6044405699,2.0466535091
109,96367,96366,0.0118310601,-0.0318095312,1.0060673952,1.7591676712,-14.6219472885,-1.2472592592,2.0250556469,3.9967188835,0.296939522,-1.4656507969,-0.6029734015,2.0438439846
110,96377,96376,-0.087959826,0.1046165824,1.0430544615,3.831758976,-12.681063652,-1.5138083696,2.0269646645,3.9970126152,0.2970133424,-1.4227944613,-0.5738429427,2.0402560234
111,96387,96386,0.0076490417,0.0294503123,0.9919120073,4.7439899445,-10.2918357849,-1.4098252058,2.0271937847,3.9967830181,0.2972156703,-1.255997777,-0.51141119,2.0261163712
112,96397,96396,-0.0214243848,0.0025102415,1.0543498993,5.3912920952,-10.2069578171,-1.9773447514,2.0283248425,3.9961788654,0.3009575903,-1.1208639145,-0.4364970028,2.0167584419
113,96407,96406,0.0242760424,-0.0345004387,0.9759411812,5.1599140167,-9.8799114227,-1.6868873835,2.0284221172,3.9965825081,0.3013836145,-0.9866900444,-0.3547656834,2.00426054
114,96417,96416,0.0440219343,-0.0557413474,1.0150699615,4.0012845993,-9.8587236404,-1.5453015566,2.0297977924,3.996193409,0.3017534912,-0.9366543293,-0.2807277739,1.9990513325
115,96427,96426,0.0157475341,-0.0064390213,1.0264343023,3.4233343601,-10.907532692,-1.8970284462,2.0295741558,3.9956772327,0.3022787273,-0.7263990641,-0.2274908274,1.9788621664
116,96437,96436,0.0183447041,-0.1262719184,0.990393579,3.5841698647,-12.9864730835,-2.3301348686,2.0315730572,3.9957685471,0.3029104471,-0.727519989,-0.2577280104,1.9517159462
117,96447,96446,-0.0351606794,0.0243763719,1.0664840937,4.1093621254,-12.6033239365,-1.8248207569,2.0305173397,3.9955763817,0.303573817,-0.397128731,-0.20658122,1.9251471758
118,96457,96456,0.0993261859,-0.1201791987,0.9488317966,5.8434548378,-11.1597862244,-1.9645469189,2.0327329636,3.9961214066,0.3040362,-0.3933005333,-0.2153958082,1.9004198313
119,96467,96466,-0.0071648285,0.0037601732,1.0282483101,8.6935758591,-12.9244689941,-1.1465376616,2.0334970951,3.9962570667,0.3045140803,-0.301448822,-0.1061215624,1.890055418
120,96477,96476,-0.0014987921,0.0336724445,0.9797717929,9.0577411652,-11.2242279053,-0.4979189336,2.0340890884,3.9955985546,0.3050544858,-0.1160583794,0.0401081517,1.8849397898
121,96487,96486,0.007275057,0.0190551579,0.974275887,4.7429947853,-7.6617059708,0.2792122364,2.0340435505,3.9960174561,0.3055800796,0.0236636605,0.0967315212,1.8775378466
122,96497,96496,0.0136462701,-0.0042902771,1.0033476353,-0.397313714,-3.6986951828,1.1647611856,2.0366253853,3.9971978664,0.3046454787,-0.0595423095,0.0044721267,1.8720331192
123,96507,96506,-0.0191304442,0.0185261928,1.0167700052,-4.9683804512,0.242136091,1.6816123724,2.0360603333,3.997399807,0.3051567078,0.1072895303,-0.0150637366,1.8842642307
124,96517,96516,0.0286052208,-0.1042694524,0.98966223,-5.258793354,0.2012425065,1.7306118011,2.039503336,3.997856617,0.3054354191,-0.098498866,-0.0983672217,1.8990812302
125,96527,96526,0.0380465314,-0.1459449381,1.0161778927,0.2119769603,-5.1939153671,2.4917955399,2.0392866135,3.9972875118,0.3060281277,0.0402994491,-0.0159953572,1.9211746454
126,96537,96536,-0.0068322448,-0.0299044978,1.0504921675,7.0561876297,-9.7159976959,2.8427009583,2.0400948524,3.9983737469,0.3068434894,0.179920733,-0.0770562589,1.9546749592
127,96547,96546,-0.0193850733,-0.0078267055,0.9777299166,10.4647016525,-10.3089513779,2.9483892918,2.0437655449,3.9980051517,0.3071624041,0.0139720161,0.0639666617,1.9785729647
128,96557,96556,-0.0062631923,0.0024720985,1.0267775059,11.1215438843,-10.3935155869,2.8835144043,2.0425443649,3.9990997314,0.3078732789,0.3166491091,0.1619426012,2.0249423981
129,96567,96566,0.0078938538,0.0248535238,0.9925224781,10.3623838425,-7.636844635,2.8991832733,2.044198513,3.9992544651,0.3121757209,0.3661469221,0.268997699,2.0551064014
130,96577,96576,0.008531861,0.1387605965,1.0303676128,4.7153096199,-2.620898962,2.4096491337,2.0460481644,4.0005116463,0.3128352463,0.3723119497,0.348559469,2.0939853191
131,96587,96586,0.0062908824,0.1240090355,0.9644234776,0.4342655838,-0.6280878782,2.1404197216,2.046589613,4.000849247,0.3135740459,0.466262728,0.3409751952,2.1235904694
132,96597,96596,0.0732659847,0.046058055,0.9443964362,-4.391330719,2.6319334507,1.7571799755,2.0486779213,4.0023822784,0.3095135391,0.3648373187,0.2620729208,2.154900074
133,96607,96606,0.0253875144,-0.0311923958,0.9596179724,-6.9874949455,2.22473979,1.0159820318,2.049356699,4.0032253265,0.309928596,0.375202179,0.1748702079,2.1859362125
134,96617,96616,0.0443002321,0.0595043413,0.954672277,-7.0865182877,2.8011620045,0.8388391733,2.0493853092,4.0016908646,0.3103356957,0.4485942721,0.2180846781,2.1816627979
135,96627,96626,0.0144427251,0.0328166448,0.9602375627,-4.0808968544,-0.3464962542,0.8658307791,2.0508503914,4.0026245117,0.3105436563,0.3788342476,0.0317513011,2.2016143799
136,96637,96636,0.0173538718,-0.0648642704,0.9341893792,-0.7576986551,-2.2662158012,1.0059770346,2.0501413345,4.0023970604,0.3085539043,0.3481073081,0.0678603575,2.2021181583
137,96647,96646,0.0583686791,-0.1047873944,0.9717799425,2.4133927822,-0.297324121,1.4183456898,2.0505819321,4.0014295578,0.308662802,0.4195767939,0.1604646593,2.2084665298
138,96657,96656,-0.0107031865,0.0032601207,1.0000470877,4.2489843369,-0.412525773,1.2926735878,2.0525159836,4.0017385483,0.3086901307,0.3841266334,0.1776504964,2.2161853313
139,96667,96666,-0.0131052751,-0.0019182297,0.9748228788,5.182287693,0.8110169768,1.6260495186,2.0524463654,4.0012302399,0.3068514466,0.5099030733,0.2955028713,2.2387039661
140,96677,96676,0.038428586,-0.0457884446,0.9403865337,3.2197449207,0.6624439955,2.2723767757,2.053296566,4.0014519691,0.3067675233,0.5349829793,0.3216852844,2.2484738827
141,96687,96686,-0.1385257691,0.0262428727,1.0438395739,-0.0619172044,1.5554169416,2.6925661564,2.0530092716,4.0013718605,0.3066632748,0.6193172932,0.3850758374,2.2986748219
142,96697,96696,-0.0417737253,-0.032120198,0.976529181,-3.7352998257,3.6125955582,2.5898120403,2.0550291538,4.0020895004,0.3072936833,0.4671208262,0.2904880047,2.3035824299
143,96707,96706,0.0021283245,0.077154249,0.9291082025,-7.8957219124,5.9645562172,2.2501945496,2.0555860996,4.0040450096,0.3071992397,0.4388286471,0.1514623165,2.3654892445
144,96717,96716,-0.0286307596,0.0780191794,1.0216999054,-10.3989553452,9.906252861,1.6917225122,2.0567164421,4.0037717819,0.307054162,0.3434171975,0.1017865613,2.3921585083
145,96727,96726,0.0465954021,0.0227065608,0.9841294289,-9.4595708847,3.0735564232,1.5103495121,2.0567600727,4.0037608147,0.3066479862,0.3021475375,0.0882471576,2.4061317444
146,96737,96736,0.0277839713,0.0464372225,1.0268887281,-9.2172546387,-0.3696476221,2.2863268852,2.0578696728,4.00446558,0.3064484894,0.2435405999,-0.0939627513,2.4363694191
147,96747,96746,-0.0239452887,0.0993686244,1.0076934099,-7.4901099205,-5.2106614113,2.0786426067,2.0582895279,4.0047745705,0.3063290119,0.2649578452,-0.1707078218,2.4628617764
148,96757,96756,-0.0421376936,0.0069573969,1.0381631851,-3.4807257652,-10.1470937729,2.0562691689,2.0580129623,4.0043501854,0.3063127995,0.4271398783,-0.2204995006,2.4851884842
149,96767,96766,-0.0731518939,0.0408899412,1.0806754827,-0.1861512065,-6.5002770424,1.8368580341,2.0590927601,4.0028510094,0.3082536161,0.5005428791,-0.1273828149,2.4796516895
150,96777,96776,-0.0849081129,0.1358164102,1.0328727961,-0.7340452075,-1.0386670828,1.6597328186,2.0604314804,4.0039720535,0.3083147705,0.5409277081,-0.1521271318,2.526373148
151,96787,96786,-0.0084049292,0.2473607361,0.9270194769,-4.1356992722,3.5102283955,1.0308988094,2.062558651,4.0048856735,0.308329463,0.3977228999,-0.1824566126,2.5515460968
152,96797,96796,-0.0072683361,0.101238519,1.0106867552,-6.5626058578,2.9298989773,1.5230172873,2.0623919964,4.0049376488,0.3097003698,0.4441018105,-0.2631668448,2.5712485313
153,96807,96806,0.0218275301,-0.0713487267,1.0533615351,-7.8173298836,1.1864215136,0.9734243155,2.0633676052,4.0050477982,0.3098023534,0.34171018,-0.303483665,2.5937108994
154,96817,96816,-0.0410006717,0.0210911408,0.9897748828,-7.3608241081,1.2667515278,-0.5964093804,2.0633826256,4.0059132576,0.3100780845,0.4236991704,-0.4378685951,2.618275404
155,96827,96826,-0.0947654173,0.082149975,1.0446156263,-4.6980214119,0.492587775,-1.6225785017,2.064453125,4.0060181618,0.313203305,0.4162814915,-0.4051839411,2.6238389015
156,96837,96836,-0.0076176268,-0.0098833125,0.9923271537,-1.45849967,-2.4141480923,-3.1144506931,2.0649745464,4.0050902367,0.3136583269,0.4952300489,-0.413805455,2.5969071388
157,96847,96846,0.0441936776,-0.0377719961,0.9703626037,1.8562254906,-4.4681692123,-3.5518715382,2.064355135,4.0054030418,0.314154774,0.6219531298,-0.4422570765,2.5741333961
158,96857,96856,0.1612101346,-0.0121358559,1.0099663734,2.3500320911,-3.9570028782,-4.0408530235,2.0658710003,4.0060873032,0.3145259619,0.4722557962,-0.4231538177,2.5540537834
159,96867,96866,0.0761158541,-0.0301600732,0.9872654676,2.3123300076,-3.7054257393,-5.0915031433,2.0654609203,4.0059423447,0.3127394319,0.6289696693,-0.3927023411,2.5178384781
160,96877,96876,-0.0310559943,-0.2072179168,1.009978652,-3.6036441326,-2.0419728756,-5.555454731,2.0663130283,4.0062179565,0.313028276,0.6792840362,-0.3802889287,2.4835944176
161,96887,96886,-0.0390684716,-0.1374441683,1.041788578,-7.7713875771,-0.2290951461,-6.4751291275,2.0673027039,4.0082468987,0.3132105768,0.5433242321,-0.5266464949,2.466293335
162,96897,96896,-0.1235457212,0.0814839005,1.037810564,-10.0223045349,1.7769807577,-8.270403862,2.0680437088,4.0099048615,0.3147152066,0.5394514799,-0.6614034176,2.4349482059
163,96907,96906,-0.0293529611,0.0248031244,0.9783642292,-10.6244001389,2.1431746483,-9.7479572296,2.0680677891,4.0095629692,0.3151466548,0.5990616083,-0.7439613938,2.3494431973
164,96917,96916,0.0010886106,-0.0716702044,0.9334677458,-8.0533399582,4.2598967552,-11.2428922653,2.0679790974,4.0090537071,0.3155878186,0.6424304843,-0.8306876421,2.2480127811
165,96927,96926,-0.0087904343,-0.069389455,0.9723489881,0.9292670488,6.5701122284,-10.651763916,2.0684092045,4.0103693008,0.3155791461,0.5612068772,-0.9429382086,2.1730487347
166,96937,96936,0.020728562,0.0586589389,0.9836437106,8.880191803,7.9358992577,-10.0068731308,2.0688428879,4.0098719597,0.3159137964,0.5187811852,-0.9035490155,2.0507376194
167,96947,96946,-0.0232265163,0.1668052822,1.0306625366,13.9569158554,10.0971632004,-9.3508090973,2.0691583157,4.0100307465,0.3161995709,0.4459621608,-0.8071373105,1.9434463978
168,96957,96956,-0.0255043991,0.1472814977,0.9525874853,14.7216005325,10.0915908813,-10.5302705765,2.0693876743,4.0082798004,0.3164511621,0.3487377465,-0.5633710623,1.8153455257
169,96967,96966,0.0236518718,-0.0269328095,0.8804786801,14.7775659561,6.865377903,-10.5628566742,2.0682692528,4.0076122284,0.3165671229,0.4066543579,-0.3899171352,1.6908209324
170,96977,96976,-0.0062561277,-0.0493377708,0.9485529661,12.0325698853,2.6249399185,-9.9822492599,2.068728447,4.0074882507,0.3167333007,0.347220093,-0.2036967129,1.5803039074
171,96987,96986,-0.0180595852,-0.0307646506,0.9666289091,7.3004045486,-7.2671866417,-9.1394062042,2.0684375763,4.0086021423,0.3168747425,0.3737436235,-0.2024858892,1.4786721468
172,96997,96996,-0.1962640584,-0.0427013673,1.0377006531,-0.8778158426,-5.9733872414,-8.7617845535,2.0668051243,4.0082478523,0.31562078,0.5803024769,-0.0937463716,1.3665958643
173,97007,97006,-0.1429554671,0.0249399319,1.05532372,-3.5157701969,-4.8569030762,-6.7009630203,2.0689413548,4.0087385178,0.3156337738,0.4832582176,-0.1026815772,1.2970694304
174,97017,97016,-0.0436027497,-0.0421919636,0.9727051854,-5.2348489761,2.0812902451,-5.6279616356,2.0677294731,4.0089526176,0.3157073855,0.6621873975,-0.155405134,1.2270584106
175,97027,97026,-0.0395371951,0.0177919697,0.9999954104,-5.4950594902,6.892334938,-4.9081254005,2.0681922436,4.0093460083,0.3137328327,0.5765120387,-0.2327605635,1.1776695251
176,97037,97036,-0.0885022804,0.0558253005,0.9942023158,-0.7365449071,14.2190322876,-2.8664906025,2.0688774586,4.0095124245,0.3136498332,0.4680485129,-0.2943675518,1.1492052078
177,97047,97046,0.0923263878,-0.1068550199,0.9806592464,5.3185062408,16.3379917145,-2.5927259922,2.0680668354,4.0103259087,0.3135912418,0.3458791971,-0.2795147896,1.1161013842
178,97057,97056,0.066849485,-0.0571412109,0.9637440443,8.7110958099,14.5464525223,-2.7002990246,2.0678451061,4.0099449158,0.3135149777,0.2465663254,-0.1657134444,1.079857111
179,97067,97066,0.0124032181,-0.1488704681,0.9781555533,10.2558584213,16.3327045441,-2.3583512306,2.0684690475,4.009791851,0.3131615222,0.0157983191,-0.0712056607,1.045625329
180,97077,97076,0.0303360708,-0.1447658837,0.928586185,7.9012999535,14.0942230225,-2.182448864,2.0702238083,4.0090465546,0.3129575849,-0.2137382329,0.1074353009,1.0257385969
181,97087,97086,0.0142711913,-0.0497609451,0.9414652586,1.2040507793,10.9614591599,-2.9195833206,2.0692768097,4.0100059509,0.3128774762,-0.2485428303,0.0651753321,1.0354752541
182,97097,97096,-0.0070603788,0.0627543554,1.0220804214,-3.8166666031,7.1431312561,-3.7597026825,2.0677101612,4.0118713379,0.3112649024,-0.3026078343,0.0711833984,1.0158848763
183,97107,97106,-0.0104346657,0.0830598846,0.9541081786,-4.3142633438,6.4141049385,-4.695019722,2.067902565,4.0116939545,0.3108874857,-0.3931664526,0.0111001926,0.9640837312
184,97117,97116,-0.0085586626,0.0098379655,0.9598044753,-2.6394679546,2.7171669006,-4.1563572884,2.0681042671,4.0119128227,0.3104948997,-0.4646657407,-0.0391782932,0.9158936143
185,97127,97126,-0.0805227533,-0.0886874944,1.0383981466,-2.5643076897,5.1868743896,-4.1104202271,2.0661606789,4.0139245987,0.3099448979,-0.4331099689,-0.0709472746,0.9268558621
186,97137,97136,-0.0395940356,0.0011701738,1.0868633986,-0.8801593184,16.8016929626,-4.8845324516,2.0667681694,4.0138969421,0.3095542192,-0.5792893767,-0.0996287167,0.8716598749
187,97147,97146,0.0025410699,-0.0778690502,0.9497643113,0.5093297958,24.6689567566,-3.6371128559,2.0672240257,4.0141582489,0.3092285991,-0.795810461,-0.0878419504,0.8269284368
188,97157,97156,0.0478301495,-0.0326470844,0.9623342752,0.4097765386,26.4203128815,-2.9089932442,2.0681686401,4.0137357712,0.3103025258,-1.1174544096,0.0200911406,0.8034273982
189,97167,97166,0.0205920357,-0.1230779216,0.9360121489,1.740519762,20.8684692383,-1.8443899155,2.065248251,4.0149469376,0.3103457093,-1.0723484755,-0.0499644279,0.7884570956
190,97177,97176,0.0393364318,-0.0542696826,0.9774061441,6.7118859291,9.0190143585,-0.1391587704,2.066470623,4.0154018402,0.3099918664,-1.3524723053,-0.059889216,0.7703157663
191,97187,97186,0.0078277541,-0.0803282186,0.963259697,9.7359704971,5.5387349129,1.6623729467,2.0666663647,4.0142974854,0.309637785,-1.4435582161,0.0956127048,0.7630639672
192,97197,97196,0.017147677,-0.0100479564,1.0016883612,9.3379259109,1.751584053,2.8158211708,2.0661494732,4.0155582428,0.3087150156,-1.4019895792,0.118003346,0.7908872962
193,97207,97206,0.0215330757,-0.0407052115,0.9765948653,8.7682151794,7.9835505486,2.90269804,2.0662794113,4.0153951645,0.3083044589,-1.4316278696,0.2108566016,0.829093039
194,97217,97216,-0.0290199406,-0.0210050903,0.9991313815,6.4611101151,16.4708385468,2.9681406021,2.0669622421,4.0157942772,0.3078798056,-1.5849024057,0.3668240905,0.8651038408
195,97227,97226,0.033005856,0.0414608754,1.005636692,3.3674039841,22.5233535767,2.3220639229,2.0681548119,4.0167865753,0.3099301755,-1.7799924612,0.3213633299,0.8790124059
196,97237,97236,-0.0116945375,-0.0170264244,1.0010727644,2.6158761978,18.5573120117,2.0469698906,2.0680456161,4.0166912079,0.3096955717,-1.9514193535,0.3955164552,0.9011897445
197,97247,97246,0.0480189659,0.1177127361,0.9828829765,1.2223266363,13.2720775604,2.3067760468,2.0694243908,4.0177435875,0.3092515171,-2.2827217579,0.3736198246,0.9308327436
198,97257,97256,-0.0644148365,-0.1060986519,0.9421963096,1.905726552,9.3135299683,1.4408372641,2.0688204765,4.0172791481,0.3090329766,-2.2830653191,0.4191326797,0.9569196105
199,97267,97266,0.021501774,-0.1129803434,0.9506514072,1.0519433022,-1.1363822222,2.5992000103,2.0685138702,4.0171909332,0.3087860644,-2.2659330368,0.4580631852,0.9842376709
200,97277,97276,-0.0115933213,-0.0693364441,0.9785323143,2.333106041,-4.2998843193,3.8735935688,2.069971323,4.0169296265,0.3082943559,-2.3421597481,0.4938234985,1.0084214211
201,97287,97286,0.0188077297,0.0126076611,1.0224658251,4.5222377777,-10.5866765976,4.5793523788,2.0700247288,4.0164704323,0.307862252,-2.2581493855,0.5561959743,1.0480304956
202,97297,97296,-0.0491119176,0.0744436458,0.967382431,3.0385935307,-15.4884204865,4.8657064438,2.0693655014,4.0175409317,0.3065040708,-2.0035812855,0.4737523496,1.0817601681
203,97307,97306,-0.0187448766,0.0733650029,1.0460903645,-1.1910996437,-14.5028486252,4.8472533226,2.0689480305,4.0170345306,0.3060964644,-1.782045126,0.5193128586,1.1303050518
204,97317,97316,-0.0671990216,-0.0380451046,1.0310822725,-1.8540971279,-11.5481090546,5.0862212181,2.0716209412,4.0166954994,0.3055337667,-1.8859367371,0.5865420103,1.1862629652
205,97327,97326,-0.0043726447,0.1264161766,1.0161961317,-2.8971898556,-8.2699136734,4.5591797829,2.0725739002,4.0163087845,0.3037986755,-1.796364665,0.5513510108,1.2166639566
206,97337,97336,0.0019846307,0.0252660196,1.0208444595,-3.2542970181,-7.8754777908,3.4059102535,2.0726919174,4.0166120529,0.3033738434,-1.6587084532,0.5003171563,1.2485159636
207,97347,97346,-0.0189463664,-0.0089723207,1.0566756725,-4.7807526588,-10.6811275482,2.6442599297,2.0736255646,4.0162992477,0.3029008806,-1.592799902,0.4473751485,1.2718148232
208,97357,97356,-0.0957778171,0.0164458361,1.0646117926,-6.4418606758,-17.1951179504,2.2804005146,2.0748610497,4.0161485672,0.3007142246,-1.5341968536,0.3582144678,1.2687375546
209,97367,97366,-0.0803741291,0.0581876785,1.0510810614,-5.5147814751,-17.6593589783,2.6569406986,2.0765120983,4.0155286789,0.3002189398,-1.4722872972,0.4086319506,1.3236203194
210,97377,97376,-0.1056392491,0.1012802944,1.0854189396,-2.2429862022,-17.7324104309,4.0283970833,2.0761415958,4.016433239,0.2999002635,-1.2253578901,0.3303200305,1.36795187
211,97387,97386,0.0027483876,0.0549537316,1.0529581308,0.1221325174,-15.5586977005,3.3723263741,2.0762577057,4.0157160759,0.2996167541,-0.9815055728,0.3852517009,1.4148015976
212,97397,97396,0.0037831939,0.1687070578,1.0964742899,-0.1192286834,-12.753203392,2.8518164158,2.0778126717,4.0159311295,0.3010055125,-0.8720815778,0.380467087,1.4702163935
213,97407,97406,0.0558585525,0.1298225522,1.02406919,-1.012655735,-12.8662633896,3.0841958523,2.0776515007,4.0164299011,0.3009185493,-0.7449241877,0.3586083353,1.510792017
214,97417,97416,0.0798686743,-0.0810451061,1.0291497707,-2.3311491013,-8.583688736,2.9346745014,2.0796709061,4.0159902573,0.3008230031,-0.7663887739,0.3965420723,1.5442494154
215,97427,97426,0.0632770136,-0.0188982617,1.0738995075,-2.0531947613,-8.1069936752,2.4160838127,2.0825591087,4.0158247948,0.3018584847,-0.8045473099,0.3505923152,1.5451723337
216,97437,97436,-0.0287391506,0.0132721048,1.057867527,-3.9403760433,-2.6408789158,0.9807854295,2.0831561089,4.0164203644,0.3021319211,-0.6308083534,0.2953676581,1.5825507641
217,97447,97446,-0.0152478535,0.042877797,1.0455864668,-3.9862065315,-9.4700012207,0.0932186097,2.0828456879,4.0181922913,0.3023672998,-0.5008405447,0.211749956,1.6457750797
218,97457,97456,0.0257497001,-0.0382156521,1.0879634619,-4.9257798195,-4.2850923538,0.0420531631,2.0853147507,4.0169634819,0.3020430505,-0.5879504681,0.2779945731,1.636120677
219,97467,97466,0.0198955704,-0.0268388446,1.0626679659,-1.9067717791,-0.971254766,0.3348820806,2.084646225,4.0175967216,0.3024955094,-0.3833315969,0.1943797022,1.6506892443
220,97477,97476,-0.0249833278,0.0335929506,1.081699729,0.4999754131,1.088952899,0.5021688342,2.0884594917,4.017660141,0.302624613,-0.6688283086,0.1623574197,1.6262184381
221,97487,97486,0.0426576957,-0.1303584427,1.0039012432,1.0017391443,4.3675560951,0.4610741436,2.0906143188,4.017229557,0.3025558293,-0.778313756,0.2540167868,1.6444900036
222,97497,97496,-0.0180107281,0.0904738754,1.0965481997,0.2349948436,3.1419241428,0.7366515398,2.0909438133,4.0169081688,0.3031204045,-0.7146933675,0.2373616844,1.6618311405
223,97507,97506,0.0808394253,-0.0537668243,0.9886761308,-1.682008028,-0.2761107087,1.3390235901,2.0925793648,4.0166578293,0.3035649657,-0.7787858248,0.2032281756,1.6446089745
224,97517,97516,0.1236758456,-0.1671283245,0.998570025,-5.9089035988,-9.3629674911,1.9087482691,2.0913665295,4.0167307854,0.3037187457,-0.6301185489,0.1110597476,1.6551806927
225,97527,97526,0.0523874611,-0.1749918014,1.0306165218,-8.7860612869,-17.5136260986,1.5742360353,2.092454195,4.0168204308,0.3047815859,-0.4904085696,-0.0214372985,1.6574401855
226,97537,97536,-0.0045129182,-0.0200603064,1.0723885298,-7.2361240387,-21.6716957092,2.3558650017,2.0913100243,4.0162653923,0.3056191206,-0.0147396224,-0.0154505307,1.7056366205
227,97547,97546,0.0536724515,-0.0417185389,1.0052694082,-5.764570713,-18.303144455,3.0185806751,2.0949311256,4.0166077614,0.3060978353,-0.0815403163,-0.1379045993,1.7133091688
228,97557,97556,0.106318526,-0.0665694401,1.047580719,-0.4482758939,-16.4804077148,3.5849251747,2.0952224731,4.0165772438,0.307223469,0.2226139754,-0.200238958,1.7356623411
229,97567,97566,0.152811408,-0.1479572952,0.9866549969,4.6668338776,-8.0323209763,2.1042814255,2.0959770679,4.0160531998,0.3079080582,0.3378875852,-0.090468049,1.7684079409
230,97577,97576,0.0156586282,0.0117594395,1.0523896217,3.5796608925,0.7058191299,0.7029245496,2.0978927612,4.0156950951,0.3085584044,0.3151334822,-0.0219932664,1.790353179
231,97587,97586,-0.0388465449,0.0057184678,0.9905143976,1.3977897167,7.1416316032,-0.0410480872,2.0984025002,4.0165295601,0.3095612526,0.3009964824,-0.0676249713,1.7966512442
232,97597,97596,-0.0533727296,0.0301979911,0.9871739149,-4.8060150146,9.6825590134,0.6802749634,2.1008148193,4.0168595314,0.3102415502,0.134307608,-0.0993912965,1.8124593496
233,97607,97606,0.0179141331,0.0502282344,0.9869650006,-10.703414917,9.5686740875,0.8935709596,2.1023089886,4.0170736313,0.3109457195,0.0183575898,-0.2408120185,1.8122905493
234,97617,97616,0.0008934238,0.0438430347,1.0207313299,-11.7862167358,6.0864415169,0.7127769589,2.1018819809,4.0178236961,0.3117681146,0.0028157933,-0.3609781265,1.8500195742
235,97627,97626,0.0625056773,-0.0100978799,0.9545843601,-9.4373178482,0.0524487346,0.7991616726,2.1028060913,4.0154900551,0.3158214092,0.0077044754,-0.3218798637,1.8062061071
236,97637,97636,0.1586139351,-0.0293631628,0.9608757496,-3.916877985,-5.3204994202,0.6409934163,2.1047735214,4.0160021782,0.3166625798,-0.0380885899,-0.4449650049,1.8254492283
237,97647,97646,0.0970565304,-0.053897202,0.9337157607,1.4687715769,-10.4056348801,-0.5721486211,2.1040332317,4.0151734352,0.3177375793,0.23566553,-0.4680890143,1.7936637402
238,97657,97656,-0.0242778156,0.0701674744,0.9705687165,4.8315057755,-11.0645103455,-0.4575653374,2.1084368229,4.0163154602,0.318377167,0.1570947617,-0.4219556451,1.8415958881
239,97667,97666,-0.0261433087,-0.0683265701,0.9570001364,7.5459365845,-9.7256832123,-1.166654706,2.1077070236,4.0153241158,0.318526417,0.3933669031,-0.3240108192,1.8060635328
240,97677,97676,-0.0440333076,-0.0287633631,0.9832361937,10.0022382736,-7.3854064941,-1.0034803152,2.1089603901,4.0136237144,0.3199853301,0.5853697658,-0.1831882447,1.7442644835
241,97687,97686,-0.0064203665,-0.0496402867,0.940977335,6.7262401581,-3.6320531368,-0.8654634356,2.1107230186,4.0138521194,0.3212194443,0.4155940711,-0.1113976017,1.7421499491
242,97697,97696,-0.110694848,0.0817840844,0.9797845483,1.157834053,1.4666231871,0.1719264984,2.1111013889,4.0125055313,0.3219698071,0.5092072487,-0.0583207533,1.6878904104
243,97707,97706,-0.0737939104,-0.0133087095,1.0044147968,-2.067204237,3.4835214615,0.785811007,2.1122846603,4.0132699013,0.322732538,0.5140392184,-0.0778249353,1.731819272
244,97717,97716,0.0066915085,-0.068366155,0.9089123607,-3.9141952991,5.9428405762,0.9800885916,2.1133072376,4.0132236481,0.3233910799,0.4702665508,-0.1429095417,1.7347203493
245,97727,97726,-0.0689237863,0.0233022142,0.9776249528,-3.6626472473,5.4644403458,0.9940264821,2.1132564545,4.0130772591,0.3198605478,0.4842741489,-0.2167922407,1.7274979353
246,97737,97736,-0.0542386882,0.018393172,0.9551839232,-1.4085582495,3.3848536015,1.9702453613,2.1147186756,4.0123929977,0.3205388486,0.521264255,-0.1894163936,1.7306851149
247,97747,97746,0.0218158998,0.0762678683,0.9179068208,1.4332805872,2.0893495083,2.4814460278,2.1155056953,4.01278162,0.3204909861,0.4047272801,-0.2060825974,1.759740591
248,97757,97756,0.0141083803,0.0235932078,0.9462125301,3.6118359566,-0.89688164,2.7341861725,2.1179583073,4.0125627518,0.3213611841,0.3449118733,-0.1693980694,1.7659438848
249,97767,97766,-0.1273810714,-0.0526030697,0.9213715792,4.2336406708,-2.2848799229,2.568377018,2.1182775497,4.0126347542,0.3213346601,0.2985224724,-0.1945398897,1.8011056185
250,97777,97776,-0.049650263,-0.0489228331,0.952929318,6.3554611206,-1.8567501307,2.874928236,2.1193392277,4.0122141838,0.3214517236,0.3049295843,-0.1776838154,1.799020052
251,97787,97786,0.1021624729,-0.0525998622,0.9213520885,5.7859034538,2.9813039303,3.6225082874,2.1188497543,4.0120635033,0.3198350072,0.4224861264,-0.0676418021,1.831094265
252,97797,97796,0.0483354442,-0.0252395961,0.9052264094,5.2552337646,-1.0819503069,3.7247285843,2.1187996864,4.0108933449,0.3197917938,0.5096299052,0.0250996258,1.8263047934
253,97807,97806,-0.1703223288,0.1322505325,0.9824517965,4.7706680298,0.0645869151,5.0113935471,2.1197628975,4.0105895996,0.3195954561,0.4669343829,0.1048754379,1.8722360134
254,97817,97816,-0.0212069377,0.0620614551,0.9696224332,3.6685295105,4.1791057587,5.8407759666,2.1215412617,4.010134697,0.3214484453,0.4459058642,0.161989063,1.9215443134
255,97827,97826,0.0179081187,0.0247811265,0.9288777113,2.1773619652,5.2605733871,5.7462186813,2.1210772991,4.0094285011,0.3214344084,0.3926461637,0.2035632879,1.9809010029
256,97837,97836,0.0400399826,-0.0823317021,0.8528613448,-0.8977717161,5.575050354,6.9148459435,2.1224725246,4.0107383728,0.3210902214,0.3277460933,0.1320503652,2.057697773
257,97847,97846,-0.0077105388,-0.0128357308,0.9663711786,-4.0747613907,3.3003549576,6.8715400696,2.1209807396,4.0112409592,0.3211269379,0.3521218002,0.0951363668,2.1467924118
258,97857,97856,0.0433927663,-0.1747621149,1.0434039831,-6.0375370979,2.2434375286,7.4526958466,2.1222245693,4.0113668442,0.3201848865,0.3056210876,-0.0016905754,2.2114784718
259,97867,97866,0.0460709222,-0.1518616974,1.0114639997,-7.5610480309,4.8698673248,6.4259576797,2.1226987839,4.0116724968,0.3201714158,0.2402563691,-0.1194778383,2.2759408951
260,97877,97876,-0.0051981788,-0.037877012,1.0336714983,-7.5669407845,9.2985601425,6.5562386513,2.1232163906,4.0115747452,0.3198170662,0.1267959177,-0.2491592914,2.3032341003
261,97887,97886,0.0357959457,-0.0171397272,0.9524126649,-1.0844910145,4.5412096977,6.0249595642,2.1239225864,4.0119366646,0.3203884363,0.0957099125,-0.3126668036,2.3799741268
262,97897,97896,0.0282027647,0.0775695518,0.9390799999,3.3069329262,-2.8425917625,6.3495345116,2.1248807907,4.0112247467,0.3201190829,0.0370145477,-0.293192327,2.4057643414
263,97907,97906,-0.0624039359,0.0242332686,0.9797689915,6.045732975,-4.9109277725,5.7067565918,2.1241292953,4.010825634,0.3200371563,0.2240913659,-0.1882617027,2.439437151
264,97917,97916,-0.0375830196,0.0392411761,0.9875974655,5.6026387215,-6.799844265,5.5829696655,2.1250855923,4.0099067688,0.3217719793,0.24686037,-0.0701064318,2.4818897247
265,97927,97926,0.0033106997,0.0144923162,0.989851594,3.0891826153,-0.0088672033,5.0185313225,2.1252532005,4.009832859,0.3216032386,0.2982751429,-0.1092898697,2.4729862213
266,97937,97936,-0.0030871998,0.0309021622,0.9703483582,4.2360053062,-1.9098709822,2.4494321346,2.1250119209,4.0103197098,0.3214592338,0.3764721751,0.0082526319,2.5969462395
267,97947,97946,-0.1133949682,0.1871769577,0.9819613099,-0.7673309445,-1.3778190613,1.8298257589,2.1261608601,4.0109314919,0.3212055564,0.3211982548,-0.1063424349,2.5973029137
268,97957,97956,-0.1063139513,0.0101000173,1.0021934509,-5.7377142906,-0.1456626952,-0.3258109093,2.1259076595,4.0112438202,0.3210448623,0.4178015292,-0.1293034106,2.5917789936
269,97967,97966,-0.0526038483,0.0002507037,1.0185687542,-11.8048276901,2.4200153351,-1.2117321491,2.1272697449,4.0104427338,0.3207496703,0.3243157268,-0.0925878212,2.5749018192
270,97977,97976,0.0029378769,0.0149964662,1.0330090523,-17.567773819,3.034525156,-2.9675796032,2.1278595924,4.0116567612,0.3204637468,0.2573153973,-0.442194581,2.5640332699
271,97987,97986,-0.0002060734,-0.0159415733,0.9909207821,-14.4145011902,1.5195593834,-4.307808876,2.1280066967,4.0112190247,0.3225795329,0.3211309016,-0.383000493,2.5455992222
272,97997,97996,0.008881541,0.0201448444,0.9834624529,-8.1895751953,2.9810905457,-4.8534607887,2.1273069382,4.0123023987,0.3225325346,0.3608734906,-0.537248373,2.5471220016
273,98007,98006,0.0206566099,0.0206658002,0.98845011,-0.6355320811,11.7469797134,-6.2071418762,2.1267836094,4.0119352341,0.3225415647,0.4314872622,-0.5895696282,2.4899735451
274,98017,98016,-0.0197272673,0.023385657,1.0422382355,8.3127183914,15.8351831436,-7.5538244247,2.1281757355,4.011598587,0.3206303716,0.2281817794,-0.5861452222,2.4237143993
275,98027,98026,-0.0023952017,-0.2026015073,0.9823032618,15.484213829,15.984331131,-9.4057617188,2.12951684,4.0113148689,0.3203383088,-0.041404523,-0.5245230198,2.3370702267
276,98037,98036,-0.0591372997,-0.1613033265,1.0541964769,18.5028190613,10.8028593063,-11.626707077,2.1280448437,4.011203289,0.3203454912,-0.1742313504,-0.1578284353,2.1525809765
277,98047,98046,-0.0241807885,-0.0300634764,1.0057407618,17.9817619324,3.8058245182,-11.4359264374,2.1273877621,4.0114221573,0.3230790198,-0.0918013677,-0.1791316271,2.1435081959
278,98057,98056,0.0136636114,0.0215589274,0.9901871085,14.1404495239,-1.877610445,-12.1713180542,2.1273622513,4.0122542381,0.3231700063,-0.1188955382,0.1328490227,1.9341642857
279,98067,98066,-0.0567881316,0.0630139261,1.0346440077,8.5480737686,-4.4123291969,-12.1399965286,2.1267249584,4.0115804672,0.3232522905,-0.0426454693,0.1478208601,1.9000631571
280,98077,98076,-0.0241804905,-0.1254296601,0.9524076581,5.5338039398,-2.9864618778,-11.5894947052,2.1262199879,4.0108084679,0.3232875764,0.0725626871,0.3111466169,1.7544345856
281,98087,98086,0.0604970604,-0.0462529659,0.9743339419,2.261318922,5.7074656487,-12.3752222061,2.1277384758,4.0113162994,0.3211382627,-0.0295435973,0.3626793027,1.5327317715
282,98097,98096,0.0136780255,0.0012031016,0.9820295572,1.2744781971,7.3898286819,-13.1711044312,2.1275074482,4.0106744766,0.3210071623,-0.0168716777,0.3853659332,1.4926342964
283,98107,98106,0.052443102,-0.1418595463,1.0009217262,1.4902751446,12.8803339005,-12.5431251526,2.127641201,4.0106544495,0.3209155798,-0.095956862,0.4159919322,1.3708361387
284,98117,98116,0.0510118678,-0.1268022209,0.9720543623,2.1809449196,12.5674247742,-11.4003000259,2.1280925274,4.0104622841,0.3208315074,-0.2509479523,0.3670481145,1.2043687105
285,98127,98126,0.031233253,-0.2771964669,1.0284475088,1.186948657,10.5121955872,-9.3126916885,2.1271519661,4.0102276802,0.3207562566,-0.3697820008,0.4183700681,0.9606634974
286,98137,98136,-0.0186501592,-0.0256089438,1.0828704834,4.3460226059,8.0861444473,-7.6055178642,2.1280555725,4.0101532936,0.3206169605,-0.3996779323,0.4367418289,0.979816854
287,98147,98146,-0.0031077531,-0.0393304229,0.9820386171,8.3269062042,3.5720827579,-5.0929765701,2.1276226044,4.0093841553,0.3213479221,-0.4901101887,0.5100739002,0.8983026743
288,98157,98156,0.0614322983,0.0365322083,0.9164168835,11.3607788086,-3.7162947655,-1.7777011395,2.1276800632,4.0098671913,0.3213289678,-0.5157759786,0.5632977486,0.8429290056
289,98167,98166,0.1004918367,0.0916502252,0.995167017,10.3157501221,-1.8925299644,0.4276545644,2.1283559799,4.0093793869,0.3211854994,-0.5907893181,0.7420740128,0.8233916759
290,98177,98176,0.0230985601,-0.0585782751,0.9481790662,7.4104351997,-0.7022188902,2.8139486313,2.1283092499,4.0090618134,0.3210994303,-0.5694130659,0.8305822015,0.8042146564
291,98187,98186,-0.020718867,-0.0256611761,0.9936365485,1.4447778463,7.1803474426,3.2733819485,2.1292655468,4.0082073212,0.3237124085,-0.58861202,0.950859189,0.8047329783
292,98197,98196,-0.0476954132,-0.0773183107,0.9777048826,-4.8981947899,14.6810083389,3.4235243797,2.1299626827,4.0086164474,0.3237646222,-0.6555053592,0.88897264,0.8146787286
293,98207,98206,-0.1130144596,-0.0891302526,1.018024683,-7.3355445862,13.9114456177,3.8466260433,2.1308381557,4.0084738731,0.3237394989,-0.8375097513,0.8893067241,0.8621388078
294,98217,98216,-0.0559919663,-0.0762820393,1.0036174059,-10.3057842255,11.9054327011,4.2285532951,2.1317360401,4.0090670586,0.3227945566,-1.0042588711,0.756177783,0.8942890763
295,98227,98226,0.044725731,-0.0531557426,0.962664783,-8.4809379578,7.4465222359,4.5640387535,2.1307435036,4.0084915161,0.3229181468,-0.9754894972,0.7395554781,0.9759904146
296,98237,98236,0.0406165905,0.0090617705,1.0440722704,-4.6609163284,2.3203551769,5.000954628,2.1307091713,4.0094704628,0.3229184747,-1.0325508118,0.5917133093,1.0386896133
297,98247,98246,0.0105256857,-0.0188582819,0.9740298986,1.4997074604,3.4885241985,4.8895106316,2.1305198669,4.0081996918,0.3222850859,-1.0137315989,0.5929569602,1.0703641176
298,98257,98256,0.0168224219,-0.0265775044,0.9563400149,3.6880905628,3.7713794708,6.1050925255,2.1305913925,4.0078172684,0.3222639561,-0.994838953,0.5987461209,1.112046361
299,98267,98266,0.0182149448,-0.1826681346,1.0628199577,1.6485624313,5.2091965675,7.1555714607,2.1324884892,4.0074234009,0.3221257031,-1.1514732838,0.6400110126,1.1992424726
300,98277,98276,0.0176003259,-0.1265320927,0.9820449948,-0.9881058335,12.9926242828,7.4685106277,2.133005619,4.0082511902,0.322091639,-1.202599287,0.648963213,1.2741698027
301,98287,98286,-0.1254373342,0.0315265581,0.9902426004,-3.7198336124,12.2621927261,6.9397435188,2.1333782673,4.0091013908,0.3208256066,-1.4273258448,0.6901788712,1.4209686518
302,98297,98296,-0.0338382535,0.0134597421,0.951167345,-8.1618251801,13.5582904816,6.6120471954,2.1339859962,4.0090732574,0.3206688166,-1.577352643,0.59058249,1.4603356123
303,98307,98306,0.0507617518,-0.0506172813,0.9778855443,-6.7100834846,7.3665189743,6.3523206711,2.1326715946,4.0092725754,0.3207316697,-1.5557162762,0.5193659663,1.5771946907
304,98317,98316,-0.0217408203,-0.0190968905,1.012296319,-1.780719161,1.6121258736,5.4893527031,2.1344268322,4.0089159012,0.3205411732,-1.7592163086,0.4723833203,1.6265215874
305,98327,98326,0.0205315128,-0.0610100999,0.9625121355,2.1574308872,-6.7736673355,5.7100272179,2.1342248917,4.0084910393,0.3204516768,-1.6971371174,0.5017251968,1.7234582901
306,98337,98336,-0.1200430393,-0.0483160391,1.004137516,4.7354807854,-9.3009433746,5.0149002075,2.1349771023,4.0087132454,0.3203348815,-1.6069601774,0.5089681745,1.8093390465
307,98347,98346,-0.0234927833,-0.037794292,0.9707148671,1.9081223011,-6.9328298569,4.9904975891,2.1346642971,4.0084209442,0.3191178739,-1.4600583315,0.5526632071,1.8378157616
308,98357,98356,0.0088072009,-0.0031906245,0.9664572477,-0.6092227697,-3.3209016323,4.5335288048,2.1340956688,4.0078859329,0.318963021,-1.2740523815,0.5563182235,1.8998637199
309,98367,98366,-0.0006649038,0.0188671853,1.0092868805,-6.1934790611,-0.4150243998,5.9553260803,2.1351878643,4.0072107315,0.3186319172,-1.314026475,0.5178642273,1.8805320263
310,98377,98376,0.0808165371,-0.0023770554,0.9560495019,-11.9517478943,8.3683815002,4.9237208366,2.1358428001,4.0067868233,0.3183194697,-1.3488278389,0.5386311412,1.9660249949
311,98387,98386,-0.0588025264,0.0356592648,0.9884354472,-14.7505016327,0.3982208967,4.1004595757,2.1366028786,4.0093579292,0.3156882226,-1.5322064161,0.3084025085,2.0748155117
312,98397,98396,-0.0710830986,-0.0140069677,0.9722271562,-18.8983306885,-4.4780874252,3.3347022533,2.1372337341,4.0080685616,0.3152013719,-1.5409857035,0.2598867118,2.1174836159
313,98407,98406,-0.0031624793,-0.0150569538,1.0156822205,-17.7280330658,-7.8461618423,2.9101228714,2.137748003,4.008026123,0.3147774935,-1.4571882486,0.0727902055,2.1750619411
314,98417,98416,-0.0319818072,-0.0100093372,1.0117672682,-20.1378269196,-9.2501382828,2.2447535992,2.1387615204,4.0074052811,0.3176131248,-1.394520998,-0.1089308038,2.1837587357
315,98427,98426,0.0124880401,-0.0330842957,0.990768671,-23.5789031982,-10.0684013367,0.8681356311,2.1417376995,4.006799221,0.3171573877,-1.5203251839,-0.1738175303,2.2687911987
316,98437,98436,-0.073884055,0.0258887187,0.97796911,-23.9727516174,-10.4487438202,-1.3302115202,2.1431353092,4.0062522888,0.3167284727,-1.4586509466,-0.4007000029,2.2821359634
317,98447,98446,-0.0800321251,0.071972318,0.9817518592,-23.7032356262,-6.2675514221,-2.9531667233,2.1422741413,4.004860878,0.3194529116,-1.1665621996,-0.6212285757,2.2206110954
318,98457,98456,-0.0441334844,-0.0012937441,1.0415898561,-22.1405563354,-8.7540111542,-2.4234497547,2.1439590454,4.0048885345,0.3192270398,-1.1549476385,-0.9096029997,2.2149252892
319,98467,98466,0.0745194107,-0.0834760591,0.947817266,-18.9819984436,-7.2918729782,-3.5088088512,2.1458721161,4.004638195,0.319038868,-1.1053715944,-1.1590492725,2.1769635677
320,98477,98476,-0.0236203354,0.0292893276,1.0086146593,-12.4092597961,-15.0678863525,-4.4909849167,2.145986557,4.0041155815,0.3179993331,-0.8998995423,-1.3447680473,2.1438035965
321,98487,98486,-0.0114125712,-0.0331258103,0.9626018405,-6.8853492737,-19.2782554626,-6.6059799194,2.1479170322,4.0014724731,0.3178350627,-0.8384649754,-1.201233387,2.1678974628
322,98497,98496,-0.030844938,-0.0058061741,0.999766469,1.0310817957,-23.6646823883,-7.8081040382,2.1494398117,4.0009226799,0.3175531328,-0.6989150643,-1.2906720638,2.1012327671
323,98507,98506,-0.0820459202,0.0144185293,1.0239243507,8.6908693314,-26.6008758545,-7.0722484589,2.1489009857,4.001709938,0.3174155951,-0.3558452725,-1.3878213167,2.038257122
324,98517,98516,-0.0567652434,0.02309273,1.0232013464,11.3240785599,-22.8809223175,-7.4001216888,2.1509587765,4.0004725456,0.3128560483,-0.2210019976,-1.2825518847,1.9479230642
325,98527,98526,-0.0026975104,-0.2104997188,1.0352296829,10.2273054123,-21.0984630585,-8.3225078583,2.1516840458,3.9994010925,0.3124246895,0.0567377992,-1.0658525229,1.8955402374
326,98537,98536,-0.0554975905,-0.123324044,1.0737249851,7.2898783684,-21.2744293213,-8.2625608444,2.1547226906,3.9996404648,0.3118986189,0.0761188567,-1.0331095457,1.8374466896
327,98547,98546,0.0010001871,-0.1717165262,0.991563201,3.3616080284,-13.7814693451,-9.2129764557,2.1541321278,3.9991283417,0.3131495714,0.4680464268,-0.9701895714,1.7257213593
328,98557,98556,0.0543555021,-0.0517021306,0.9937487245,-1.1233767271,-5.8815674782,-8.6424598694,2.1541938782,3.9993112087,0.3128775954,0.6598775983,-0.9582546949,1.665566206
329,98567,98566,0.103065595,-0.1263796389,0.9852704406,-5.4514951706,-2.2657773495,-8.7694272995,2.1572859287,3.9984023571,0.3125258982,0.5040592551,-0.9377334714,1.5979157686
330,98577,98576,0.0026653374,-0.0211271998,1.0765793324,-7.7389750481,2.795334816,-10.4102048874,2.1571784019,3.9993493557,0.3105506897,0.6012715697,-1.0684773922,1.5001209974
331,98587,98586,-0.0208707731,0.0023349056,1.0363358259,-6.7665996552,5.3234591484,-10.4511728287,2.158667326,3.9988827705,0.3101534843,0.5685588717,-1.1348129511,1.4004911184
332,98597,98596,-0.009605513,-0.0950987339,1.0394096375,-5.4232544899,6.3768553734,-10.8320102692,2.1604137421,3.9987182617,0.309794426,0.4739623964,-1.1913684607,1.3111706972
333,98607,98606,-0.0036096631,-0.0336635746,1.0281283855,-4.3684678078,5.3491616249,-9.689948082,2.1605386734,3.9984545708,0.3096288741,0.5130798221,-1.3028465509,1.1743311882
334,98617,98616,0.0024579645,-0.0070550055,1.0071283579,-5.5871171951,5.4894251823,-7.9333000183,2.1610167027,3.9978516102,0.3126706779,0.5509413481,-1.3178100586,1.1076561213
335,98627,98626,-0.0715663359,-0.0544116087,0.9997264147,-8.9750070572,5.4586386681,-7.0732898712,2.1615931988,4.0002117157,0.3125699162,0.4224957228,-1.4267036915,1.0836805105
336,98637,98636,-0.0795494989,-0.0025521435,1.0506304502,-12.1954135895,9.0796422958,-8.2099971771,2.1613273621,4.0013985634,0.3125840127,0.4401566982,-1.5130783319,1.0694561005
337,98647,98646,-0.0369630568,-0.0361084118,1.0164741278,-11.2171583176,10.0427179337,-8.4462842941,2.161809206,4.0016846657,0.3130316138,0.4102958441,-1.7149379253,0.9376636744
338,98657,98656,-0.0344986096,-0.0353194848,0.9759666324,-6.270172596,10.1316595078,-7.7576298714,2.1646666527,4.0007209778,0.3129347861,0.1370635778,-1.8096050024,0.8443577886
339,98667,98666,0.0020287428,-0.0213335399,0.9979189634,3.5372536182,2.4292285442,-7.8693594933,2.1644835472,4.0009803772,0.3131433129,0.1214814857,-1.8815478086,0.7560858727
340,98677,98676,0.0082675964,0.0624592975,1.0074145794,8.726061821,1.0946471691,-8.3699388504,2.1647286415,4.0010471344,0.3121137321,0.1188088655,-1.8005928993,0.6906924248
341,98687,98686,-0.0204375517,0.0388553031,1.0075511932,15.0950078964,-4.0348577499,-8.4662590027,2.1645236015,4.0019855499,0.312228471,0.1877736896,-1.620845437,0.7131826878
