,timestamp_start,timestamp_end,acc.x,acc.y,acc.z,gyro.x,gyro.y,gyro.z,stateEstimate.x,stateEstimate.y,stateEstimate.z,stabilizer.pitch,stabilizer.roll,stabilizer.yaw
0,30121,30117,0.007038781885057688,0.024622825905680656,1.0132094621658325,1.9607127904891968,6.607746601104736,0.49340951442718506,1.8667110204696655,3.975066900253296,0.1646411269903183,0.7912927269935608,-0.3107035160064697,2.520475149154663
1,30131,30127,0.007654791697859764,-0.009074307046830654,0.9970607161521912,-3.8394322395324707,10.416361808776855,0.30024152994155884,1.8668088912963867,3.975149154663086,0.16731537878513336,0.6830525398254395,-0.5778679847717285,2.5420351028442383
2,30141,30137,0.046846531331539154,-0.16724847257137299,1.0250053405761719,-10.900388717651367,12.126058578491211,0.1502460539340973,1.8642100095748901,3.97039532661438,0.16926833987236023,0.5234904885292053,-0.7630936503410339,2.549041509628296
3,30151,30147,0.028076406568288803,-0.31975439190864563,1.1161067485809326,-13.044179916381836,11.965478897094727,-0.11477022618055344,1.8634079694747925,3.9731826782226562,0.17103211581707,0.3774508535861969,-0.9504702091217041,2.552774667739868
4,30161,30157,0.03125688433647156,-0.08242542296648026,1.0084071159362793,-10.844022750854492,10.784126281738281,-0.37157267332077026,1.8625258207321167,3.972888231277466,0.17296694219112396,0.21666869521141052,-1.0628734827041626,2.5497422218322754
5,30171,30167,-0.011937486007809639,0.18802152574062347,1.0602567195892334,-4.646982192993164,9.632899284362793,-0.4457364082336426,1.8625637292861938,3.9739930629730225,0.17483602464199066,0.18699198961257935,-1.2713494300842285,2.539498805999756
6,30181,30177,0.029369236901402473,0.03985312953591347,1.0286853313446045,1.7857085466384888,12.55606460571289,-0.512135922908783,1.862953543663025,3.973395586013794,0.17696070671081543,-0.035432323813438416,-1.2824153900146484,2.542417526245117
7,30191,30187,0.02024097740650177,-0.017867080867290497,1.0301225185394287,7.415532112121582,15.821524620056152,-0.5503498315811157,1.861842393875122,3.9724009037017822,0.17996017634868622,0.12879663705825806,-1.1142631769180298,2.5036747455596924
8,30201,30197,-0.06498328596353531,-0.05911480635404587,1.1061753034591675,10.967589378356934,21.788888931274414,-0.3776880204677582,1.862440586090088,3.9737610816955566,0.17986956238746643,0.023642657324671745,-1.079148292541504,2.4894800186157227
9,30211,30207,0.060066260397434235,-0.04595226049423218,1.0108542442321777,9.483010292053223,26.028074264526367,-0.6294474601745605,1.8578159809112549,3.9693806171417236,0.18223808705806732,-0.24541375041007996,-1.0109684467315674,2.474250316619873
10,30221,30217,-0.00126193359028548,-0.02010488510131836,1.043120265007019,6.09140157699585,28.039642333984375,-0.36764293909072876,1.858093023300171,3.9691145420074463,0.18336662650108337,-0.6287201642990112,-0.9014878273010254,2.4792137145996094
11,30231,30227,-0.02791108377277851,0.05330684781074524,1.0243722200393677,2.349391222000122,27.893075942993164,-0.7252195477485657,1.8565616607666016,3.9673805236816406,0.1855383664369583,-0.8736203908920288,-0.9144888520240784,2.4612390995025635
12,30241,30237,-0.01831189915537834,0.047611337155103683,0.9738776683807373,-0.3952501714229584,25.452621459960938,-0.6240562796592712,1.8558673858642578,3.9676597118377686,0.18771480023860931,-1.1302931308746338,-0.9671797156333923,2.4372169971466064
13,30251,30247,-0.06361016631126404,0.1075829267501831,1.0337873697280884,-0.2388155311346054,21.568357467651367,-1.0692709684371948,1.856981635093689,3.9692375659942627,0.1902843564748764,-1.4665658473968506,-0.9787546396255493,2.436098575592041
14,30261,30257,0.0016915873857215047,0.03370308503508568,1.005253553390503,1.690901279449463,14.20273494720459,-1.3008660078048706,1.856242060661316,3.968719244003296,0.19247694313526154,-1.7017947435379028,-1.0407872200012207,2.418178081512451
15,30271,30267,-0.0027337593492120504,-0.0696977749466896,1.0308912992477417,5.298769950866699,7.512878894805908,-1.1011676788330078,1.8559225797653198,3.969916582107544,0.19475746154785156,-1.8508778810501099,-0.9831933975219727,2.4149515628814697
16,30281,30277,0.003707140451297164,-0.016381362453103065,1.048092007637024,9.098901748657227,7.098404884338379,-1.23310387134552,1.8551570177078247,3.9690990447998047,0.1969389021396637,-1.9260503053665161,-1.0047752857208252,2.3874282836914062
17,30291,30287,0.09381337463855743,-0.022408468648791313,0.9076853394508362,11.898480415344238,-1.134015679359436,-0.4956037998199463,1.8555351495742798,3.9707937240600586,0.19766105711460114,-2.028250217437744,-0.8777855038642883,2.3879101276397705
18,30301,30297,0.035227738320827484,0.011952481232583523,0.9704737663269043,12.42841911315918,-0.1271236389875412,-0.44326916337013245,1.8567230701446533,3.970980167388916,0.199941024184227,-2.025449752807617,-0.6487544178962708,2.4125521183013916
19,30311,30307,0.04695785790681839,-0.10235662013292313,1.0116668939590454,12.15353775024414,-2.889500379562378,-0.8406065106391907,1.8566588163375854,3.9699010848999023,0.20203948020935059,-2.0845229625701904,-0.4372205138206482,2.436436653137207
20,30321,30317,-0.014261873438954353,-0.10403565317392349,1.0151585340499878,8.477194786071777,-2.817023277282715,-0.7576441168785095,1.8571221828460693,3.9721133708953857,0.20515549182891846,-2.1285793781280518,-0.6830452680587769,2.322925090789795
21,30331,30327,-0.009306564927101135,-0.06328858435153961,1.0012073516845703,4.632992744445801,-0.27566641569137573,-0.956598699092865,1.8575139045715332,3.973052740097046,0.2091982662677765,-2.1575536727905273,-0.8019481301307678,2.2598109245300293
22,30341,30337,-0.06488075852394104,0.0864921510219574,0.9783133864402771,2.080293893814087,-0.401610404253006,-0.31462791562080383,1.8569316864013672,3.972038745880127,0.20901818573474884,-2.196835517883301,-0.798835039138794,2.245791435241699
23,30351,30347,-0.0281460452824831,0.05731895565986633,0.986440122127533,4.1631340980529785,-1.6047072410583496,-0.4242292642593384,1.8566617965698242,3.9704246520996094,0.2128555178642273,-2.209373712539673,-0.6646655797958374,2.284342050552368
24,30361,30357,-0.044943299144506454,0.04396181181073189,1.0415234565734863,8.71985149383545,-2.626418352127075,-0.9195234775543213,1.8571237325668335,3.9708549976348877,0.2151494175195694,-2.1336076259613037,-0.6453589797019958,2.2644033432006836
25,30371,30367,0.026340000331401825,-0.0679909810423851,0.9891325831413269,15.69594669342041,-5.060250759124756,-1.2522389888763428,1.8576611280441284,3.971311092376709,0.21743205189704895,-2.1578516960144043,-0.45891356468200684,2.2923619747161865
26,30381,30377,-0.000513122184202075,-0.05801204964518547,1.0085252523422241,19.606855392456055,-7.22864294052124,-1.2460383176803589,1.8580740690231323,3.9709973335266113,0.21882332861423492,-2.0695338249206543,-0.2527011036872864,2.292071580886841
27,30391,30387,0.02277611568570137,-0.09568541496992111,0.924228847026825,21.23703384399414,-9.725634574890137,-1.5274221897125244,1.8573468923568726,3.9704415798187256,0.22115956246852875,-1.902760624885559,0.0010286414762958884,2.292752742767334
28,30401,30397,0.061598487198352814,-0.07132316380739212,0.887955904006958,18.67262840270996,-9.645489692687988,-1.180719017982483,1.8581691980361938,3.969369888305664,0.22321335971355438,-2.027945041656494,0.10497068613767624,2.248657703399658
29,30411,30407,0.10154738277196884,-0.11319736391305923,0.9328300952911377,14.410486221313477,-9.91652774810791,-1.1796730756759644,1.8551015853881836,3.9672672748565674,0.22563683986663818,-1.764600157737732,0.2466791570186615,2.2177767753601074
30,30421,30417,0.04108159616589546,-0.20049923658370972,1.0232399702072144,9.2691650390625,-9.495112419128418,-0.8920294642448425,1.8535254001617432,3.9670042991638184,0.2267846018075943,-1.647012710571289,0.4681837260723114,2.2376067638397217
31,30431,30427,0.017155472189188004,-0.013566642068326473,0.9823204874992371,2.9575939178466797,-7.787013530731201,-1.1511558294296265,1.854579210281372,3.9673304557800293,0.228693887591362,-1.6627353429794312,0.514247477054596,2.2157349586486816
32,30441,30437,-0.0112764872610569,0.15682794153690338,0.9958244562149048,-1.0352892875671387,-5.163913249969482,-1.1573947668075562,1.853572130203247,3.9668571949005127,0.23072554171085358,-1.5487442016601562,0.5437024235725403,2.20835280418396
33,30451,30447,0.010449666529893875,0.1403321772813797,0.9507735371589661,-1.0262610912322998,-4.383701801300049,-1.214717149734497,1.8530118465423584,3.966184139251709,0.23346158862113953,-1.4668340682983398,0.5159565210342407,2.1897010803222656
34,30461,30457,0.007407026365399361,0.0865834429860115,0.9517457485198975,-0.19712570309638977,-3.6763603687286377,-1.4280483722686768,1.853844404220581,3.9651834964752197,0.23541022837162018,-1.4855690002441406,0.5682082176208496,2.1944522857666016
35,30471,30467,0.02134411223232746,0.007206660695374012,0.9678066372871399,1.7149112224578857,-3.6946702003479004,-1.6337406635284424,1.8553411960601807,3.9662444591522217,0.2372916042804718,-1.4948517084121704,0.555374026298523,2.173804521560669
36,30481,30477,-0.005349595099687576,0.03241616114974022,1.0090302228927612,3.7410545349121094,-5.479197025299072,-1.9398375749588013,1.8571727275848389,3.966191291809082,0.2431323528289795,-1.4250227212905884,0.6542953848838806,2.1823296546936035
37,30491,30487,-0.033955127000808716,0.066086046397686,1.0155364274978638,5.182068347930908,-7.843657493591309,-2.0503480434417725,1.8583570718765259,3.966240167617798,0.2450820654630661,-1.3933591842651367,0.7718862891197205,2.180081605911255
38,30501,30497,-0.0017828188138082623,0.0352526418864727,0.9810343384742737,3.9113800525665283,-9.453338623046875,-2.031630277633667,1.8577063083648682,3.9651224613189697,0.24521449208259583,-1.1640263795852661,0.8925169110298157,2.1913468837738037
39,30511,30507,0.009360495954751968,-0.02099713496863842,0.9637287259101868,3.0446951389312744,-10.008091926574707,-2.2388501167297363,1.8578001260757446,3.964303493499756,0.24718889594078064,-1.0789155960083008,0.9763190150260925,2.1792705059051514
40,30521,30517,-0.027024805545806885,0.0038751866668462753,0.9811027646064758,-0.23440419137477875,-8.255888938903809,-2.5011045932769775,1.8588484525680542,3.964470624923706,0.24900226294994354,-1.1416990756988525,1.0243278741836548,2.141742706298828
41,30531,30527,-0.05656988546252251,-0.03238075226545334,0.9825459718704224,-4.986688137054443,-6.215925216674805,-2.1032586097717285,1.8595105409622192,3.9638819694519043,0.2529531419277191,-0.9815860390663147,1.014847755432129,2.1275763511657715
42,30541,30537,-0.08808726817369461,0.012099362909793854,1.0230765342712402,-6.648993492126465,-5.79188871383667,-2.31294846534729,1.8598321676254272,3.964442253112793,0.2530030608177185,-0.8728293180465698,0.9282435774803162,2.1056129932403564
43,30551,30547,-0.024205321446061134,0.000790150894317776,0.9828858971595764,-8.30993366241455,-4.067057132720947,-2.5242700576782227,1.8616007566452026,3.9641947746276855,0.25418737530708313,-0.9438184499740601,0.8079939484596252,2.055255889892578
44,30561,30557,-0.06075972318649292,-0.017559917643666267,0.9973726272583008,-7.790294647216797,-2.340686321258545,-1.7693959474563599,1.8609130382537842,3.964181900024414,0.25619614124298096,-0.7537071108818054,0.7667062282562256,2.0611674785614014
45,30571,30567,-0.06362838298082352,0.014765814878046513,1.0036673545837402,-6.7374267578125,-1.1402729749679565,-1.5878515243530273,1.8608570098876953,3.9632019996643066,0.2580445110797882,-0.7774837613105774,0.7978256940841675,2.053363561630249
46,30581,30577,-0.0732702910900116,0.04953695461153984,0.9591638445854187,-5.232322692871094,-2.7734882831573486,-1.4531339406967163,1.8624787330627441,3.9648144245147705,0.2608540952205658,-0.9153669476509094,0.6148228645324707,1.9902894496917725
47,30591,30587,-0.062857486307621,0.018500158563256264,0.9563121795654297,-3.3176934719085693,-3.1673176288604736,-1.0284212827682495,1.8624516725540161,3.965308427810669,0.26281318068504333,-0.8369346857070923,0.538651168346405,1.9827114343643188
48,30601,30597,0.006840326823294163,0.09425551444292068,0.9656417369842529,-2.523676872253418,-4.786020755767822,-0.9952292442321777,1.8628820180892944,3.965049982070923,0.26476743817329407,-0.7262813448905945,0.4934006631374359,1.9828486442565918
49,30611,30607,0.06212686374783516,0.11320264637470245,0.9654080867767334,-0.5112602710723877,-7.001118183135986,-1.2219161987304688,1.8635098934173584,3.964703321456909,0.266727477312088,-0.5969278812408447,0.47079312801361084,1.9836311340332031
50,30621,30617,0.04260936751961708,0.051475364714860916,0.9716167449951172,0.14698487520217896,-8.190793991088867,-0.8428506255149841,1.8663175106048584,3.965265989303589,0.2715555429458618,-0.5936453342437744,0.4776526689529419,1.9627923965454102
51,30631,30627,0.01392497681081295,-0.046021707355976105,0.9626625180244446,-0.20616362988948822,-8.38516902923584,-0.6179366111755371,1.86690354347229,3.96441912651062,0.2734513282775879,-0.41873231530189514,0.4883943498134613,1.9683419466018677
52,30641,30637,0.01128902193158865,-0.08977045863866806,0.9247514605522156,-0.4546850919723511,-7.714489459991455,-1.0261564254760742,1.8668485879898071,3.9643633365631104,0.27346277236938477,-0.3341124653816223,0.4864738881587982,1.9589009284973145
53,30651,30647,-0.03430086746811867,-0.023905649781227112,0.9759097099304199,-1.3893431425094604,-5.695094108581543,-1.2905514240264893,1.8677150011062622,3.9631073474884033,0.27815425395965576,-0.3319712281227112,0.485224187374115,1.937551498413086
54,30661,30657,-0.06544480472803116,0.02317557856440544,0.9802413582801819,-3.3667802810668945,-3.2445404529571533,-1.3979278802871704,1.8671488761901855,3.963881731033325,0.28018975257873535,-0.12434789538383484,0.38904905319213867,1.934288740158081
55,30671,30667,-0.07352966070175171,0.05605766922235489,0.9424421787261963,-4.215003490447998,-1.8240649700164795,-1.3628454208374023,1.8699719905853271,3.9624075889587402,0.2820781171321869,-0.2787286937236786,0.4215776324272156,1.8979225158691406
56,30681,30677,-0.055046528577804565,0.030886970460414886,0.95042484998703,-3.9255082607269287,-1.93026864528656,-0.5397018790245056,1.87040114402771,3.9628522396087646,0.28373491764068604,-0.14386561512947083,0.34660324454307556,1.8956866264343262
57,30691,30687,-0.03468536585569382,-0.08292090147733688,0.9708279371261597,-4.067425727844238,0.3398211896419525,-1.3952523469924927,1.8719252347946167,3.9636545181274414,0.2856955826282501,-0.18862603604793549,0.2831210494041443,1.8792017698287964
58,30701,30697,-0.018652450293302536,-0.03229404240846634,0.9153625965118408,-3.437891960144043,-0.16848371922969818,-1.2937407493591309,1.8723218441009521,3.9639346599578857,0.2873802185058594,-0.2569901645183563,0.22107985615730286,1.8582725524902344
59,30711,30707,0.003238356439396739,-0.030185408890247345,0.9018821716308594,-2.008352041244507,-1.467713713645935,-1.5207443237304688,1.8726791143417358,3.963160753250122,0.29015466570854187,-0.14401276409626007,0.2497328817844391,1.8562484979629517
60,30721,30717,0.010105825029313564,-0.015207045711576939,0.9323447346687317,-0.048442691564559937,-2.629168748855591,-1.8666038513183594,1.873284935951233,3.962740182876587,0.29185807704925537,-0.09545297175645828,0.22599227726459503,1.8426331281661987
61,30731,30727,-0.04999971389770508,-0.0027316168416291475,0.9692569375038147,1.1549491882324219,-3.204054832458496,-1.5188629627227783,1.8733758926391602,3.960688591003418,0.2934773564338684,-0.04347135126590729,0.31010010838508606,1.8247957229614258
62,30741,30737,-0.07762005925178528,0.022983713075518608,0.989179253578186,1.0546629428863525,-4.154087066650391,-1.6777483224868774,1.8732367753982544,3.960566997528076,0.29511016607284546,0.11948306858539581,0.32856985926628113,1.820607304573059
63,30751,30747,-0.08658648282289505,-0.00531517481431365,0.9860963225364685,-0.521842896938324,-1.5570465326309204,-1.8247545957565308,1.8760868310928345,3.960528612136841,0.2988291382789612,0.0008948814356699586,0.3277339041233063,1.7906033992767334
64,30761,30757,-0.059070609509944916,-0.05812031030654907,0.9474382996559143,-1.9195222854614258,0.27428731322288513,-1.467151165008545,1.87751042842865,3.9605143070220947,0.3004108965396881,-0.059456028044223785,0.29791179299354553,1.7699542045593262
65,30771,30767,-0.07804419100284576,-0.02547748014330864,0.97869873046875,-3.8237664699554443,-3.8394007682800293,-1.7920188903808594,1.8774981498718262,3.960625648498535,0.30204465985298157,-0.047325603663921356,0.16844458878040314,1.758617877960205
66,30781,30777,-0.17405207455158234,0.12480071932077408,1.003042221069336,-4.295858383178711,0.600352942943573,-1.2940500974655151,1.8797333240509033,3.9608781337738037,0.30438485741615295,-0.09239432960748672,0.10457832366228104,1.7398645877838135
67,30791,30787,-0.042548228055238724,0.012378421612083912,0.9485703110694885,-3.1094250679016113,0.7252389788627625,-0.8876473903656006,1.8804891109466553,3.9601519107818604,0.3060033917427063,-0.08131079375743866,0.12260288745164871,1.7266801595687866
68,30801,30797,-0.009773557074368,-0.20316942036151886,0.9554588794708252,-2.453390121459961,-0.15377426147460938,-0.7813559174537659,1.8804059028625488,3.9599826335906982,0.30764734745025635,0.01972871646285057,0.06861784309148788,1.724786639213562
69,30811,30807,-0.004782089963555336,-0.08295982331037521,0.9293237328529358,-0.3988315761089325,-0.5843867659568787,-0.8497912883758545,1.8796484470367432,3.959519147872925,0.31046542525291443,0.11546431481838226,0.04513303562998772,1.7223316431045532
70,30821,30817,0.011349117383360863,-0.014595454558730125,0.9021580815315247,1.5311241149902344,-0.7805346250534058,-1.098673701286316,1.8809928894042969,3.9569716453552246,0.3119930028915405,-0.014924311079084873,0.20563620328903198,1.6978099346160889
71,30831,30827,0.01368129812180996,-0.022105563431978226,0.9067763686180115,2.426154851913452,0.3514537215232849,-1.4351385831832886,1.8815666437149048,3.956305503845215,0.3134675621986389,0.0034919199533760548,0.2305462658405304,1.6855953931808472
72,30841,30837,0.0312546081840992,-0.020157281309366226,0.901832640171051,1.0990445613861084,0.16825920343399048,-1.2322993278503418,1.8829489946365356,3.9563562870025635,0.31479397416114807,-0.05324512720108032,0.24550321698188782,1.6701768636703491
73,30851,30847,0.03547460213303566,-0.011398058384656906,0.9043697714805603,-1.198914647102356,-1.0836665630340576,-1.5989010334014893,1.883575439453125,3.9562783241271973,0.3147449195384979,0.04348476231098175,0.23222114145755768,1.6609004735946655
74,30861,30857,0.016375496983528137,0.0022310109343379736,0.9056132435798645,-4.323482513427734,-0.8436569571495056,-2.257521867752075,1.8847757577896118,3.955594539642334,0.31584009528160095,-0.010077792219817638,0.10385371744632721,1.6448161602020264
75,30871,30867,-0.02680414728820324,0.045732077211141586,0.8906314969062805,-5.820199489593506,-2.189946174621582,-1.508519172668457,1.8862742185592651,3.9552721977233887,0.3168070614337921,-0.05581298843026161,0.00821725558489561,1.6250594854354858
76,30881,30877,0.0040833605453372,-0.003677064785733819,0.9127843379974365,-6.474930286407471,-1.3115037679672241,-1.620327353477478,1.8848986625671387,3.954789400100708,0.31561458110809326,0.06467898935079575,-0.016441792249679565,1.610668420791626
77,30891,30887,0.01451246626675129,-0.02701956033706665,0.9199854731559753,-5.039285659790039,-0.3542933464050293,-1.6584440469741821,1.8864563703536987,3.955948829650879,0.3162825405597687,0.0005066636367700994,-0.12324254959821701,1.5930145978927612
78,30901,30897,0.04708905145525932,-0.004600482527166605,0.9392324090003967,-1.9540902376174927,1.2719980478286743,-1.8011088371276855,1.886599063873291,3.9541523456573486,0.3170117735862732,0.08826339989900589,-0.04620205983519554,1.5641974210739136
79,30911,30907,-0.019954750314354897,0.033050306141376495,0.9714677929878235,0.2813986837863922,1.6283488273620605,-1.7615090608596802,1.8857522010803223,3.9538192749023438,0.3164559304714203,0.14727862179279327,-0.07789469510316849,1.5487648248672485
80,30921,30917,-0.016755253076553345,0.02009580284357071,0.9639623165130615,1.6363978385925293,4.987334728240967,-1.576461672782898,1.887677550315857,3.953346014022827,0.3168807923793793,0.026170244440436363,-0.07429436594247818,1.5286719799041748
81,30931,30927,-0.023108938708901405,-0.021865172311663628,0.9593033790588379,1.7920725345611572,5.780470371246338,-2.0046427249908447,1.8878495693206787,3.9529783725738525,0.3173043727874756,0.018113482743501663,-0.048730213195085526,1.5116329193115234
82,30941,30937,0.07517988979816437,-0.033096183091402054,0.9023382067680359,2.6242995262145996,2.291499614715576,-1.833524465560913,1.8875517845153809,3.951256275177002,0.3176881968975067,0.014043372124433517,0.057284653186798096,1.4828506708145142
83,30951,30947,0.02369827777147293,0.01396577712148428,0.9646399617195129,0.4768265187740326,1.6617083549499512,-1.3244510889053345,1.8898038864135742,3.951589822769165,0.31632718443870544,-0.1082102432847023,0.06851356476545334,1.4674386978149414
84,30961,30957,0.01314065046608448,-0.005276707001030445,0.9550050497055054,-1.2779639959335327,-2.2871034145355225,-1.823434829711914,1.8884339332580566,3.950906276702881,0.3165039122104645,-0.04074157774448395,0.1268390715122223,1.4473459720611572
85,30971,30967,-0.12414585798978806,0.16230995953083038,1.0086873769760132,-3.850843906402588,-0.4563942849636078,-1.3671913146972656,1.888025164604187,3.9506518840789795,0.31663283705711365,0.08142584562301636,0.05884991213679314,1.4370702505111694
86,30981,30977,-0.10447761416435242,0.23305217921733856,1.0144785642623901,-6.739250183105469,0.9295029640197754,-1.3780102729797363,1.8893712759017944,3.95184063911438,0.31196892261505127,0.0037265154533088207,-0.0531952828168869,1.425523042678833
87,30991,30987,-0.011411863379180431,0.11964090168476105,0.9841601252555847,-6.036287307739258,1.6774107217788696,-1.6967134475708008,1.889870524406433,3.9514565467834473,0.3117835521697998,0.05561180040240288,-0.18223689496517181,1.415665864944458
88,31001,30997,-0.008087926544249058,-0.11215509474277496,0.9850254058837891,-4.629029750823975,3.0362937450408936,-1.3541454076766968,1.8919882774353027,3.950673818588257,0.31151077151298523,-0.06789090484380722,-0.2043294906616211,1.3977760076522827
89,31011,31007,-0.0163960512727499,-0.020115599036216736,1.0220956802368164,-3.221884250640869,4.573315620422363,-1.5443205833435059,1.8915209770202637,3.9496231079101562,0.30922478437423706,-0.054131072014570236,-0.20329777896404266,1.3833105564117432
90,31021,31017,0.015916816890239716,0.11800295859575272,1.017858862876892,-0.5068455934524536,3.075819492340088,-1.774436116218567,1.8921947479248047,3.94891357421875,0.30889707803726196,-0.04793362691998482,-0.17530959844589233,1.3636409044265747
91,31031,31027,-0.006468335632234812,-0.07033265382051468,1.0071938037872314,1.0273685455322266,3.3612847328186035,-2.1063499450683594,1.8922041654586792,3.949345350265503,0.3085971176624298,-0.036236975342035294,-0.1880415678024292,1.3455134630203247
92,31041,31037,0.008036162704229355,-0.03955218568444252,1.0190783739089966,0.9126626253128052,3.965304136276245,-1.6329562664031982,1.8934545516967773,3.94895339012146,0.30528491735458374,-0.1815786510705948,-0.1910729706287384,1.327904224395752
93,31051,31047,0.01753125712275505,0.008182255551218987,1.0208829641342163,0.5131303071975708,3.2499465942382812,-1.290362000465393,1.8937214612960815,3.9482102394104004,0.304819256067276,-0.17420534789562225,-0.19217079877853394,1.3066686391830444
94,31061,31057,0.017814218997955322,-0.0354858860373497,1.008221983909607,-0.8749353289604187,3.4497761726379395,-0.6405869126319885,1.8939567804336548,3.9485249519348145,0.3043835461139679,-0.1470186710357666,-0.2021631896495819,1.2965798377990723
95,31071,31067,0.026853740215301514,0.04245647415518761,1.08903968334198,-1.87880539894104,1.1380492448806763,-1.2823339700698853,1.895100712776184,3.9478113651275635,0.30384406447410583,-0.273423433303833,-0.23457704484462738,1.289465069770813
96,31081,31077,0.00038934851181693375,0.01324622891843319,1.0588908195495605,-1.7399466037750244,1.0627509355545044,-1.4070281982421875,1.8950040340423584,3.9483540058135986,0.3022990822792053,-0.21347059309482574,-0.2830682694911957,1.2742868661880493
97,31091,31087,-0.04821179434657097,0.13704122602939606,1.0460305213928223,-2.463669776916504,1.4489439725875854,-1.1079339981079102,1.895086407661438,3.947937250137329,0.30188584327697754,-0.15907645225524902,-0.3208032548427582,1.2587429285049438
98,31101,31097,0.014967457391321659,-0.007455590181052685,1.002805471420288,-1.5819231271743774,2.0309479236602783,-1.0618137121200562,1.8966107368469238,3.948200225830078,0.30148330330848694,-0.27401092648506165,-0.3528043329715729,1.2509567737579346
99,31111,31107,-0.0054070064797997475,0.02078389935195446,1.0774990320205688,-0.4295492172241211,3.179398536682129,-1.1582105159759521,1.8962910175323486,3.9483277797698975,0.2997940182685852,-0.2482055425643921,-0.37499290704727173,1.2395515441894531
100,31121,31117,-0.01870609261095524,0.006776698399335146,1.049920916557312,1.7445253133773804,3.6869144439697266,-1.4660574197769165,1.898026943206787,3.947664737701416,0.29936254024505615,-0.3792587220668793,-0.3581029772758484,1.220733880996704
101,31131,31127,0.01526618655771017,0.10016417503356934,1.008228063583374,4.492919921875,3.948782444000244,-1.491071105003357,1.8981479406356812,3.9478836059570312,0.2991112768650055,-0.3824147880077362,-0.2956875264644623,1.202368974685669
102,31141,31137,-0.0036346730776131153,0.07487232983112335,1.0322922468185425,5.706779479980469,1.9885040521621704,-1.724087119102478,1.8993679285049438,3.947669267654419,0.30018308758735657,-0.42724302411079407,-0.22376076877117157,1.1883792877197266
103,31151,31147,-0.023954126983880997,-0.024998074397444725,1.06736159324646,5.487123012542725,0.728370189666748,-1.059748888015747,1.900977373123169,3.947248697280884,0.30001142621040344,-0.4495584964752197,-0.14095500111579895,1.1758675575256348
104,31161,31157,-0.0030692259315401316,-0.07500457763671875,1.1163971424102783,4.758561134338379,1.5112005472183228,-1.1445279121398926,1.900801181793213,3.947117805480957,0.2999524772167206,-0.3983705937862396,-0.0678040087223053,1.1605197191238403
105,31171,31167,0.03196140378713608,-0.09695997834205627,1.025738000869751,2.340496778488159,-1.170498013496399,-0.42695188522338867,1.9018833637237549,3.947272777557373,0.29993876814842224,-0.4013678729534149,-0.08747221529483795,1.1469477415084839
106,31181,31177,-0.025422658771276474,-0.05038556829094887,1.1203620433807373,-0.23247218132019043,0.712552011013031,-0.2518942654132843,1.9032131433486938,3.9472920894622803,0.2992572486400604,-0.48232781887054443,-0.1470688283443451,1.1460963487625122
107,31191,31187,-0.034039467573165894,-0.062388431280851364,1.1087510585784912,-0.8343036770820618,-0.1994635909795761,-0.07314398139715195,1.9032046794891357,3.946906805038452,0.29941630363464355,-0.4022733271121979,-0.14605797827243805,1.1417001485824585
108,31201,31197,-0.02348766103386879,-0.07270043343305588,1.0557516813278198,-0.06180139631032944,-1.054253101348877,0.1584390550851822,1.9047785997390747,3.9458537101745605,0.29956045746803284,-0.45330697298049927,-0.07834925502538681,1.1444807052612305
109,31211,31207,-0.01645544171333313,-0.029033180326223373,1.0727565288543701,0.3015616536140442,-0.05907702073454857,0.17242354154586792,1.904710292816162,3.945927619934082,0.29856446385383606,-0.37460827827453613,-0.08316680788993835,1.1425857543945312
110,31221,31217,0.027594037353992462,-0.04273424297571182,1.0672332048416138,0.6076973676681519,0.8935548663139343,0.4373948574066162,1.9054666757583618,3.944622755050659,0.2988129258155823,-0.3930935561656952,-0.07125789672136307,1.1370878219604492
111,31231,31227,0.07833167910575867,-0.1295234113931656,1.0761171579360962,0.7057551145553589,0.6749750971794128,-0.6373013854026794,1.906480073928833,3.9442479610443115,0.29914507269859314,-0.40422797203063965,-0.06543070822954178,1.1350716352462769
112,31241,31237,-0.010885477066040039,-0.017780454829335213,1.0746387243270874,1.0733120441436768,-0.3006085455417633,-0.33255213499069214,1.9081106185913086,3.944028615951538,0.30132654309272766,-0.4768017530441284,-0.053643304854631424,1.1321316957473755
113,31251,31247,-0.026607461273670197,0.04275720939040184,1.0453426837921143,0.6254315376281738,-1.1257483959197998,-0.7628830075263977,1.9088045358657837,3.9439737796783447,0.30191487073898315,-0.45447245240211487,-0.04093630611896515,1.126285433769226
114,31261,31257,0.01326716598123312,-0.020354900509119034,1.0229719877243042,0.6215271949768066,-2.257509469985962,-0.6173850893974304,1.9094384908676147,3.943939685821533,0.3025694191455841,-0.4176798164844513,-0.033340081572532654,1.1181105375289917
115,31271,31267,-0.03779218718409538,-0.06536801159381866,1.079247236251831,0.3513139486312866,-3.3618695735931396,-0.7800890207290649,1.909982442855835,3.9439291954040527,0.3032695949077606,-0.3518087565898895,-0.03197822719812393,1.1116266250610352
116,31281,31277,-0.011398551054298878,-0.1222032681107521,1.0965567827224731,1.1280544996261597,-2.692089557647705,-0.9011505246162415,1.9098234176635742,3.9431443214416504,0.3056569993495941,-0.2770129442214966,-0.022727349773049355,1.0871914625167847
117,31291,31287,0.016358979046344757,-0.0980399027466774,0.9845467209815979,1.5177851915359497,-0.9256384372711182,-0.9282399415969849,1.9112499952316284,3.9425127506256104,0.30652502179145813,-0.3071553111076355,-0.0014271195977926254,1.0798945426940918
118,31301,31297,0.02860753796994686,0.03841758519411087,0.9808918833732605,1.7574491500854492,0.4323478937149048,-0.9611159563064575,1.9114993810653687,3.942107677459717,0.30754929780960083,-0.224294975399971,0.02171025425195694,1.0719833374023438
119,31311,31307,0.12043917179107666,0.04261726140975952,0.9276103973388672,1.680175542831421,0.19232596457004547,-0.5783170461654663,1.9147692918777466,3.943375587463379,0.3064083456993103,-0.5409319400787354,-0.035426173359155655,1.0681942701339722
120,31321,31317,0.015336920507252216,-0.009898180142045021,0.9961976408958435,2.3577919006347656,-4.88305139541626,-0.5479744076728821,1.914717674255371,3.9429447650909424,0.3073100447654724,-0.41126713156700134,-0.002429933985695243,1.063734769821167
121,31331,31327,-0.10489825159311295,-0.04461463540792465,1.0383373498916626,0.3106794059276581,-3.5021419525146484,0.1538970172405243,1.9145522117614746,3.9421207904815674,0.30818110704421997,-0.26211783289909363,0.09243565797805786,1.0605469942092896
122,31341,31337,-0.09881076961755753,-0.025627151131629944,1.0246541500091553,-0.12975238263607025,-3.443671941757202,-0.11654520779848099,1.9171829223632812,3.9423089027404785,0.3099316656589508,-0.34638839960098267,0.08936595916748047,1.063254952430725
123,31351,31347,-0.13508018851280212,0.11504093557596207,0.9946917295455933,-0.5281893610954285,-3.9183483123779297,0.43678048253059387,1.9163036346435547,3.9414589405059814,0.31092262268066406,-0.19263774156570435,0.07878340780735016,1.0564769506454468
124,31361,31357,-0.04176909103989601,0.09686656296253204,0.9569546580314636,-1.470918893814087,-3.453172206878662,0.542528510093689,1.9188876152038574,3.942136287689209,0.3117268979549408,-0.27126890420913696,0.05125375837087631,1.0697139501571655
125,31371,31367,-0.05354206636548042,0.05723126605153084,1.0314385890960693,-1.1258481740951538,-3.537576198577881,0.423941433429718,1.9203917980194092,3.9421958923339844,0.31137436628341675,-0.26128047704696655,0.028076058253645897,1.0832406282424927
126,31381,31377,-0.07068217545747757,0.016602225601673126,1.0386104583740234,-0.460440069437027,-3.4011361598968506,-0.0961783230304718,1.9214361906051636,3.9432613849639893,0.31219103932380676,-0.16923275589942932,0.01961316168308258,1.077492594718933
127,31391,31387,-0.01040495652705431,-0.06586237251758575,0.9698566198348999,-0.942071795463562,-2.389596700668335,-0.4044453799724579,1.922898530960083,3.9424798488616943,0.3129657804965973,-0.18926076591014862,-0.0028331067878752947,1.0740547180175781
128,31401,31397,-0.021348655223846436,0.028073744848370552,1.0092782974243164,0.26151666045188904,-3.997147560119629,-0.13671782612800598,1.9241058826446533,3.9423859119415283,0.3137441873550415,-0.1683214008808136,-0.004211996216326952,1.0704460144042969
129,31411,31407,0.0025788862258195877,0.01831747777760029,0.9924525618553162,-0.17900687456130981,-4.801886081695557,0.1995275914669037,1.9251385927200317,3.94227933883667,0.3129582703113556,-0.06794502586126328,0.0008253658888861537,1.0725394487380981
130,31421,31417,0.04922505095601082,0.02484937012195587,0.9556816816329956,-1.5408481359481812,-4.853307723999023,0.6649742126464844,1.925223708152771,3.9424588680267334,0.31371015310287476,0.03815426677465439,-0.015430857427418232,1.076277732849121
131,31431,31427,0.06043184548616409,-0.08957944065332413,0.9504214525222778,-0.37373003363609314,-5.129783630371094,0.46763426065444946,1.926032304763794,3.9431474208831787,0.31441307067871094,-0.0013244162546470761,0.04945286363363266,1.1046642065048218
132,31441,31437,-0.0059458306059241295,-0.18136823177337646,1.001150369644165,-0.4754839241504669,-3.8020026683807373,0.4490317404270172,1.9269590377807617,3.9435768127441406,0.3146623969078064,0.01682727038860321,-0.03592987358570099,1.1104669570922852
133,31451,31447,0.024091437458992004,-0.20513182878494263,0.9371518492698669,-1.708301067352295,-3.3389570713043213,-0.11177102476358414,1.9258215427398682,3.943718194961548,0.3153800070285797,0.17962084710597992,-0.05123743414878845,1.1055432558059692
134,31461,31457,0.04000295326113701,-0.21645647287368774,0.9352110624313354,-2.8032915592193604,-1.7083516120910645,-0.6644718050956726,1.9287540912628174,3.94356107711792,0.3158344626426697,0.01822816953063011,-0.08255860209465027,1.108873963356018
135,31471,31467,0.0068828207440674305,0.03546101972460747,1.0055320262908936,-1.9181536436080933,0.5317829251289368,-0.78919517993927,1.9280492067337036,3.9435319900512695,0.31428998708724976,0.13799439370632172,-0.11759059876203537,1.0934029817581177
136,31481,31477,-0.031275659799575806,0.05454648286104202,1.0126678943634033,-1.9181492328643799,-1.2150654792785645,-1.217855453491211,1.9289363622665405,3.9431538581848145,0.3146781325340271,0.20306751132011414,-0.06390384584665298,1.0810661315917969
137,31491,31487,0.048926737159490585,-0.10395278036594391,0.9362639784812927,1.2388503551483154,0.7752604484558105,-0.9558191299438477,1.9311461448669434,3.942734718322754,0.3149607181549072,0.09310348331928253,-0.08253740519285202,1.0632262229919434
138,31501,31497,0.043269261717796326,-0.044242940843105316,0.9721131920814514,3.378676652908325,1.4780045747756958,-0.9015642404556274,1.9300117492675781,3.941885471343994,0.3154090344905853,0.18468832969665527,-0.04121991619467735,1.039284586906433
139,31511,31507,0.04129935801029205,0.022413235157728195,0.9868952035903931,4.647556304931641,3.290372610092163,-1.5205765962600708,1.9311835765838623,3.9413623809814453,0.31592345237731934,0.1664634346961975,0.02170959860086441,1.0293140411376953
140,31521,31517,0.04220662638545036,-0.059908684343099594,0.9900394082069397,5.632929801940918,4.754244327545166,-1.4093997478485107,1.9319989681243896,3.940298080444336,0.3162015676498413,0.11202387511730194,0.09938813745975494,1.0044255256652832
141,31531,31527,0.06644603610038757,-0.07055133581161499,1.0091906785964966,6.744070529937744,2.5533807277679443,-1.1318769454956055,1.9318524599075317,3.939480781555176,0.316548228263855,0.14789994060993195,0.20046867430210114,0.9841941595077515
142,31541,31537,0.00727110868319869,-0.029123781248927116,0.9880273342132568,3.7800629138946533,2.430436134338379,-1.4141857624053955,1.931884765625,3.9386215209960938,0.3162012994289398,0.18736238777637482,0.2940312325954437,0.9678924083709717
143,31551,31547,0.05137861147522926,-0.06788181513547897,0.9333304762840271,0.7197103500366211,1.6630418300628662,-1.4010255336761475,1.9337165355682373,3.9388887882232666,0.31643956899642944,0.09932764619588852,0.29215487837791443,0.9667150378227234
144,31561,31557,0.011632028967142105,0.01349289808422327,0.9978784918785095,-3.491142511367798,0.7428608536720276,-1.1949411630630493,1.9344556331634521,3.9383468627929688,0.31664469838142395,0.013624511659145355,0.28658464550971985,0.9524909853935242
145,31571,31567,0.021584447473287582,-0.056652434170246124,0.9915205240249634,-8.349502563476562,1.8669390678405762,-0.6477656364440918,1.936388611793518,3.938507556915283,0.32066819071769714,-0.10422971099615097,0.15197426080703735,0.9287427067756653
146,31581,31577,-0.011320725083351135,-0.1322130709886551,1.0204613208770752,-8.879877090454102,0.2967703640460968,-0.20477472245693207,1.9373767375946045,3.9392566680908203,0.3210906684398651,-0.09383320808410645,0.08097165822982788,0.9320420026779175
147,31591,31587,-0.05536000430583954,-0.0759153738617897,1.0578980445861816,-7.506096363067627,-0.15306980907917023,0.8285993337631226,1.9370630979537964,3.938214063644409,0.32161077857017517,-0.00890938937664032,0.005332657136023045,0.9177404642105103
148,31601,31597,-0.05593449994921684,-0.027201920747756958,1.0380754470825195,-3.963671922683716,1.4662089347839355,1.7458661794662476,1.9390779733657837,3.9388105869293213,0.3220020532608032,-0.07225508987903595,-0.12263859063386917,0.9228712916374207
149,31611,31607,0.025995910167694092,-0.061104435473680496,1.0000827312469482,1.627867579460144,0.33696192502975464,1.9373735189437866,1.940599799156189,3.938886880874634,0.32466596364974976,-0.07112740725278854,-0.10793287307024002,0.9447972774505615
150,31621,31617,-0.0074515254236757755,0.0592283234000206,1.0018941164016724,5.613938808441162,-0.0983104482293129,2.1906914710998535,1.940391182899475,3.938809394836426,0.3254240155220032,0.012607263401150703,-0.09276585280895233,0.9431858658790588
151,31631,31627,-0.015859805047512054,-0.01950828544795513,1.0004305839538574,7.527374267578125,-2.0667366981506348,2.6296944618225098,1.9420751333236694,3.9375545978546143,0.32609856128692627,0.035822756588459015,0.05060587078332901,0.9885321855545044
152,31641,31637,0.0029136836528778076,-0.008481267839670181,0.9823325276374817,7.339847564697266,-2.906902313232422,2.996117353439331,1.9427188634872437,3.9370205402374268,0.32684990763664246,0.0618065781891346,0.09414014220237732,0.9870855212211609
153,31651,31647,-0.025944868102669716,-0.032014571130275726,0.9959220886230469,3.7003228664398193,-1.7213234901428223,2.489377737045288,1.9429585933685303,3.9368088245391846,0.32753804326057434,0.1360093504190445,0.25085005164146423,1.0419541597366333
154,31661,31657,-0.052497655153274536,0.03279140591621399,0.9792624115943909,0.08616319298744202,-0.09059885144233704,2.2329342365264893,1.9436501264572144,3.9366331100463867,0.3282005488872528,0.14655368030071259,0.2497401237487793,1.0431016683578491
155,31671,31667,-0.05123057961463928,0.032256897538900375,0.9744848608970642,-4.206440448760986,4.24019718170166,0.8532335162162781,1.944360613822937,3.937147378921509,0.3333783745765686,0.14627662301063538,0.23172719776630402,1.0764186382293701
156,31681,31677,-0.022931447252631187,0.07339052855968475,0.9200208187103271,-7.857936382293701,7.118965148925781,0.3833288550376892,1.9460033178329468,3.9375858306884766,0.33422842621803284,0.01595391519367695,0.1450362354516983,1.098456621170044
157,31691,31687,-0.05197553336620331,0.1464342325925827,0.9686633348464966,-7.625118732452393,6.40496826171875,0.12508025765419006,1.9465196132659912,3.93570613861084,0.3350971043109894,-0.0004805752250831574,0.16558000445365906,1.0918505191802979
158,31701,31697,-0.07653402537107468,0.003584119025617838,0.9723134636878967,-6.236850261688232,5.423229694366455,0.34482619166374207,1.9475759267807007,3.9372425079345703,0.3369191884994507,-0.10396956652402878,0.016295040026307106,1.0991361141204834
159,31711,31707,-0.07560623437166214,-0.13113157451152802,0.9538298845291138,-2.10825252532959,1.9168039560317993,-0.9908246397972107,1.948241949081421,3.93562650680542,0.33778131008148193,-0.09972863644361496,0.059758614748716354,1.0998424291610718
160,31721,31717,-0.03754919767379761,-0.0868082046508789,0.9490097761154175,0.04568757489323616,0.07608059048652649,-0.669706404209137,1.9481724500656128,3.93603253364563,0.33863940834999084,-0.0544445626437664,-0.008474202826619148,1.0887082815170288
161,31731,31727,-0.06682940572500229,0.010747084394097328,0.9488384127616882,2.908975124359131,-3.634396553039551,-0.6581268310546875,1.9481408596038818,3.935163736343384,0.33946937322616577,0.022587550804018974,-0.028948117047548294,1.084989309310913
162,31741,31737,-0.09110325574874878,0.008678235113620758,0.9380887746810913,3.710143566131592,-5.264009475708008,0.03840118646621704,1.9503048658370972,3.9339332580566406,0.33546799421310425,-0.08944892883300781,0.07422784715890884,1.074184536933899
163,31751,31747,0.011848251335322857,-0.10491334646940231,0.92924964427948,2.6373772621154785,-1.7267169952392578,-0.6759701371192932,1.9506499767303467,3.9341447353363037,0.33588942885398865,-0.012572146020829678,0.10377442836761475,1.0821951627731323
164,31761,31757,-0.010393987409770489,-0.04607324302196503,0.9381446242332458,1.2855747938156128,-1.1599292755126953,-0.9429888725280762,1.9516417980194092,3.933867931365967,0.3362395763397217,0.026921167969703674,0.12407492846250534,1.0723565816879272
165,31771,31767,0.008127977140247822,-0.05234935134649277,0.935958206653595,-1.0225317478179932,3.3123834133148193,-0.7670820951461792,1.952781081199646,3.934277296066284,0.33665984869003296,-0.0547492541372776,0.11508236825466156,1.073520302772522
166,31781,31777,-0.05431877449154854,-0.06955334544181824,0.9807723760604858,-3.127342939376831,4.257353782653809,-0.6624212861061096,1.9533233642578125,3.934892416000366,0.3369377553462982,-0.0941121056675911,0.07144611328840256,1.0876160860061646
167,31791,31787,-0.058261409401893616,-0.03545328229665756,0.9867203831672668,-4.649781227111816,5.244047164916992,-0.45329058170318604,1.9527981281280518,3.9343349933624268,0.3371981084346771,-0.07361103594303131,0.07582979649305344,1.070444107055664
168,31801,31797,-0.0025172270834445953,-0.028382683172822,0.9560724496841431,-4.2770185470581055,3.8398597240448,-0.7636837363243103,1.9527626037597656,3.9347922801971436,0.33732613921165466,-0.073553666472435,-0.023887164890766144,1.0579743385314941
169,31811,31807,0.008077523671090603,-0.039763662964105606,0.9726294875144958,-2.208247661590576,1.5420820713043213,-0.7623471021652222,1.9533514976501465,3.932823896408081,0.3374866247177124,-0.13929815590381622,-0.034264884889125824,1.0407352447509766
170,31821,31817,-0.010967062786221504,0.023610210046172142,1.001852035522461,0.9237238764762878,0.6568458676338196,-1.068650484085083,1.9546864032745361,3.9334216117858887,0.33761969208717346,-0.16795463860034943,-0.09562158584594727,1.0331147909164429
171,31831,31827,0.0398235097527504,-0.050976771861314774,0.9625582695007324,2.746077060699463,0.7406339049339294,-1.3656998872756958,1.955324649810791,3.9336657524108887,0.3377828001976013,-0.18035194277763367,-0.10683107376098633,1.0428780317306519
172,31841,31837,0.048703402280807495,-0.03198042884469032,0.9841691851615906,3.8727850914001465,0.6064785122871399,-1.9684056043624878,1.9550414085388184,3.9320895671844482,0.3380061388015747,-0.11038969457149506,0.001128781819716096,1.0149434804916382
173,31851,31847,0.02209920808672905,-0.18826094269752502,0.9852632880210876,3.0550918579101562,0.9636797904968262,-2.2376747131347656,1.9553265571594238,3.931098222732544,0.33809521794319153,-0.04010358825325966,0.11953099817037582,0.9840092062950134
174,31861,31857,-0.006961060222238302,-0.0826125517487526,1.0076240301132202,-0.06902054697275162,2.6194334030151367,-2.6514482498168945,1.9567128419876099,3.929407835006714,0.3380834758281708,-0.1445341855287552,0.1362721472978592,0.9457475543022156
175,31871,31867,0.03472796082496643,-0.07769957184791565,0.9495041370391846,-2.7709267139434814,4.563830852508545,-2.7392711639404297,1.9574536085128784,3.9295053482055664,0.33911895751953125,-0.19090402126312256,0.10124672949314117,0.9214036464691162
176,31881,31877,0.02349283918738365,-0.07081406563520432,0.9535040259361267,-3.3115897178649902,3.6335840225219727,-2.697265625,1.9582295417785645,3.928445339202881,0.33917245268821716,-0.19619408249855042,0.10310041159391403,0.8935855031013489
177,31891,31887,-0.012897934764623642,-0.07090894132852554,0.9437052011489868,-7.1088972091674805,4.9046525955200195,-3.7027816772460938,1.959187388420105,3.9286153316497803,0.3391762375831604,-0.29335886240005493,-0.0022996789775788784,0.8524823784828186
178,31901,31897,0.0018498061690479517,-0.08213181793689728,0.9924907088279724,-7.322932243347168,2.465256690979004,-3.1344950199127197,1.959366798400879,3.928340196609497,0.3408038914203644,-0.2943398654460907,-0.06575117260217667,0.8067924380302429
179,31911,31907,0.0483553446829319,-0.21160674095153809,1.0093038082122803,-4.8890228271484375,-0.8840952515602112,-3.224093437194824,1.9592591524124146,3.9275522232055664,0.34080448746681213,-0.33158811926841736,-0.13217920064926147,0.7781930565834045
180,31921,31917,-0.020553112030029297,-0.14563626050949097,1.044389009475708,-2.7274129390716553,-2.345693349838257,-2.3122916221618652,1.9594491720199585,3.9264607429504395,0.3408867418766022,-0.2461663782596588,-0.08334439992904663,0.7429559230804443
181,31931,31927,0.013964807614684105,-0.10899464786052704,0.9606010913848877,-0.39828038215637207,0.18584305047988892,-2.1642541885375977,1.9610748291015625,3.927994728088379,0.3408507704734802,-0.3834824562072754,-0.159086674451828,0.752429723739624
182,31941,31937,-0.027331333607435226,-0.010047709569334984,0.967496931552887,-1.7950947284698486,-3.337986469268799,-1.1982622146606445,1.9620236158370972,3.9262466430664062,0.3367336094379425,-0.4379934072494507,-0.12361486256122589,0.7263048887252808
183,31951,31947,0.008669400587677956,-0.018361827358603477,0.9848954677581787,-3.1571409702301025,-5.254679203033447,-0.08692380785942078,1.9622802734375,3.927116870880127,0.3366198241710663,-0.37075453996658325,-0.18643176555633545,0.7087245583534241
184,31961,31957,0.07938600331544876,-0.061073124408721924,1.0132569074630737,-4.08599853515625,-7.59282112121582,0.12553183734416962,1.963310718536377,3.9250166416168213,0.3364044427871704,-0.34779423475265503,-0.1880527287721634,0.6790884137153625
185,31971,31967,0.08117765188217163,-0.09906826168298721,0.9833832383155823,-4.931602478027344,-9.288918495178223,-0.0015308498404920101,1.965215802192688,3.924645185470581,0.3370220363140106,-0.36590415239334106,-0.20829039812088013,0.669192373752594
186,31981,31977,0.0013406998477876186,-0.025203395634889603,1.0019325017929077,-6.916083335876465,-8.176727294921875,-0.1455208659172058,1.964626431465149,3.926053524017334,0.3368503451347351,-0.2782112658023834,-0.24676452577114105,0.7260035276412964
187,31991,31987,-0.005573375150561333,-0.029236892238259315,0.9980005025863647,-6.729543685913086,-6.2446393966674805,-0.42800039052963257,1.963932752609253,3.9253640174865723,0.33684226870536804,-0.043950825929641724,-0.393042653799057,0.6901043057441711
188,32001,31997,0.04592009633779526,-0.07293187081813812,0.9666039943695068,-5.877655029296875,-1.0896059274673462,-0.2562735676765442,1.9665801525115967,3.9254491329193115,0.33672842383384705,-0.18053710460662842,-0.45365965366363525,0.700803279876709
189,32011,32007,-0.023386096581816673,-0.020432742312550545,1.0028661489486694,-4.189236164093018,3.5056042671203613,-0.9449762105941772,1.9666650295257568,3.9243767261505127,0.3366542160511017,-0.06913045793771744,-0.4987456798553467,0.6812441945075989
190,32021,32017,0.04977072402834892,-0.04383080452680588,0.9634096026420593,-2.35872220993042,7.072516441345215,-0.8793244361877441,1.9663902521133423,3.9244961738586426,0.33658501505851746,-0.04100457578897476,-0.5960760116577148,0.6616182923316956
191,32031,32027,0.14525069296360016,-0.06410331279039383,0.9508635401725769,-2.3034050464630127,7.866669178009033,-1.1089266538619995,1.9672309160232544,3.923238515853882,0.3328774869441986,-0.2235308736562729,-0.5833664536476135,0.6423410773277283
192,32041,32037,0.07214654237031937,-0.1702851504087448,0.9770424365997314,-0.8551716208457947,6.781237602233887,-1.3848345279693604,1.966761589050293,3.9222068786621094,0.33248665928840637,-0.25022512674331665,-0.637571394443512,0.6173343658447266
193,32051,32047,0.006080572493374348,-0.11413029581308365,0.989918053150177,-1.239864468574524,5.609482288360596,-1.2355937957763672,1.9680595397949219,3.922748565673828,0.3320234715938568,-0.3463914096355438,-0.5930949449539185,0.6358078122138977
194,32061,32057,0.018396615982055664,0.022684557363390923,0.9750640988349915,0.05170062184333801,2.705134153366089,-2.2350502014160156,1.968963623046875,3.922300100326538,0.3315318524837494,-0.41700324416160583,-0.6325051188468933,0.6128135919570923
195,32071,32067,0.002967897802591324,0.02094641886651516,0.9935500621795654,0.7877945899963379,1.5445432662963867,-2.4241957664489746,1.9687618017196655,3.9225504398345947,0.33332666754722595,-0.4446529150009155,-0.6508498191833496,0.6038435697555542
196,32081,32077,0.029167404398322105,-0.0397430881857872,0.9630151391029358,1.0035685300827026,-1.1224656105041504,-2.6763558387756348,1.9707192182540894,3.9223155975341797,0.3329026401042938,-0.5219951272010803,-0.5781567692756653,0.6003715991973877
197,32091,32087,-0.01095652673393488,-0.005138342268764973,1.029584288597107,0.5571718811988831,-3.9878756999969482,-2.988027334213257,1.9702082872390747,3.9220142364501953,0.33267897367477417,-0.39136192202568054,-0.5128981471061707,0.5665884017944336
198,32101,32097,-0.030016833916306496,-0.048004746437072754,1.022194504737854,-1.434526801109314,-4.914208889007568,-2.648010492324829,1.970712661743164,3.9215636253356934,0.32841652631759644,-0.30168455839157104,-0.5365734100341797,0.5340331196784973
199,32111,32107,-0.04438074305653572,0.026776932179927826,0.9875927567481995,-3.398693799972534,-2.1951966285705566,-3.2545573711395264,1.974450707435608,3.92167329788208,0.3276554048061371,-0.5191196203231812,-0.5830280780792236,0.5248494148254395
200,32121,32117,-0.06862475723028183,0.016938988119363785,0.9842857718467712,-5.023044109344482,-0.25932201743125916,-3.757492780685425,1.9744212627410889,3.921964645385742,0.32722708582878113,-0.36374014616012573,-0.661405086517334,0.4827260375022888
201,32131,32127,-0.035265181213617325,0.009118456393480301,1.043789029121399,-3.5470409393310547,0.4518561065196991,-3.9608962535858154,1.9761418104171753,3.9217355251312256,0.3280413746833801,-0.40564849972724915,-0.7555668950080872,0.44318413734436035
202,32141,32137,0.03006320260465145,-0.043392155319452286,1.0007095336914062,-2.892122983932495,-1.4353365898132324,-4.261117458343506,1.9771933555603027,3.9209156036376953,0.3275432586669922,-0.4585356116294861,-0.6705304980278015,0.42131277918815613
203,32151,32147,-0.012820686213672161,-0.11683264374732971,1.0559391975402832,-0.7580656409263611,1.1314831972122192,-5.63766622543335,1.9767817258834839,3.9210753440856934,0.32721108198165894,-0.3504905104637146,-0.7307827472686768,0.37771865725517273
204,32161,32157,0.02476148121058941,-0.0218050554394722,1.0139217376708984,0.7132938504219055,0.7156405448913574,-5.781522750854492,1.9763301610946655,3.9207637310028076,0.3269138038158417,-0.26193368434906006,-0.7597070932388306,0.29314008355140686
205,32171,32167,-0.004121384117752314,0.16902032494544983,1.0219237804412842,1.2458252906799316,0.5090548992156982,-5.026794910430908,1.9777470827102661,3.9205946922302246,0.3276139795780182,-0.33044859766960144,-0.7616033554077148,0.2376173585653305
206,32181,32177,0.004114339128136635,0.11891497671604156,1.0399829149246216,2.567864179611206,-2.7337303161621094,-3.791602849960327,1.9794803857803345,3.920421600341797,0.3272744119167328,-0.3807007968425751,-0.7448301315307617,0.19072994589805603
207,32191,32187,0.04289641231298447,0.01390993781387806,1.05641508102417,2.126340866088867,-5.885946750640869,-4.160942077636719,1.9801054000854492,3.919511079788208,0.3270665407180786,-0.3126713037490845,-0.6386862993240356,0.13024048507213593
208,32201,32197,0.03794129937887192,-0.05229192227125168,1.0331530570983887,1.5508522987365723,-2.9988954067230225,-4.445814609527588,1.982082486152649,3.918764114379883,0.3236764967441559,-0.36632898449897766,-0.6176381707191467,0.09764983505010605
209,32211,32207,0.050412822514772415,0.007487515918910503,0.9865767955780029,1.5330454111099243,1.0536094903945923,-5.555238723754883,1.9828007221221924,3.917344808578491,0.32326740026474,-0.3508903980255127,-0.6030087471008301,0.035263791680336
210,32221,32217,0.07851742208003998,0.04604378342628479,0.8698408007621765,0.2921003997325897,-5.391194820404053,-4.264327049255371,1.982845425605774,3.917848825454712,0.32307055592536926,-0.20164375007152557,-0.5950117707252502,-0.039193205535411835
211,32231,32227,-0.00916342344135046,0.03582242131233215,1.0454455614089966,0.6801211833953857,-9.2885160446167,-3.716658115386963,1.9854389429092407,3.9167420864105225,0.32191407680511475,-0.3805064558982849,-0.5944353342056274,-0.07766645401716232
212,32241,32237,-0.02573961392045021,-0.19457609951496124,1.0536479949951172,1.0253161191940308,-8.03282642364502,-3.250847101211548,1.9849823713302612,3.916799545288086,0.3215981125831604,-0.19140616059303284,-0.5931950211524963,-0.13621868193149567
213,32251,32247,-0.02377525344491005,-0.1767577975988388,1.0113059282302856,1.0230787992477417,-7.443681716918945,-2.8249800205230713,1.9867911338806152,3.9160873889923096,0.3210923969745636,-0.1628170907497406,-0.5865716934204102,-0.16420713067054749
214,32261,32257,0.005365446675568819,-0.09690050035715103,0.9829702973365784,0.1943194717168808,-5.518892288208008,-2.8378381729125977,1.9876115322113037,3.914935827255249,0.3206661641597748,-0.07556449621915817,-0.581155002117157,-0.20742864906787872
215,32271,32267,-0.011086506769061089,-0.04671141132712364,0.9908814430236816,0.7629389762878418,-6.272233009338379,-2.202077865600586,1.9882972240447998,3.9155564308166504,0.3239365816116333,-0.0011964053846895695,-0.5807827711105347,-0.23624788224697113
216,32281,32277,-0.0010124670807272196,0.016862165182828903,1.0638184547424316,1.4858031272888184,-6.588716983795166,-2.1362617015838623,1.9897228479385376,3.9154441356658936,0.3236556649208069,0.002194917295128107,-0.5723012685775757,-0.25176629424095154
217,32291,32287,-0.010102692991495132,-0.06673435866832733,1.0445111989974976,2.669724464416504,-5.513900279998779,-2.2411630153656006,1.9887934923171997,3.915104866027832,0.3236353099346161,0.15844084322452545,-0.5509098768234253,-0.27922487258911133
218,32301,32297,-0.0459580160677433,-0.015162648633122444,1.0963184833526611,2.2026333808898926,-5.933778285980225,-1.7542190551757812,1.9898332357406616,3.9149136543273926,0.32082608342170715,0.21946917474269867,-0.515232503414154,-0.28096383810043335
219,32311,32307,0.0011123974109068513,-0.12232953310012817,1.0030012130737305,2.576014280319214,-2.6455206871032715,-1.532059907913208,1.9922444820404053,3.9153950214385986,0.32049861550331116,0.12454710900783539,-0.4761253595352173,-0.2873776853084564
220,32321,32317,-0.009181162342429161,-0.02609996683895588,1.0118718147277832,0.9300153255462646,-0.03102855756878853,-1.1627777814865112,1.9914069175720215,3.9150807857513428,0.3205333948135376,0.2962402105331421,-0.43991488218307495,-0.3197048604488373
221,32331,32327,0.01587807759642601,0.030792618170380592,1.0543254613876343,-0.46033552289009094,1.0427879095077515,-0.36908459663391113,1.9921355247497559,3.9148449897766113,0.32237866520881653,0.33524444699287415,-0.4280892312526703,-0.3332599103450775
222,32341,32337,0.009919133968651295,0.05990326777100563,1.06693434715271,0.45309916138648987,-1.3438900709152222,0.05049945041537285,1.9943877458572388,3.914907693862915,0.32229214906692505,0.21353937685489655,-0.43432438373565674,-0.32956060767173767
223,32351,32347,-0.002018214436247945,0.024338696151971817,1.0817667245864868,0.35558655858039856,-1.9807102680206299,0.060664452612400055,1.9960376024246216,3.915024518966675,0.3223230242729187,0.20123150944709778,-0.4319171607494354,-0.31509044766426086
224,32361,32357,0.046129945665597916,-0.03933311626315117,0.9762774109840393,-1.1814862489700317,-1.0828603506088257,-0.17933166027069092,1.9957975149154663,3.9155633449554443,0.322628915309906,0.3430275619029999,-0.4342155158519745,-0.32109469175338745
225,32371,32367,0.04144202172756195,0.028776952996850014,0.9833585023880005,1.3205472230911255,-4.738048076629639,0.5046169757843018,1.9980359077453613,3.9156057834625244,0.3228362500667572,0.24235574901103973,-0.44535183906555176,-0.3032485842704773
226,32381,32377,-0.0052628293633461,-0.07999980449676514,1.0123968124389648,1.5488711595535278,-1.4411702156066895,0.013250892981886864,1.9983301162719727,3.915266513824463,0.32305583357810974,0.3602122366428375,-0.4302503764629364,-0.32385680079460144
227,32391,32387,0.007303341757506132,0.0010745241306722164,1.0232503414154053,2.0615999698638916,-4.552593231201172,0.3952302932739258,1.9993480443954468,3.9143879413604736,0.3232085704803467,0.3731031119823456,-0.32887426018714905,-0.352790504693985
228,32401,32397,0.0038595679216086864,-0.03031841106712818,0.9815945029258728,1.401200771331787,-1.2631696462631226,1.452629566192627,2.001249074935913,3.914202928543091,0.32111719250679016,0.33580633997917175,-0.37834760546684265,-0.3271562457084656
229,32411,32407,0.012029536999762058,0.042994193732738495,1.0100932121276855,1.5832877159118652,-3.620143413543701,1.1707319021224976,2.001553773880005,3.9152069091796875,0.3212309777736664,0.436402291059494,-0.42651739716529846,-0.31438130140304565
230,32421,32417,-0.008475118316709995,-0.0035018709022551775,0.9773499369621277,-0.7059035301208496,-1.446269154548645,1.2923849821090698,2.002560615539551,3.9160196781158447,0.32132473587989807,0.531815767288208,-0.40018633008003235,-0.26736924052238464
231,32431,32427,-0.017463041469454765,-0.08120167255401611,0.9490838646888733,-1.1680635213851929,-0.2769467234611511,1.590468168258667,2.0044853687286377,3.915985345840454,0.322207510471344,0.43240034580230713,-0.4066651463508606,-0.2682721018791199
232,32441,32437,0.016750356182456017,-0.05264335498213768,1.0386464595794678,-1.1566518545150757,1.533854603767395,1.638929009437561,2.004690647125244,3.9161555767059326,0.322355180978775,0.5498757362365723,-0.42533472180366516,-0.25677672028541565
233,32451,32447,0.011239082552492619,-0.18372111022472382,0.9969332814216614,0.7893871068954468,0.8958238959312439,1.6317185163497925,2.0087673664093018,3.917095422744751,0.3221587836742401,0.25541847944259644,-0.5083260536193848,-0.21823826432228088
234,32461,32457,-0.01787368580698967,-0.13529519736766815,1.0239558219909668,3.546584129333496,-0.5889366269111633,1.8523321151733398,2.0093488693237305,3.9165239334106445,0.32541680335998535,0.3001560866832733,-0.47832661867141724,-0.22291095554828644
235,32471,32467,-0.1005677729845047,-0.027645505964756012,1.0738887786865234,6.951859474182129,-3.797760009765625,2.5498573780059814,2.0095374584198,3.9163336753845215,0.32585132122039795,0.437312513589859,-0.401675820350647,-0.21060623228549957
236,32481,32477,-0.09591805934906006,0.02622380666434765,1.0362955331802368,8.386270523071289,-5.151407241821289,3.2058026790618896,2.0108437538146973,3.917440176010132,0.32610437273979187,0.38764524459838867,-0.34920424222946167,-0.1272124946117401
237,32491,32487,-0.025224875658750534,-0.154319629073143,0.9937446713447571,6.911785125732422,-3.5438365936279297,2.9836246967315674,2.0106260776519775,3.9187402725219727,0.32668402791023254,0.5873000025749207,-0.27846553921699524,-0.10934390872716904
