,timestamp_start,timestamp_end,acc.x,acc.y,acc.z,gyro.x,gyro.y,gyro.z,stateEstimate.x,stateEstimate.y,stateEstimate.z,stabilizer.pitch,stabilizer.roll,stabilizer.yaw
0,48114,48109,-0.07731089740991592,0.3734108805656433,1.0225746631622314,0.22216135263442993,9.257973670959473,-2.385535955429077,1.900537133216858,3.8354480266571045,0.18594101071357727,0.16171717643737793,-1.4991018772125244,3.1664910316467285
1,48124,48119,-0.07564959675073624,0.37843114137649536,1.0493522882461548,7.245149612426758,1.6193227767944336,-2.3132097721099854,1.8996012210845947,3.836935043334961,0.18902838230133057,-0.1357017457485199,-1.5706372261047363,3.18343186378479
2,48134,48129,-0.05176538601517677,0.37341850996017456,1.006517767906189,13.040660858154297,-0.275320827960968,-2.597545623779297,1.8970879316329956,3.835890054702759,0.19202041625976562,0.10029802471399307,-1.3750072717666626,3.09712553024292
3,48144,48139,0.10880546271800995,0.16049344837665558,0.9246760010719299,21.2823486328125,4.109443187713623,-1.6238797903060913,1.8949642181396484,3.834455728530884,0.1961711347103119,0.12904603779315948,-1.2775391340255737,3.0768678188323975
4,48154,48149,0.18605922162532806,0.13342177867889404,0.7953205108642578,24.04811668395996,12.19328784942627,-1.273711085319519,1.8946924209594727,3.8349997997283936,0.19903869926929474,-0.025849882513284683,-1.0814439058303833,3.0781610012054443
5,48164,48159,0.14258262515068054,0.06906876713037491,0.7868441343307495,23.89494514465332,17.13933563232422,-1.4151493310928345,1.8943301439285278,3.8340065479278564,0.20168226957321167,-0.21250422298908234,-0.7617877125740051,3.067641258239746
6,48174,48169,0.1420864760875702,-0.08653566241264343,0.7277874946594238,18.51898193359375,18.526567459106445,-1.7353744506835938,1.8931177854537964,3.834975004196167,0.2040255069732666,-0.40296670794487,-0.6792574524879456,3.0589656829833984
7,48184,48179,0.08957608044147491,0.141464963555336,0.9227926731109619,10.575739860534668,18.476318359375,-1.940073013305664,1.8931033611297607,3.8355727195739746,0.20572984218597412,-0.6749579906463623,-0.6078341603279114,3.0484466552734375
8,48194,48189,-0.16975833475589752,0.3398107588291168,1.1094236373901367,5.486459255218506,16.73164176940918,-1.6990128755569458,1.8901139497756958,3.835019826889038,0.20793777704238892,-0.6469489336013794,-0.4239721894264221,3.014061689376831
9,48204,48199,-0.20829637348651886,0.16832222044467926,1.056180477142334,5.615140438079834,14.16766357421875,-1.155307650566101,1.8901004791259766,3.835397720336914,0.210140198469162,-0.9105219841003418,-0.3169914782047272,3.003676652908325
10,48214,48209,-0.08726329356431961,0.14910435676574707,0.9086310863494873,6.76072359085083,8.128314971923828,-0.7532236576080322,1.8891605138778687,3.835066795349121,0.2122625857591629,-1.028378963470459,-0.1424189954996109,2.996427297592163
11,48224,48219,0.005418615881353617,0.04135245457291603,0.9625547528266907,7.4760565757751465,4.59362268447876,-1.918577790260315,1.8874281644821167,3.8376548290252686,0.21435584127902985,-0.9870861768722534,-0.258260041475296,2.96879506111145
12,48234,48229,-0.07808559387922287,0.08012790977954865,1.0464764833450317,10.594907760620117,-1.2882070541381836,-1.0348528623580933,1.8873002529144287,3.838776111602783,0.21644273400306702,-1.1025786399841309,-0.2549939453601837,2.9425501823425293
13,48244,48239,0.0007700013811700046,0.2651693820953369,0.9995670914649963,15.068212509155273,-2.275452136993408,-1.4595848321914673,1.88591730594635,3.8395462036132812,0.21835440397262573,-1.2016096115112305,-0.03737868368625641,2.9441728591918945
14,48254,48249,-0.06030527502298355,0.5535925030708313,1.1539641618728638,18.783620834350586,-8.158617973327637,-1.9369983673095703,1.8861865997314453,3.840688705444336,0.2207457572221756,-1.2611011266708374,0.22702525556087494,2.944406032562256
15,48264,48259,-0.08111478388309479,0.6127083897590637,1.0436899662017822,13.249832153320312,1.6759991645812988,-2.825371265411377,1.8846750259399414,3.8415677547454834,0.22299054265022278,-1.2247627973556519,0.4305221736431122,2.927053451538086
16,48274,48269,-0.08543304353952408,0.3515033423900604,1.012891173362732,5.179930686950684,3.9399375915527344,-2.6850318908691406,1.8838438987731934,3.844790458679199,0.22535568475723267,-1.1841353178024292,0.33756938576698303,2.8619577884674072
17,48284,48279,-0.12343236804008484,0.25003254413604736,1.0539042949676514,6.083644390106201,0.40702468156814575,-0.9817072749137878,1.8835326433181763,3.8459413051605225,0.22729159891605377,-1.3120037317276,0.5376854538917542,2.8516340255737305
18,48294,48289,-0.057854682207107544,0.04200458154082298,1.0084947347640991,1.2752610445022583,0.06879433989524841,-0.9923065900802612,1.882234811782837,3.8455452919006348,0.22961533069610596,-1.328394889831543,0.4737699627876282,2.817235231399536
19,48304,48299,-0.0422188974916935,0.17806559801101685,0.995063841342926,1.7843520641326904,-0.5297179818153381,-0.9935777187347412,1.8815109729766846,3.8481264114379883,0.23200221359729767,-1.3431384563446045,0.512127161026001,2.811434268951416
20,48314,48309,-0.0014419036451727152,0.12604068219661713,1.0278984308242798,-1.783677339553833,2.3083274364471436,-2.0368335247039795,1.8797268867492676,3.848134756088257,0.23612844944000244,-1.4028868675231934,0.546113908290863,2.7984490394592285
21,48324,48319,0.05115412920713425,0.2826978266239166,0.9824690222740173,5.017938613891602,-0.35293370485305786,-1.1139189004898071,1.8797334432601929,3.8502583503723145,0.23863932490348816,-1.5359233617782593,0.5763311982154846,2.77276873588562
22,48334,48329,0.09957728534936905,-0.04362039640545845,0.9606871008872986,8.446756362915039,-3.588162899017334,-1.1145015954971313,1.8791582584381104,3.8494608402252197,0.2410939633846283,-1.537485122680664,0.6775473356246948,2.7722599506378174
23,48344,48339,0.0009281248203478754,-0.18191863596439362,0.8702834248542786,7.326740264892578,-3.596989631652832,-1.5717653036117554,1.8795205354690552,3.8499093055725098,0.24062052369117737,-1.5656541585922241,0.733858585357666,2.7447080612182617
24,48354,48349,-0.04996481537818909,0.043792303651571274,0.9048479795455933,9.523172378540039,-18.925966262817383,0.7829517722129822,1.8787040710449219,3.8517417907714844,0.24272122979164124,-1.4541021585464478,0.9383165240287781,2.771571636199951
25,48364,48359,-0.008797451853752136,-0.06832293421030045,0.9278793931007385,6.949392318725586,-10.855104446411133,-0.7843964099884033,1.8784600496292114,3.850700855255127,0.24482205510139465,-1.227719783782959,0.9030875563621521,2.7536590099334717
26,48374,48369,-0.025191958993673325,-0.01910032331943512,0.8821901679039001,2.9104514122009277,-7.097407817840576,-0.8112260699272156,1.8767743110656738,3.8517906665802,0.24685212969779968,-1.0741124153137207,0.9913225173950195,2.7575762271881104
27,48384,48379,0.10289998352527618,0.3932642340660095,0.8651067018508911,-1.191702127456665,-6.2430338859558105,-0.490833044052124,1.8765745162963867,3.851186990737915,0.24687620997428894,-1.0316087007522583,1.0036989450454712,2.744985818862915
28,48394,48389,0.04665720835328102,0.31542614102363586,0.9321283102035522,-3.8437340259552,-6.332658290863037,-1.7809053659439087,1.8760485649108887,3.8508124351501465,0.24855653941631317,-1.0459773540496826,0.9447775483131409,2.710533380508423
29,48404,48399,-0.1261453479528427,0.20095284283161163,1.0079001188278198,-3.769493818283081,-1.675447702407837,-1.319804072380066,1.8767985105514526,3.8505966663360596,0.25025078654289246,-0.9947540163993835,1.0202654600143433,2.7166967391967773
30,48414,48409,-0.1457090675830841,0.05913738161325455,0.9719415307044983,-3.649364709854126,-1.654292106628418,-0.7486342787742615,1.8768553733825684,3.8496170043945312,0.248231440782547,-1.138802170753479,1.0862343311309814,2.691711187362671
31,48424,48419,-0.0864497721195221,0.0694485530257225,1.0053412914276123,-4.303329944610596,-2.5256810188293457,-0.6776106357574463,1.878261923789978,3.8497297763824463,0.24977083504199982,-1.0814698934555054,0.9962331652641296,2.681217670440674
32,48434,48429,-0.029729746282100677,0.5456552505493164,1.0603832006454468,-2.144411563873291,-7.70721960067749,-0.3586566746234894,1.8771412372589111,3.850360155105591,0.2511517107486725,-1.0654473304748535,0.9883873462677002,2.6748130321502686
33,48444,48439,-0.05562267825007439,0.05524173006415367,0.900185763835907,0.46110689640045166,-11.625011444091797,-0.9752155542373657,1.8773874044418335,3.850404739379883,0.2497451901435852,-0.8724013566970825,0.9246097207069397,2.682983636856079
34,48454,48449,-0.019738350063562393,-0.35044732689857483,0.7758646607398987,0.6423712968826294,-12.333837509155273,-1.4454935789108276,1.8768103122711182,3.8538458347320557,0.2512090504169464,-0.6508540511131287,1.1283173561096191,2.72836971282959
35,48464,48459,0.08378656953573227,-0.3643721640110016,0.7921851873397827,-3.1127002239227295,-9.75532054901123,-2.6861774921417236,1.875571370124817,3.8515710830688477,0.25238609313964844,-0.4511582553386688,1.1363383531570435,2.7226755619049072
36,48474,48469,-0.055770039558410645,0.10411913692951202,0.947598934173584,-4.7145819664001465,-7.241732120513916,-2.277470350265503,1.874817967414856,3.8524532318115234,0.2519512474536896,-0.3088954985141754,1.085896611213684,2.703188896179199
37,48484,48479,-0.10399754345417023,0.08083906769752502,0.954794704914093,-4.416544437408447,-5.912142753601074,-1.556482195854187,1.8736588954925537,3.8528943061828613,0.2526204586029053,-0.6494483947753906,0.7258149981498718,2.5413594245910645
38,48494,48489,-0.14696015417575836,0.11863995343446732,1.077143669128418,-6.104915142059326,-4.87528133392334,-0.7459885478019714,1.8776534795761108,3.856235980987549,0.25364017486572266,-0.5646847486495972,0.6758922934532166,2.533594846725464
39,48504,48499,-0.30106285214424133,0.9447997212409973,1.1277295351028442,-4.101124286651611,-0.024427328258752823,-0.4494173228740692,1.877059817314148,3.8557162284851074,0.25429612398147583,-0.40479129552841187,0.7081072926521301,2.565962553024292
40,48514,48509,-0.23593899607658386,0.747248649597168,1.0374259948730469,-1.5870466232299805,-0.8873843550682068,-1.8201591968536377,1.876119613647461,3.855330228805542,0.2522744834423065,-0.39599788188934326,0.6753836870193481,2.562751293182373
41,48524,48519,-0.17856018245220184,0.4542608857154846,1.0920089483261108,1.764548659324646,-5.637392997741699,-0.7187199592590332,1.8760952949523926,3.856227159500122,0.25297242403030396,-0.40875810384750366,0.6966270208358765,2.5446839332580566
42,48534,48529,-0.007377272937446833,0.025269728153944016,0.974384069442749,2.508157253265381,-6.451438903808594,-0.3753253221511841,1.876477837562561,3.85666561126709,0.25373896956443787,-0.2723883390426636,0.9087726473808289,2.5723936557769775
43,48544,48539,-0.05133843421936035,0.8768256306648254,1.1225730180740356,1.7359161376953125,-4.11274528503418,-1.1415648460388184,1.8756948709487915,3.8555097579956055,0.252034068107605,-0.22391824424266815,0.8826512098312378,2.5601584911346436
44,48554,48549,-0.030034348368644714,1.2718156576156616,1.061519742012024,-1.4935235977172852,-7.541928768157959,-0.6344722509384155,1.8751978874206543,3.8556101322174072,0.25272783637046814,-0.11658705025911331,0.8972520232200623,2.559558391571045
45,48564,48559,-0.04928969591856003,0.7144330143928528,1.0614341497421265,-6.10394287109375,-7.236948490142822,0.03418786823749542,1.8748444318771362,3.8559460639953613,0.25356024503707886,0.03333241119980812,0.9179802536964417,2.569563388824463
46,48574,48569,-0.11757732182741165,0.3096315562725067,1.0831772089004517,-7.287904739379883,-5.999575614929199,-0.6561216711997986,1.8738031387329102,3.8562169075012207,0.252314031124115,0.051198966801166534,0.794000506401062,2.555020809173584
47,48584,48579,-0.07731132954359055,0.4885425865650177,1.009368896484375,-8.436315536499023,-5.744200229644775,-0.685258686542511,1.874149203300476,3.8557465076446533,0.2531624734401703,-0.01017065905034542,0.7431889772415161,2.525634288787842
48,48594,48589,-0.20947641134262085,0.5029745697975159,1.1557233333587646,-9.790488243103027,1.460538387298584,-0.6754981279373169,1.8756376504898071,3.85624098777771,0.25407183170318604,-0.009830801747739315,0.5937665700912476,2.5132052898406982
49,48604,48599,-0.052142433822155,0.1165996566414833,1.0294122695922852,-6.974653244018555,-3.814401865005493,0.7441021800041199,1.8752410411834717,3.8544578552246094,0.25503432750701904,-0.0490836463868618,0.5212091207504272,2.505073070526123
50,48614,48609,-0.07349896430969238,0.164373517036438,1.1277744770050049,-5.023360252380371,-2.857023239135742,0.6770758628845215,1.8761786222457886,3.855151653289795,0.25165122747421265,0.10273247957229614,0.47858577966690063,2.532341718673706
51,48624,48619,-0.0804126039147377,0.0895448625087738,1.014322280883789,-3.1602587699890137,-7.125568866729736,1.5372594594955444,1.8753198385238647,3.856245994567871,0.25260812044143677,0.17027807235717773,0.4635876417160034,2.547595500946045
52,48634,48629,-0.031095018610358238,0.1395808607339859,0.9362444877624512,-1.7837077379226685,-8.073055267333984,0.3282115161418915,1.8733457326889038,3.855597496032715,0.25359541177749634,0.3238358497619629,0.4099130630493164,2.5659918785095215
53,48644,48639,-0.08543012291193008,0.22865551710128784,1.1023839712142944,1.433579683303833,-10.770974159240723,0.7612788677215576,1.8736698627471924,3.8559329509735107,0.25192368030548096,0.1502283811569214,0.5387407541275024,2.5291261672973633
54,48654,48649,-0.07407490164041519,0.4378896951675415,0.9892286658287048,-2.609856367111206,-0.41768375039100647,1.1207404136657715,1.874395489692688,3.8538565635681152,0.25282421708106995,0.23337417840957642,0.4988163113594055,2.5435523986816406
55,48664,48659,0.06210358440876007,0.1295771300792694,0.927928626537323,-3.8768491744995117,-2.074389934539795,1.985964059829712,1.8735003471374512,3.854179859161377,0.2537665069103241,0.2757405638694763,0.49590563774108887,2.5624773502349854
56,48674,48669,0.027062932029366493,-0.12076222151517868,0.9544912576675415,-8.01525592803955,-3.799577236175537,1.381399393081665,1.872351050376892,3.8544883728027344,0.2517525553703308,0.40320563316345215,0.35659173130989075,2.5918729305267334
57,48684,48679,0.005947788245975971,-0.10140371322631836,0.9258737564086914,-9.525678634643555,-3.7508463859558105,0.8742208480834961,1.8720366954803467,3.851794958114624,0.2523067593574524,0.46160000562667847,0.48523762822151184,2.594481945037842
58,48694,48689,-0.057436566799879074,0.4528628885746002,1.0449151992797852,-8.934572219848633,-2.871692657470703,0.23841293156147003,1.872766375541687,3.8533012866973877,0.2528330981731415,0.38336437940597534,0.34852680563926697,2.5904104709625244
59,48704,48699,-0.08937662094831467,0.05095656216144562,0.879536509513855,-10.10900592803955,-1.4400646686553955,1.0782008171081543,1.872979760169983,3.854208469390869,0.25339052081108093,0.4283938407897949,0.2014419287443161,2.598674774169922
60,48714,48709,0.10814514011144638,0.3111780881881714,0.8407354354858398,-10.5416841506958,-1.1792830228805542,0.5491895079612732,1.8716787099838257,3.8528480529785156,0.24944069981575012,0.5031560063362122,0.13706660270690918,2.6102147102355957
61,48724,48719,0.09675464034080505,-0.08788652718067169,0.8415275812149048,-9.49992561340332,-0.02072104811668396,0.4573984146118164,1.8716657161712646,3.8540027141571045,0.24954280257225037,0.44931405782699585,-0.01116948388516903,2.6111197471618652
62,48734,48729,0.02891935035586357,-0.01089169830083847,1.014586329460144,-7.315506935119629,-2.0516932010650635,0.979139506816864,1.870451807975769,3.8533895015716553,0.2494211494922638,0.4582229554653168,0.02916835807263851,2.6060121059417725
63,48744,48739,0.0814424604177475,-0.23754771053791046,0.9268338680267334,-3.519742488861084,0.7926230430603027,0.9805372357368469,1.870973825454712,3.8535923957824707,0.2481309175491333,0.4393722712993622,-0.1249309852719307,2.621981382369995
64,48754,48749,0.04317525401711464,-0.12051529437303543,1.0099925994873047,-3.9060585498809814,5.069343566894531,0.5689657330513,1.8712936639785767,3.851830244064331,0.24781464040279388,0.46421191096305847,0.005058045499026775,2.6226141452789307
65,48764,48759,0.0003571291745174676,-0.1906740665435791,1.0239365100860596,-3.10790753364563,-3.1073644161224365,1.6019943952560425,1.8707183599472046,3.8511242866516113,0.24749542772769928,0.457486629486084,-0.04013843089342117,2.6317880153656006
66,48774,48769,0.0840940847992897,0.02533406764268875,1.0833344459533691,-4.4035186767578125,-3.8717002868652344,1.20896315574646,1.8706730604171753,3.8508989810943604,0.24509690701961517,0.5157719254493713,-0.16228123009204865,2.656572103500366
67,48784,48779,-0.055735994130373,0.16270306706428528,1.0682635307312012,-8.409552574157715,-3.1987876892089844,1.7306994199752808,1.8704469203948975,3.849769115447998,0.24471516907215118,0.4863339960575104,-0.31629642844200134,2.67818546295166
68,48794,48789,-0.0962577536702156,0.058201443403959274,1.2004907131195068,-8.102174758911133,-5.484564304351807,2.683152914047241,1.8698452711105347,3.850835084915161,0.24440117180347443,0.5372344851493835,-0.41750818490982056,2.7000887393951416
69,48804,48799,-0.018865421414375305,0.07194451242685318,1.155402660369873,-7.492327690124512,1.8879504203796387,1.507171392440796,1.868965983390808,3.849152088165283,0.24580569565296173,0.5553269982337952,-0.35937824845314026,2.7076404094696045
70,48814,48809,-0.023866480216383934,0.11367539316415787,1.0279258489608765,-5.5101494789123535,3.759735107421875,1.3835200071334839,1.869334101676941,3.8496041297912598,0.245920792222023,0.5218924880027771,-0.5302668213844299,2.735203981399536
71,48824,48819,0.023924097418785095,0.10756662487983704,1.045987844467163,-3.1229307651519775,9.367822647094727,0.5350610017776489,1.86854887008667,3.8497908115386963,0.24612431228160858,0.5036056041717529,-0.49496152997016907,2.7367043495178223
72,48834,48829,0.033268630504608154,-0.21422985196113586,0.9510691165924072,-1.1738178730010986,0.4765874147415161,0.6544409990310669,1.8690104484558105,3.84989857673645,0.24642933905124664,0.35225099325180054,-0.5950244665145874,2.7521870136260986
73,48844,48839,0.03482719138264656,0.19434192776679993,1.0596309900283813,-0.7391252517700195,-2.6873154640197754,2.1529700756073,1.8683066368103027,3.8500800132751465,0.2464473843574524,0.36408576369285583,-0.49543026089668274,2.7521538734436035
74,48854,48849,0.02534872107207775,0.09577804803848267,1.0854086875915527,-1.689184308052063,-1.6465206146240234,0.22000332176685333,1.867819905281067,3.85062313079834,0.24671554565429688,0.4100128710269928,-0.564905047416687,2.773198127746582
75,48864,48859,0.0028396216221153736,-0.0015052682720124722,1.0946526527404785,-1.3649840354919434,-3.2770538330078125,2.047888994216919,1.8678621053695679,3.851316452026367,0.24703580141067505,0.4378737509250641,-0.6384515762329102,2.784344434738159
76,48874,48869,-0.006605042610317469,-0.06834843754768372,1.010543942451477,-3.58506178855896,0.1046876385807991,1.251555323600769,1.8672195672988892,3.8522632122039795,0.24692468345165253,0.47925999760627747,-0.7165340185165405,2.8062732219696045
77,48884,48879,-0.018007518723607063,-0.005087331868708134,1.0790687799453735,-2.8664023876190186,8.021764755249023,0.7445778250694275,1.86683988571167,3.851332187652588,0.2473686784505844,0.44211703538894653,-0.7221983075141907,2.8169431686401367
78,48894,48889,-0.026729989796876907,0.07936405390501022,1.098665714263916,-2.9669227600097656,20.851768493652344,0.7592513561248779,1.866834282875061,3.8523731231689453,0.24784110486507416,0.26728928089141846,-0.7274459004402161,2.8251280784606934
79,48904,48899,0.03305347263813019,-0.0016526287654414773,1.0240916013717651,-3.523775100708008,20.980615615844727,-0.2735249698162079,1.8670196533203125,3.8522348403930664,0.24820417165756226,-0.05177931487560272,-0.74527508020401,2.8335819244384766
80,48914,48909,0.03568783402442932,-0.014366845600306988,1.0533552169799805,-1.5409237146377563,24.69658660888672,-0.3295576870441437,1.867477536201477,3.8521840572357178,0.24874237179756165,-0.330133855342865,-0.8144208192825317,2.8344321250915527
81,48924,48919,-0.0485481396317482,0.06794064491987228,1.1164591312408447,2.069814443588257,20.042335510253906,0.5227769017219543,1.8661631345748901,3.8507943153381348,0.2494761347770691,-0.45827457308769226,-0.680152952671051,2.8135993480682373
82,48934,48929,-0.009942924603819847,0.05024584382772446,1.0916751623153687,2.845637559890747,13.495295524597168,0.7043525576591492,1.8662641048431396,3.850220203399658,0.2501627504825592,-0.674414336681366,-0.6767129302024841,2.8207101821899414
83,48944,48939,-0.05654994025826454,0.15002286434173584,1.0345728397369385,2.467205047607422,6.498466968536377,0.6276912093162537,1.8667705059051514,3.8502793312072754,0.2522481381893158,-0.8188421130180359,-0.7421274781227112,2.83496356010437
84,48954,48949,-0.022520247846841812,-0.025293678045272827,1.0256470441818237,2.2552490234375,6.798095226287842,-0.8528605103492737,1.8667280673980713,3.8493924140930176,0.2532637119293213,-0.8098453283309937,-0.7350109219551086,2.8315937519073486
85,48964,48959,0.08150310814380646,-0.14927157759666443,0.9919784069061279,0.7762327194213867,6.65852689743042,-0.7448985576629639,1.866673231124878,3.849754810333252,0.2542601525783539,-0.8595467805862427,-0.736554741859436,2.8225929737091064
86,48974,48969,0.09147235751152039,-0.13645102083683014,0.9510354399681091,0.704917311668396,-2.452759027481079,-0.5635122060775757,1.8668402433395386,3.8491392135620117,0.2568836808204651,-0.8556473255157471,-0.7365228533744812,2.813316583633423
87,48984,48979,0.01819697953760624,0.06215313822031021,1.0297011137008667,2.583524703979492,-2.2439610958099365,0.0980387032032013,1.866382122039795,3.8491837978363037,0.2579675614833832,-0.7794654965400696,-0.7229617238044739,2.8080849647521973
88,48994,48989,-0.02709610015153885,0.06024915352463722,1.0838534832000732,-0.6556669473648071,1.1263447999954224,-0.5141061544418335,1.8655221462249756,3.8501861095428467,0.2590491473674774,-0.822368323802948,-0.7123769521713257,2.812256336212158
89,49004,48999,-0.09059590846300125,0.08233179152011871,1.1585943698883057,1.3888827562332153,5.801600933074951,-0.35203516483306885,1.8659919500350952,3.8502109050750732,0.26041072607040405,-0.8576175570487976,-0.5581657290458679,2.8164901733398438
90,49014,49009,-0.032983627170324326,0.16615928709506989,1.076606035232544,0.7823086977005005,8.857061386108398,-0.7599171996116638,1.8660074472427368,3.848780632019043,0.2616281807422638,-0.96245938539505,-0.6353466510772705,2.806938409805298
91,49024,49019,-0.0530448742210865,-0.023975616320967674,1.0145094394683838,2.1308400630950928,8.314545631408691,-1.1898847818374634,1.8665214776992798,3.848883628845215,0.2629764974117279,-1.1025084257125854,-0.6318323612213135,2.800335168838501
92,49034,49029,0.10404885560274124,-0.2760206162929535,0.8254832625389099,-0.23867259919643402,5.821106433868408,-1.7625904083251953,1.8669459819793701,3.8494534492492676,0.2643791139125824,-1.2273086309432983,-0.7769363522529602,2.7763874530792236
93,49044,49039,-0.13661281764507294,0.006106798071414232,1.0296928882598877,1.797351360321045,5.5408501625061035,-0.09162414819002151,1.8669548034667969,3.8513705730438232,0.2666320502758026,-1.5448709726333618,-0.8415985703468323,2.7780630588531494
94,49054,49049,-0.056996848434209824,0.018214713782072067,1.0686969757080078,4.487133979797363,1.5094847679138184,0.06311483681201935,1.8692901134490967,3.8518106937408447,0.2677072286605835,-2.18276047706604,-0.8628339171409607,2.8261256217956543
95,49064,49059,0.035811785608530045,-0.024169767275452614,0.9596174359321594,5.690968036651611,0.707464873790741,-0.6356924176216125,1.8749828338623047,3.8528294563293457,0.2679413855075836,-2.085069417953491,-0.6818382143974304,2.8316636085510254
96,49074,49069,-0.02959137223660946,0.01721741259098053,1.0088618993759155,7.964925765991211,-9.891410827636719,-0.7801045775413513,1.8755114078521729,3.8518786430358887,0.2719021141529083,-2.0485663414001465,-0.6372167468070984,2.820812225341797
97,49084,49079,-0.096401147544384,0.5593020915985107,1.0069562196731567,9.375604629516602,-24.435039520263672,-0.8279362320899963,1.8767112493515015,3.8542227745056152,0.27340778708457947,-1.666177749633789,-1.2460240125656128,2.6532797813415527
98,49094,49089,-0.03466684743762016,0.2024262547492981,0.8986840844154358,11.464059829711914,-29.213232040405273,-0.16123045980930328,1.8754521608352661,3.8615000247955322,0.2752636969089508,0.21179267764091492,0.13588623702526093,2.7200305461883545
99,49104,49099,-0.029373541474342346,0.07523578405380249,0.8985928893089294,9.231162071228027,-24.816688537597656,1.6280667781829834,1.8619458675384521,3.8491084575653076,0.27972695231437683,0.9808838367462158,0.345345675945282,2.687368631362915
100,49114,49109,-0.01692497916519642,0.044504232704639435,0.9259964823722839,4.796042442321777,-11.243937492370605,2.295241594314575,1.8568973541259766,3.8484442234039307,0.27989640831947327,1.1665400266647339,0.40193864703178406,2.699075222015381
101,49124,49119,0.048395004123449326,0.2705861032009125,1.0303236246109009,-4.330306053161621,13.46366024017334,0.6100438833236694,1.8555996417999268,3.8495609760284424,0.2813316881656647,0.9368594288825989,0.32903414964675903,2.725027322769165
102,49134,49129,-0.19275528192520142,0.18478792905807495,1.0118427276611328,-17.969743728637695,47.34767532348633,-1.6106468439102173,1.8567259311676025,3.8502960205078125,0.28386348485946655,0.3380969762802124,0.10566235333681107,2.7367756366729736
103,49144,49139,-0.3536011278629303,0.8953310251235962,1.0950905084609985,-25.486671447753906,67.37784576416016,0.6452521681785583,1.8594067096710205,3.850923776626587,0.28617534041404724,-0.488956093788147,-0.19005689024925232,2.733907699584961
104,49154,49149,-0.1388573944568634,0.45630934834480286,0.9716818332672119,-22.999895095825195,67.97639465332031,1.9989068508148193,1.8607221841812134,3.8506205081939697,0.28810861706733704,-1.2195849418640137,-0.44710543751716614,2.745790481567383
105,49164,49159,0.2965969443321228,0.03777379170060158,0.9261936545372009,-21.69942855834961,60.19845199584961,1.6042510271072388,1.8615671396255493,3.851412534713745,0.2896917164325714,-1.694573163986206,-0.6877589225769043,2.7530901432037354
106,49174,49169,0.38031071424484253,-0.1754821091890335,0.8501662015914917,-15.360898971557617,41.30192184448242,1.0249441862106323,1.8599687814712524,3.851146936416626,0.29006078839302063,-2.301241636276245,-0.9606722593307495,2.7600314617156982
107,49184,49179,0.19248655438423157,0.11777249723672867,0.9685037136077881,-3.376912832260132,12.001965522766113,1.046373724937439,1.8609267473220825,3.8525543212890625,0.29137834906578064,-2.6894023418426514,-1.0050559043884277,2.779590606689453
108,49194,49189,0.13062815368175507,0.14387919008731842,1.0097565650939941,5.1558613777160645,-9.08938217163086,1.7127692699432373,1.8616337776184082,3.8524298667907715,0.29259854555130005,-2.8480820655822754,-1.016847014427185,2.787544012069702
109,49204,49199,0.025902334600687027,0.11032697558403015,0.9908928871154785,16.52653694152832,-22.278188705444336,0.4811651408672333,1.8613038063049316,3.8514788150787354,0.2936917543411255,-2.660844564437866,-0.8332569003105164,2.8117830753326416
110,49214,49209,-0.004088098183274269,0.15926241874694824,0.8955503106117249,21.182735443115234,-23.449935913085938,-0.31157979369163513,1.8602694272994995,3.8515987396240234,0.29515233635902405,-2.4793570041656494,-0.7434852719306946,2.8010222911834717
111,49224,49219,-0.09510582685470581,0.40298038721084595,1.0639597177505493,17.989328384399414,-14.608819961547852,-0.8202252984046936,1.8613802194595337,3.853809118270874,0.2963084876537323,-2.082878351211548,-0.4635293185710907,2.8061814308166504
112,49234,49229,-0.10574276000261307,0.21558839082717896,1.0380637645721436,12.80717945098877,-8.641539573669434,-0.6233367919921875,1.8599413633346558,3.8533430099487305,0.29845941066741943,-2.0061845779418945,-0.32196682691574097,2.801609992980957
113,49244,49239,-0.014545172452926636,0.269967645406723,0.8906658887863159,9.474326133728027,-7.313416004180908,-1.5777653455734253,1.8622723817825317,3.8558013439178467,0.2997360825538635,-2.10935640335083,-0.20093894004821777,2.8037972450256348
114,49254,49249,-0.02705242857336998,0.11764466017484665,0.9736379384994507,4.265630722045898,-1.5666066408157349,-2.2105581760406494,1.8649693727493286,3.8572802543640137,0.30092939734458923,-2.093278169631958,-0.11935262382030487,2.7876813411712646
115,49264,49259,0.111667200922966,-0.06561072915792465,0.8318171501159668,-2.960294485092163,-0.6904007792472839,-3.4198203086853027,1.8650590181350708,3.858649969100952,0.3021528124809265,-2.2802841663360596,-0.24848373234272003,2.737121105194092
116,49274,49269,0.03266262263059616,0.1137731745839119,0.8805062174797058,-11.706223487854004,9.657336235046387,-1.9203059673309326,1.8672603368759155,3.8624775409698486,0.3030798137187958,-2.353602409362793,-0.39309927821159363,2.694237232208252
117,49284,49279,-0.060259703546762466,0.16892285645008087,0.9588387608528137,-13.010438919067383,7.042178153991699,-1.4152841567993164,1.8688335418701172,3.8643910884857178,0.3039340674877167,-2.5070831775665283,-0.5772298574447632,2.6598281860351562
118,49294,49289,-0.01618954911828041,0.10469520837068558,0.9777292609214783,-8.879663467407227,4.307323455810547,-0.7820432186126709,1.8697007894515991,3.8662660121917725,0.30480796098709106,-2.635176420211792,-0.7410174608230591,2.6403183937072754
119,49304,49299,0.007014346309006214,0.39824962615966797,0.9637924432754517,-1.6843739748001099,1.2209839820861816,-2.0241856575012207,1.8713443279266357,3.866647481918335,0.3086787760257721,-2.4947221279144287,-0.6961766481399536,2.655923843383789
120,49314,49309,0.00952044129371643,0.3290497958660126,1.002274513244629,7.9924445152282715,-7.2528886795043945,-2.0307817459106445,1.8705980777740479,3.8669497966766357,0.30990955233573914,-2.612955331802368,-0.6762872934341431,2.6460132598876953
121,49324,49319,0.059063173830509186,0.2440440058708191,0.9610154032707214,17.270503997802734,-24.291887283325195,-1.1944173574447632,1.8728938102722168,3.8682782649993896,0.3106485903263092,-2.408620595932007,-0.579474925994873,2.619818925857544
122,49334,49329,-0.14082860946655273,0.9105473756790161,0.8983399868011475,19.53378677368164,-23.131101608276367,-0.2882677912712097,1.8718684911727905,3.8683035373687744,0.3112848103046417,-1.9170759916305542,-0.3134976625442505,2.6283011436462402
123,49344,49339,0.0931524932384491,0.6356387138366699,0.9307902455329895,22.111303329467773,-24.886064529418945,-1.0791374444961548,1.872483253479004,3.868349313735962,0.31216949224472046,-1.892464280128479,-0.10792623460292816,2.6327695846557617
124,49354,49349,0.20150694251060486,0.15668201446533203,0.8444316387176514,12.756680488586426,-23.919963836669922,-2.1445093154907227,1.874577522277832,3.8694558143615723,0.31294506788253784,-1.5228601694107056,-0.04355735704302788,2.575061082839966
125,49364,49359,0.036767128854990005,0.3001633286476135,0.8935830593109131,8.095443725585938,-19.94887924194336,-2.398944616317749,1.878261923789978,3.8716039657592773,0.31336843967437744,-1.6193917989730835,-0.011923884972929955,2.543009042739868
126,49374,49369,-0.03149866312742233,0.198068767786026,0.863597571849823,-1.6249253749847412,-12.49077320098877,-3.7232749462127686,1.8776776790618896,3.8714044094085693,0.3125566244125366,-1.3412758111953735,0.10214944928884506,2.5346014499664307
127,49384,49379,-0.19463211297988892,0.5491429567337036,1.114115595817566,-5.0453033447265625,0.2703477144241333,-3.539240598678589,1.8789238929748535,3.8718245029449463,0.3129374086856842,-1.3195009231567383,0.011728310026228428,2.4898312091827393
128,49394,49389,-0.23974640667438507,0.27332887053489685,1.029715657234192,-5.2028279304504395,7.177210330963135,-3.115910768508911,1.882504940032959,3.8756351470947266,0.31306612491607666,-1.4488791227340698,-0.02614322118461132,2.462955951690674
129,49404,49399,-0.03351770341396332,-0.0021157977171242237,0.9206514954566956,-0.8501725792884827,-10.500487327575684,-1.2837432622909546,1.8827100992202759,3.876138210296631,0.31285130977630615,-1.283791422843933,-0.044711995869874954,2.443751573562622
130,49414,49409,0.006161301862448454,0.6081403493881226,1.0307891368865967,2.9089081287384033,-16.83036231994629,-1.8717002868652344,1.884219765663147,3.8774290084838867,0.31307655572891235,-1.2223955392837524,-0.08963079750537872,2.417581796646118
131,49424,49419,0.07255540788173676,0.43077683448791504,0.9345681667327881,9.777593612670898,-25.4005184173584,-2.483243703842163,1.8855278491973877,3.8784842491149902,0.31334957480430603,-0.8237422704696655,0.03552330285310745,2.4107003211975098
132,49434,49429,-0.1812392771244049,0.7167978286743164,1.0192370414733887,9.444897651672363,-23.352022171020508,-2.4354333877563477,1.88796067237854,3.8788039684295654,0.31234997510910034,-0.9366661310195923,0.07057209312915802,2.3667073249816895
133,49444,49439,-0.10654066503047943,0.32967182993888855,0.8837576508522034,9.863758087158203,-20.485694885253906,-3.285656213760376,1.8890589475631714,3.8796730041503906,0.312435120344162,-0.7039792537689209,0.11416460573673248,2.3277368545532227
134,49454,49449,0.02006218582391739,0.7034640908241272,0.9428812265396118,9.763557434082031,-25.873008728027344,-2.226712226867676,1.8884992599487305,3.880709171295166,0.31274864077568054,-0.29545044898986816,0.14952462911605835,2.2883808612823486
135,49464,49459,-0.05310072377324104,0.8761823177337646,1.0498806238174438,6.326736927032471,-22.224924087524414,-2.7790868282318115,1.8899465799331665,3.881661891937256,0.31483420729637146,-0.3000933527946472,0.3136569559574127,2.272859811782837
136,49474,49469,-0.25502291321754456,0.8290752172470093,1.0624135732650757,1.816222906112671,-9.481035232543945,-2.2423441410064697,1.8928641080856323,3.8820483684539795,0.3148880898952484,-0.11741723120212555,0.2709559202194214,2.2352192401885986
137,49484,49479,-0.07263512164354324,0.8553891777992249,0.9625669121742249,-0.3997192084789276,-6.426497459411621,-1.870988368988037,1.8947598934173584,3.8822555541992188,0.31506678462028503,-0.04263840243220329,0.3220473527908325,2.2113211154937744
138,49494,49489,-0.03334929049015045,0.8981687426567078,1.035968542098999,0.3170720040798187,-4.11409330368042,-0.10168308019638062,1.8950632810592651,3.882438898086548,0.3152497410774231,0.010442554019391537,0.25841155648231506,2.1921801567077637
139,49504,49499,-0.07693302631378174,0.272258460521698,1.0283507108688354,-0.4224129021167755,-7.369514465332031,0.18914060294628143,1.8962661027908325,3.8828542232513428,0.3156947195529938,0.07588206976652145,0.24719201028347015,2.1886045932769775
140,49514,49509,-0.01188680436462164,-0.03525709733366966,0.8966643810272217,-2.7626843452453613,0.27308279275894165,-0.13734571635723114,1.8946202993392944,3.8827157020568848,0.31623491644859314,0.3641927242279053,0.27920618653297424,2.201244354248047
141,49524,49519,0.07836902886629105,0.33836671710014343,1.0198397636413574,0.2909306585788727,-13.393210411071777,0.7978544235229492,1.8942338228225708,3.882040023803711,0.31651103496551514,0.5138704180717468,0.3130435645580292,2.1987223625183105
142,49534,49529,0.07222582399845123,0.19896259903907776,1.0067603588104248,0.9472570419311523,-15.487332344055176,0.5103390216827393,1.8978056907653809,3.8826467990875244,0.3149985671043396,0.4061250686645508,0.36154547333717346,2.178633689880371
143,49544,49539,0.22019611299037933,-0.14220325648784637,0.8416922688484192,-2.88376522064209,-6.0366082191467285,-2.010347843170166,1.8973652124404907,3.8829691410064697,0.3151558041572571,0.6391586065292358,0.33271872997283936,2.1987991333007812
144,49554,49549,0.014640823937952518,0.04593806341290474,1.0259919166564941,-3.1315500736236572,-5.6663336753845215,-1.1741281747817993,1.8986843824386597,3.8840205669403076,0.3151771128177643,0.7308182716369629,0.2632148265838623,2.1873257160186768
145,49564,49559,0.009400634095072746,0.1552954763174057,1.0207692384719849,1.055740475654602,-9.844030380249023,0.25892603397369385,1.898585319519043,3.88470721244812,0.31214240193367004,0.9568055868148804,0.21967846155166626,2.195852041244507
146,49574,49569,-0.040770161896944046,0.14667151868343353,1.018721580505371,0.6394739747047424,-4.324477672576904,0.8401710391044617,1.9001169204711914,3.8841969966888428,0.31195443868637085,0.9948139190673828,0.27000606060028076,2.1830339431762695
147,49584,49579,-0.05973855033516884,0.06714768707752228,1.0386404991149902,2.2600460052490234,-1.6590021848678589,0.7900887727737427,1.9016523361206055,3.8847336769104004,0.3117554187774658,1.0500150918960571,0.32204651832580566,2.1854336261749268
148,49594,49589,0.02153637632727623,0.17802803218364716,0.9573381543159485,5.816679000854492,4.009448528289795,0.9684048295021057,1.9015040397644043,3.8837063312530518,0.31160613894462585,1.0707021951675415,0.41482076048851013,2.193549394607544
149,49604,49599,-0.056672073900699615,0.3249844014644623,1.0412676334381104,6.289750099182129,6.475432872772217,1.5321877002716064,1.9035239219665527,3.88336181640625,0.31251245737075806,0.8582190275192261,0.4682556092739105,2.187176465988159
150,49614,49609,-0.03289055451750755,0.001931360107846558,0.9958443641662598,2.230632781982422,7.439161777496338,1.73751962184906,1.903720736503601,3.8840980529785156,0.3124847114086151,0.8574445843696594,0.48201751708984375,2.215446949005127
151,49624,49619,0.03481323644518852,-0.020251590758562088,0.9252138137817383,-1.1818420886993408,6.938464641571045,1.8863310813903809,1.904117465019226,3.883094549179077,0.3123890459537506,0.7851696014404297,0.43894702196121216,2.235307455062866
152,49634,49629,0.12864387035369873,0.0244281068444252,1.0322248935699463,-1.2602683305740356,6.432117462158203,1.8993748426437378,1.9042489528656006,3.8845207691192627,0.3108331561088562,0.8432221412658691,0.4420965909957886,2.254000663757324
153,49644,49639,0.15444572269916534,-0.06100241467356682,0.9758657217025757,-3.496588945388794,1.167863368988037,2.2596607208251953,1.9037004709243774,3.8842086791992188,0.31061485409736633,0.8626599907875061,0.40432021021842957,2.2811264991760254
154,49654,49649,0.08968527615070343,0.425104022026062,0.997678279876709,-3.0666215419769287,-4.769176959991455,2.1578872203826904,1.9047151803970337,3.884629487991333,0.31039872765541077,0.7334553003311157,0.3637326657772064,2.3006811141967773
155,49664,49659,0.10250327736139297,0.13159479200839996,0.9058173298835754,-0.5281475782394409,-1.6409502029418945,2.5374855995178223,1.9069501161575317,3.885596990585327,0.3073124289512634,0.8710910677909851,0.3584780693054199,2.3299427032470703
156,49674,49669,0.009738508611917496,0.044299062341451645,1.0229713916778564,1.672508716583252,-2.597634792327881,3.231112241744995,1.9072867631912231,3.8856396675109863,0.3069547414779663,0.8828460574150085,0.4018697440624237,2.349853515625
157,49684,49679,0.05392105132341385,-0.009620312601327896,0.9841544032096863,1.9397879838943481,-0.2062464952468872,2.5815601348876953,1.9090098142623901,3.8855700492858887,0.3064141273498535,0.7960788011550903,0.44345903396606445,2.3688852787017822
158,49694,49689,0.1405867338180542,-0.05148225650191307,0.9210546612739563,-2.611639976501465,-0.6842902302742004,3.7220423221588135,1.9097588062286377,3.886273145675659,0.30593639612197876,0.75954669713974,0.2976049780845642,2.4499573707580566
159,49704,49699,-0.018614627420902252,-0.031098008155822754,0.9943228960037231,-6.625946044921875,-1.1587929725646973,2.4662084579467773,1.911685824394226,3.8885254859924316,0.3050491511821747,0.7280421257019043,0.24441438913345337,2.4619290828704834
160,49714,49709,-0.0210886150598526,0.2294548600912094,1.0066750049591064,-5.309922695159912,2.141094446182251,2.3446333408355713,1.912691354751587,3.8887739181518555,0.3044518232345581,0.8861674070358276,0.23551227152347565,2.4984796047210693
161,49724,49719,-0.0016855758149176836,0.5889383554458618,1.0613545179367065,-5.614781379699707,-2.442657470703125,2.6666924953460693,1.912675380706787,3.888707160949707,0.3041420876979828,0.7978091239929199,0.15457715094089508,2.535047769546509
162,49734,49729,0.09658006578683853,0.11116604506969452,0.9657499194145203,-1.6958768367767334,1.677247166633606,1.7665901184082031,1.9148271083831787,3.889824628829956,0.30351921916007996,0.8684449791908264,0.11896317452192307,2.5627200603485107
163,49744,49739,0.01760805957019329,-0.04110599681735039,1.0200483798980713,2.9392969608306885,3.578188896179199,3.052151918411255,1.915262222290039,3.8892290592193604,0.3030814230442047,0.9377404451370239,0.15698014199733734,2.576488971710205
164,49754,49749,0.014488434419035912,-0.01120555866509676,1.027733564376831,9.716608047485352,11.639266014099121,2.644273519515991,1.9156171083450317,3.8894309997558594,0.3026975989341736,0.9269876480102539,0.2982032001018524,2.585057497024536
165,49764,49759,0.003234019037336111,-0.013009496964514256,1.0448172092437744,11.002107620239258,13.75667953491211,2.737238645553589,1.9158982038497925,3.8877148628234863,0.3011011779308319,0.7163310647010803,0.4904741048812866,2.602536916732788
166,49774,49769,0.07100991904735565,0.03931895270943642,1.032144546508789,10.046585083007812,12.696431159973145,2.642911911010742,1.9166892766952515,3.8879072666168213,0.30061212182044983,0.5144084692001343,0.37952345609664917,2.6944785118103027
167,49784,49779,-0.14577746391296387,0.05826568603515625,1.1260625123977661,5.463365077972412,13.051172256469727,2.039982318878174,1.9178930521011353,3.8910162448883057,0.30013328790664673,0.4852258861064911,0.5084123015403748,2.7067928314208984
168,49794,49789,-0.031077846884727478,0.06822912395000458,1.0759141445159912,1.635362982749939,8.50691032409668,3.197927713394165,1.9181636571884155,3.891526222229004,0.30084675550460815,0.3214641213417053,0.41694876551628113,2.7542057037353516
169,49804,49799,0.03865121677517891,-0.09708280116319656,0.9753973484039307,-3.8534908294677734,8.959843635559082,1.6285735368728638,1.9185999631881714,3.8919503688812256,0.3006369471549988,0.28133663535118103,0.41632309556007385,2.7603564262390137
170,49814,49809,-0.04457920417189598,0.06743325293064117,1.0921552181243896,-5.5560150146484375,4.13726806640625,2.2834718227386475,1.9182460308074951,3.891768455505371,0.3004443049430847,0.27801769971847534,0.3646296262741089,2.7960591316223145
171,49824,49819,-0.036052510142326355,0.1357046663761139,1.158152461051941,-2.4800891876220703,0.9123367071151733,1.4604240655899048,1.919788122177124,3.892547845840454,0.30019670724868774,0.19079217314720154,0.3229292333126068,2.825103998184204
172,49834,49829,-0.03076600655913353,-0.12010412663221359,1.042409062385559,-0.08901491016149521,-0.9756391048431396,1.2467905282974243,1.9202754497528076,3.8937742710113525,0.29764458537101746,0.26256462931632996,0.3335130214691162,2.8546571731567383
173,49844,49839,0.08768092840909958,-0.21804121136665344,0.958382248878479,4.334558963775635,1.640323281288147,0.736532986164093,1.9186642169952393,3.89350962638855,0.2977145314216614,0.3672398328781128,0.3980100452899933,2.8725643157958984
174,49854,49849,0.05686509609222412,0.026938818395137787,1.1049247980117798,9.704299926757812,-0.6387348771095276,-0.027999311685562134,1.9207072257995605,3.8943464756011963,0.2975742220878601,0.19955478608608246,0.5292876958847046,2.8365297317504883
175,49864,49859,-0.05860576778650284,-0.11987738311290741,0.9859471917152405,12.746957778930664,5.9115142822265625,-0.015377761796116829,1.9214695692062378,3.892788887023926,0.29931312799453735,0.08560284227132797,0.7333909273147583,2.8310344219207764
176,49874,49869,0.09786082804203033,-0.0909942016005516,0.8714774250984192,7.38804292678833,8.059242248535156,-0.3360953629016876,1.9217638969421387,3.892577648162842,0.29937905073165894,0.11616738140583038,0.8235302567481995,2.8383917808532715
177,49884,49879,-0.005984235554933548,0.08762729912996292,1.0530211925506592,2.26401948928833,6.971064567565918,-1.1695829629898071,1.9208003282546997,3.8930914402008057,0.29959094524383545,0.08502137660980225,0.8147437572479248,2.8397016525268555
178,49894,49889,-0.03779427334666252,0.10061639547348022,1.127045750617981,-0.6004953980445862,2.7400054931640625,-2.0906388759613037,1.9212862253189087,3.893340826034546,0.3007698059082031,0.05883375182747841,0.8263385891914368,2.835543394088745
179,49904,49899,-0.032632168382406235,-0.10690411925315857,0.9592324495315552,-7.780638217926025,6.805439472198486,-2.815747022628784,1.9214181900024414,3.894543409347534,0.3009847402572632,0.02412508614361286,0.7485379576683044,2.827979564666748
180,49914,49909,-0.007389194797724485,-0.017193596810102463,1.011492371559143,-5.459003448486328,4.5105485916137695,-2.8973746299743652,1.9217019081115723,3.895026922225952,0.30121228098869324,-0.030122030526399612,0.6277843117713928,2.823561668395996
181,49924,49919,-0.008702852763235569,0.10078861564397812,1.0548548698425293,-3.4862442016601562,3.8627097606658936,-2.4667530059814453,1.9233365058898926,3.895742654800415,0.30141913890838623,-0.14158181846141815,0.6770015358924866,2.8092336654663086
182,49934,49929,0.07827235758304596,-0.26273012161254883,0.8881306052207947,-3.5587334632873535,4.504400253295898,-3.1690351963043213,1.923383116722107,3.89599609375,0.3005283772945404,-0.1388016939163208,0.6055388450622559,2.794539213180542
183,49944,49939,-0.0015162092167884111,0.0036647238302975893,0.9821380972862244,2.2325615882873535,-0.1692558228969574,-2.0993385314941406,1.923896312713623,3.894674777984619,0.3006686568260193,-0.21062587201595306,0.6398805975914001,2.7474000453948975
184,49954,49949,-0.007113459520041943,0.01205277256667614,1.0203418731689453,2.4065282344818115,4.691397190093994,-3.380058765411377,1.923592448234558,3.895240306854248,0.300824910402298,-0.1737527847290039,0.7272067666053772,2.740840435028076
185,49964,49959,0.037136200815439224,-0.07230082154273987,1.043951153755188,4.284182071685791,-3.5068435668945312,-2.4134318828582764,1.9236422777175903,3.895430088043213,0.2975709140300751,-0.15982913970947266,0.7531853318214417,2.726828098297119
186,49974,49969,0.1213596761226654,-0.12676145136356354,0.9407628178596497,0.6756260991096497,4.3760881423950195,-3.019317865371704,1.9259113073349,3.895434617996216,0.2973877787590027,-0.32691049575805664,0.7878806591033936,2.7103965282440186
187,49984,49979,0.004725204780697823,0.39321109652519226,1.0236644744873047,-1.1738696098327637,2.01131534576416,-1.1924446821212769,1.9265481233596802,3.8971729278564453,0.29729244112968445,-0.37436071038246155,0.6966362595558167,2.6855897903442383
188,49994,49989,0.0821310505270958,0.7203568816184998,0.882274329662323,-7.6419267654418945,1.6363643407821655,-1.8095037937164307,1.9267284870147705,3.896885871887207,0.30100739002227783,-0.34068262577056885,0.7042688727378845,2.6899399757385254
189,50004,49999,0.0027770844753831625,0.42184266448020935,0.9606797695159912,-7.557219982147217,-4.153918266296387,-2.25612211227417,1.926186203956604,3.8979415893554688,0.3011268079280853,-0.290566623210907,0.5737160444259644,2.687655448913574
190,50014,50009,-0.06380530446767807,0.12094847112894058,0.944871723651886,-7.569713115692139,0.06448084861040115,-2.530449628829956,1.9260519742965698,3.8975789546966553,0.30116310715675354,-0.23221608996391296,0.5669745206832886,2.6861908435821533
191,50024,50019,-0.007412727456539869,0.35242709517478943,0.9950029253959656,-4.803933620452881,-4.217099189758301,-0.4937676191329956,1.9274358749389648,3.8974742889404297,0.3017203211784363,-0.32917261123657227,0.49544742703437805,2.6365723609924316
192,50034,50029,0.006602187640964985,0.1417524367570877,0.9842808842658997,-4.5146002769470215,4.08279275894165,-1.6733872890472412,1.9284193515777588,3.8966293334960938,0.3017112910747528,-0.2480362206697464,0.3825647830963135,2.6440746784210205
193,50044,50039,0.06925465911626816,-0.1379009187221527,0.8985587358474731,-3.101381301879883,3.497945785522461,-1.258340835571289,1.9283876419067383,3.8962302207946777,0.3016740083694458,-0.36083662509918213,0.30151426792144775,2.597579002380371
194,50054,50049,0.029930492863059044,-0.11390490084886551,1.0021190643310547,-1.6634795665740967,4.077359199523926,-1.3940051794052124,1.9288851022720337,3.8970561027526855,0.30157163739204407,-0.4764745533466339,0.2526584267616272,2.5941264629364014
195,50064,50059,-0.06420475989580154,0.12172884494066238,1.1053013801574707,0.6580508947372437,-3.701718330383301,-1.2508777379989624,1.9290648698806763,3.896040439605713,0.3055399954319,-0.37443414330482483,0.3502042889595032,2.587129831314087
196,50074,50069,-0.030018385499715805,-0.07095970958471298,0.9630021452903748,0.7937244772911072,-1.7870278358459473,-1.375504732131958,1.9298207759857178,3.8954720497131348,0.305708110332489,-0.29681524634361267,0.3247574269771576,2.5595993995666504
197,50084,50079,0.023248301818966866,-0.25857052206993103,0.8889192938804626,-0.8491190671920776,-0.828583836555481,-1.1248714923858643,1.9293360710144043,3.895045757293701,0.30600467324256897,-0.21016182005405426,0.3116348087787628,2.5637998580932617
198,50094,50089,0.03909807279706001,-0.17939986288547516,0.9107893109321594,-0.5374612212181091,-2.039088010787964,-0.1717263162136078,1.9335108995437622,3.8946337699890137,0.30842769145965576,-0.5510676503181458,0.371126264333725,2.543519973754883
199,50104,50099,-0.04879153147339821,-0.1742459237575531,0.9152762293815613,-1.6260027885437012,-4.282625675201416,1.3055408000946045,1.9342384338378906,3.8953113555908203,0.30857935547828674,-0.43664735555648804,0.3298308253288269,2.555117607116699
200,50114,50109,-0.02012966200709343,-0.17998546361923218,0.8852287530899048,-5.427787780761719,-2.1610589027404785,0.46584048867225647,1.9343384504318237,3.8958916664123535,0.3088134527206421,-0.3570552468299866,0.32525551319122314,2.5923941135406494
201,50124,50119,-0.01518595777451992,-0.16134805977344513,0.9133402705192566,-8.949058532714844,3.2092318534851074,0.20503996312618256,1.934851884841919,3.8959615230560303,0.3099846839904785,-0.297339528799057,0.2741154432296753,2.5938796997070312
202,50134,50129,-0.1272849440574646,0.7318114042282104,1.0654343366622925,-10.686671257019043,3.9089457988739014,-0.46428295969963074,1.9345134496688843,3.896411657333374,0.31011876463890076,-0.25109007954597473,0.17869357764720917,2.6250205039978027
203,50144,50139,0.03128833696246147,0.6833438873291016,0.9360309839248657,-9.405094146728516,1.7418651580810547,0.5763893127441406,1.9355833530426025,3.896385669708252,0.31016817688941956,-0.22375747561454773,0.1374201625585556,2.6011927127838135
204,50154,50149,-0.055921733379364014,0.3180501461029053,0.9783269166946411,-4.430878639221191,2.0545401573181152,0.7315369844436646,1.9357926845550537,3.89459490776062,0.3102473318576813,-0.333780437707901,-0.029538538306951523,2.599417209625244
205,50164,50159,-0.016704799607396126,0.17217357456684113,1.0553523302078247,-1.5032200813293457,-1.6142253875732422,1.0760152339935303,1.937330722808838,3.8958332538604736,0.30906131863594055,-0.436228483915329,0.02405591309070587,2.6297316551208496
206,50174,50169,-0.1424589455127716,0.19003477692604065,1.120818018913269,0.8101268410682678,0.5597508549690247,2.2213377952575684,1.9390226602554321,3.8949928283691406,0.3089931309223175,-0.318368136882782,-0.0209454707801342,2.6521053314208984
207,50184,50179,-0.041102584451436996,-0.04412183538079262,0.9896073937416077,0.7733228802680969,-0.35567912459373474,2.8200275897979736,1.938136100769043,3.895519495010376,0.3092218339443207,-0.2345409393310547,-0.039854153990745544,2.696974039077759
208,50194,50189,-0.08294705301523209,-0.01607215590775013,1.0109957456588745,0.75645911693573,2.4746925830841064,1.5767713785171509,1.9390591382980347,3.8956735134124756,0.3126927316188812,-0.1591017097234726,-0.04688720405101776,2.7227089405059814
209,50204,50199,-0.20316088199615479,0.17684122920036316,1.1302751302719116,-2.7446603775024414,8.56876277923584,1.5419585704803467,1.9387487173080444,3.895259380340576,0.312996506690979,-0.13207867741584778,-0.07097071409225464,2.7324793338775635
210,50214,50209,-0.09183438867330551,0.1534145027399063,0.9628313779830933,-4.048177242279053,4.208562850952148,2.075967311859131,1.9387719631195068,3.8950986862182617,0.31336510181427,-0.18514248728752136,0.009494313038885593,2.752889394760132
211,50224,50219,-0.08089415729045868,0.10569345951080322,1.0614054203033447,-7.968419075012207,2.2916486263275146,2.1369783878326416,1.939043641090393,3.894641160964966,0.3145518898963928,-0.2296142727136612,-0.12057510018348694,2.77042818069458
212,50234,50229,-0.060386817902326584,0.3680141270160675,1.116352915763855,-9.47472095489502,5.193363666534424,1.801371455192566,1.940394639968872,3.8943288326263428,0.31504446268081665,-0.3222155272960663,-0.15214189887046814,2.7786483764648438
213,50244,50239,-3.514477430144325e-05,0.32967889308929443,0.9735011458396912,-9.202116966247559,0.2558707892894745,2.0598526000976562,1.9415333271026611,3.893310308456421,0.31553947925567627,-0.33295392990112305,-0.3524783253669739,2.7704038619995117
214,50254,50249,0.01642591878771782,0.1545790284872055,0.9856122136116028,-8.483154296875,1.2366926670074463,2.6355748176574707,1.9428154230117798,3.8932948112487793,0.31608879566192627,-0.42711469531059265,-0.44014158844947815,2.785681962966919
215,50264,50259,0.031865935772657394,0.08504242449998856,1.1298344135284424,1.538222312927246,-1.906754732131958,2.9481894969940186,1.944826602935791,3.891981840133667,0.31613871455192566,-0.6034674644470215,-0.4773327708244324,2.7969937324523926
216,50274,50269,0.23427189886569977,0.09348601847887039,0.948779821395874,4.541861057281494,-2.4686715602874756,2.4602365493774414,1.944729208946228,3.890286922454834,0.3168453872203827,-0.49613893032073975,-0.31691867113113403,2.8293635845184326
217,50284,50279,0.09193747490644455,0.5192696452140808,0.9207286834716797,5.601285934448242,-1.9084937572479248,2.4643747806549072,1.944983720779419,3.889601469039917,0.31743454933166504,-0.5586113929748535,-0.3431233763694763,2.8505985736846924
218,50294,50289,0.09345635026693344,0.6390504240989685,0.9455626010894775,6.1367669105529785,-7.354275226593018,3.303422212600708,1.9465739727020264,3.8899941444396973,0.32194650173187256,-0.5002899169921875,-0.2741296887397766,2.870299816131592
219,50304,50299,-0.015777578577399254,0.33825063705444336,0.9404568076133728,0.5282986164093018,-1.62411367893219,2.48728084564209,1.945786714553833,3.8892745971679688,0.3227381110191345,-0.34718576073646545,-0.22979669272899628,2.887946605682373
220,50314,50309,-0.19205433130264282,0.8396617770195007,1.0877264738082886,-3.0914158821105957,0.3764806091785431,1.532993197441101,1.946908950805664,3.8894402980804443,0.323422908782959,-0.33780479431152344,-0.25633201003074646,2.9383277893066406
221,50324,50319,-0.05733736231923103,0.4639117419719696,0.9200935363769531,-6.581391334533691,7.928319931030273,0.8980879187583923,1.9470547437667847,3.8900108337402344,0.32636600732803345,-0.29183948040008545,-0.40341636538505554,2.9483587741851807
222,50334,50329,0.055033229291439056,0.193181112408638,0.8623299598693848,-10.551810264587402,8.663505554199219,0.1593252569437027,1.947263240814209,3.8922648429870605,0.32721462845802307,-0.35004517436027527,-0.5293367505073547,2.977447509765625
223,50344,50339,0.0464206300675869,0.2674237787723541,0.796351969242096,-10.969886779785156,16.22855567932129,-0.9788155555725098,1.948063611984253,3.8915371894836426,0.32792145013809204,-0.45122280716896057,-0.5449511408805847,3.009540319442749
224,50354,50349,-0.0008886906434781849,0.48365357518196106,0.9414480924606323,-8.552943229675293,16.72701644897461,-1.0571304559707642,1.9485031366348267,3.8921186923980713,0.32689520716667175,-0.6265773773193359,-0.6595587730407715,3.0091516971588135
225,50364,50359,0.004913772456347942,1.0727776288986206,0.927890419960022,-8.268189430236816,21.625362396240234,-2.127288341522217,1.9491534233093262,3.8929696083068848,0.32724931836128235,-0.8679627776145935,-0.7364324331283569,3.044111728668213
226,50374,50369,-0.06439487636089325,0.6090824007987976,0.9181983470916748,-2.8355391025543213,13.301117897033691,-2.9304463863372803,1.9498752355575562,3.892787218093872,0.32749855518341064,-1.0612250566482544,-0.770004391670227,3.052579164505005
227,50384,50379,-0.24761556088924408,0.6630674004554749,1.0444120168685913,4.5751566886901855,-1.984991192817688,-2.676391839981079,1.9507274627685547,3.8935458660125732,0.32791659235954285,-1.0907187461853027,-0.739159882068634,3.037550687789917
228,50394,50389,-0.05719112232327461,0.2738942503929138,0.9101499915122986,9.189861297607422,-2.1506853103637695,-3.5857725143432617,1.9510018825531006,3.8930468559265137,0.32643261551856995,-1.0299981832504272,-0.6743712425231934,2.972999095916748
229,50404,50399,-0.0803532749414444,1.000519037246704,0.9744654297828674,12.405550003051758,-7.907227993011475,-3.670680522918701,1.951587438583374,3.891904592514038,0.32652121782302856,-0.9735679626464844,-0.6828721761703491,2.925182580947876
230,50414,50409,0.05041435733437538,0.8994527459144592,0.939647912979126,11.230918884277344,-10.402169227600098,-3.550748109817505,1.952303171157837,3.8926522731781006,0.32659345865249634,-0.9377579092979431,-0.5692619681358337,2.9000813961029053
231,50424,50419,0.059916865080595016,0.3168158233165741,0.9463188052177429,11.003808975219727,-13.766674041748047,-3.011439085006714,1.9516246318817139,3.8922858238220215,0.3274596333503723,-0.7596239447593689,-0.38705646991729736,2.8632090091705322
232,50434,50429,-0.010235941037535667,0.15912245213985443,0.8787878155708313,4.66468620300293,-5.90778923034668,-4.067841529846191,1.9526431560516357,3.8923768997192383,0.32740655541419983,-0.7001197338104248,-0.3146643340587616,2.8346292972564697
233,50444,50439,-0.002030313480645418,0.07992018014192581,0.9905689358711243,-3.502906322479248,-1.1359089612960815,-5.110995769500732,1.9529907703399658,3.892282009124756,0.3273136615753174,-0.5982685089111328,-0.25833168625831604,2.7679967880249023
234,50454,50449,-0.3340573310852051,0.5646429657936096,1.0840930938720703,-7.343992710113525,1.921994686126709,-3.5023908615112305,1.952942132949829,3.892390251159668,0.32641729712486267,-0.5512561202049255,-0.32634660601615906,2.759162664413452
235,50464,50459,-0.22190579771995544,0.4362099766731262,1.1188856363296509,-6.81062650680542,1.3840320110321045,-2.519904851913452,1.9543383121490479,3.893711805343628,0.3263828754425049,-0.6520253419876099,-0.45294609665870667,2.8036458492279053
236,50474,50469,-0.21271061897277832,0.49229663610458374,1.0643404722213745,-6.071591854095459,3.216275691986084,-2.720069408416748,1.9567222595214844,3.8969171047210693,0.3262479901313782,-0.7327381372451782,-0.5539511442184448,2.8040223121643066
237,50484,50479,-0.10767918825149536,0.3206264078617096,0.9762621521949768,-2.33212947845459,3.884354829788208,-3.4414448738098145,1.958180546760559,3.897144317626953,0.3262900412082672,-0.7401719093322754,-0.6156958341598511,2.807098627090454
238,50494,50489,-0.1704559326171875,1.0372300148010254,0.9941112995147705,4.538092136383057,-1.0020811557769775,-2.212935209274292,1.9586560726165771,3.897162914276123,0.32479727268218994,-0.7724102139472961,-0.5284701585769653,2.798755407333374
239,50504,50499,0.01470430102199316,0.6228340268135071,0.9511133432388306,5.232714653015137,2.3772525787353516,-2.1644680500030518,1.9594308137893677,3.8987231254577637,0.3247094750404358,-0.7426559329032898,-0.5216001272201538,2.8095924854278564
240,50514,50509,0.02136566862463951,-0.03191210329532623,0.9424349665641785,6.664360046386719,1.373969316482544,-1.6545957326889038,1.9586507081985474,3.8993988037109375,0.32478129863739014,-0.6740116477012634,-0.49786674976348877,2.8016185760498047
241,50524,50519,-0.02629454806447029,0.2939513027667999,1.0076929330825806,7.382876873016357,-2.657892942428589,-0.9082866907119751,1.9593536853790283,3.900038242340088,0.3222786784172058,-0.755541205406189,-0.5242927074432373,2.7815749645233154
