,timestamp_start,timestamp_end,acc.x,acc.y,acc.z,gyro.x,gyro.y,gyro.z,stateEstimate.x,stateEstimate.y,stateEstimate.z,stabilizer.pitch,stabilizer.roll,stabilizer.yaw
0,18736,18730,0.012265929952263832,0.033117931336164474,0.7139902710914612,-8.772833824157715,-11.846217155456543,-18.161998748779297,1.7978107929229736,3.8427436351776123,0.3133692145347595,1.1254119873046875,-1.6039642095565796,5.520246982574463
1,18746,18740,0.03000480681657791,-0.01333693414926529,0.6813936233520508,-9.488821983337402,-13.590774536132812,-16.838062286376953,1.8003404140472412,3.8416481018066406,0.31740808486938477,1.2470030784606934,-1.6071349382400513,5.341014385223389
2,18756,18750,0.06101937219500542,0.01017073169350624,0.6626613736152649,-10.742009162902832,-13.732636451721191,-16.495689392089844,1.8002655506134033,3.8417255878448486,0.32527774572372437,1.5386277437210083,-1.7720999717712402,5.130340099334717
3,18766,18760,0.014380509033799171,-0.0019778546411544085,0.6539256572723389,-14.579607963562012,-9.023554801940918,-16.76856803894043,1.7993360757827759,3.8429501056671143,0.32923707365989685,1.6903666257858276,-2.0958456993103027,5.023553371429443
4,18776,18770,0.006344811525195837,-0.10186383128166199,0.6261267066001892,-12.986881256103516,-13.79377269744873,-15.472756385803223,1.8029077053070068,3.8425040245056152,0.33261749148368835,1.6552097797393799,-2.221728563308716,4.919898986816406
5,18786,18780,-0.03804389759898186,0.02900485135614872,0.6808617115020752,-10.507547378540039,-10.254887580871582,-15.646976470947266,1.8040404319763184,3.841965436935425,0.3356432318687439,1.839593768119812,-2.268202781677246,4.711995601654053
6,18796,18790,-0.016913024708628654,0.10597946494817734,0.6798577308654785,-7.605461120605469,-7.1104631423950195,-15.154374122619629,1.8040043115615845,3.8389852046966553,0.34217628836631775,2.063816785812378,-2.2416443824768066,4.483460426330566
7,18806,18800,-0.06963047385215759,-0.018214760348200798,0.6288230419158936,-5.937545299530029,-5.674574375152588,-15.011552810668945,1.8046165704727173,3.83904767036438,0.34495896100997925,2.148313045501709,-2.4788992404937744,4.386171340942383
8,18816,18810,-0.05368943139910698,-0.0007364798220805824,0.7145982384681702,-2.5166051387786865,-5.054479598999023,-14.560792922973633,1.8051179647445679,3.839937925338745,0.34741494059562683,2.1964540481567383,-2.644286870956421,4.2737650871276855
9,18826,18820,-0.03078741952776909,0.02158166654407978,0.7783365249633789,-2.506700277328491,1.69780433177948,-14.383133888244629,1.8072024583816528,3.83872652053833,0.35457685589790344,2.0678114891052246,-2.7151284217834473,4.192047595977783
10,18836,18830,-0.03813574090600014,0.03477228805422783,0.7726792097091675,1.83390474319458,-0.3201744258403778,-14.05669116973877,1.8063304424285889,3.8389925956726074,0.3567348122596741,2.186866044998169,-2.801788806915283,4.0336594581604
11,18846,18840,-0.01160936988890171,-0.0025438698939979076,0.7068052887916565,1.7513799667358398,2.700611114501953,-14.893280982971191,1.8088921308517456,3.837155342102051,0.3585405945777893,1.975563645362854,-2.6775922775268555,3.92661714553833
12,18856,18850,0.046865250915288925,-0.13681215047836304,0.6172065734863281,7.299488544464111,-2.3797879219055176,-14.774126052856445,1.8113802671432495,3.839167356491089,0.3671029210090637,1.797255516052246,-2.727393865585327,3.907797336578369
13,18866,18860,0.03737861290574074,-0.20251573622226715,0.6876445412635803,3.7945168018341064,-2.792457342147827,-14.988568305969238,1.8112844228744507,3.838155746459961,0.36895397305488586,1.9807615280151367,-2.689720392227173,3.6943984031677246
14,18876,18870,-0.027087174355983734,-0.0016407083021476865,0.6457971334457397,5.176468849182129,-8.078617095947266,-13.949158668518066,1.8104196786880493,3.8388454914093018,0.37037837505340576,2.143470287322998,-2.60237193107605,3.47735857963562
15,18886,18880,-0.023925330489873886,0.06491430103778839,0.6793214082717896,6.931493282318115,-12.971869468688965,-12.27769947052002,1.8110238313674927,3.839202404022217,0.3737412691116333,2.1523170471191406,-2.6235251426696777,3.435795307159424
16,18896,18890,0.019238455221056938,0.02756362035870552,0.7902137041091919,7.119560718536377,-12.405709266662598,-11.953032493591309,1.8120450973510742,3.838090181350708,0.3746274709701538,2.3288891315460205,-2.539616823196411,3.295238733291626
17,18906,18900,-0.02304178662598133,0.015400217846035957,0.7633506655693054,8.913446426391602,-13.27941608428955,-11.723731994628906,1.811588168144226,3.839106321334839,0.3753397762775421,2.5979950428009033,-2.5670933723449707,3.169152021408081
18,18916,18910,-0.021225430071353912,-0.001120347180403769,0.7278251051902771,4.679324626922607,-2.4563560485839844,-11.898396492004395,1.8125386238098145,3.839040756225586,0.37577036023139954,2.538562536239624,-2.564478874206543,3.1195530891418457
19,18926,18920,0.03787275031208992,-0.004355026874691248,0.7702674865722656,8.190377235412598,-4.079836368560791,-11.934965133666992,1.8140994310379028,3.839390277862549,0.3795633912086487,2.6552486419677734,-2.4597060680389404,2.965623140335083
20,18936,18930,0.03408356383442879,0.0295732319355011,0.7644773721694946,9.232635498046875,0.11101194471120834,-11.492684364318848,1.8162100315093994,3.839768409729004,0.37966689467430115,2.4765586853027344,-2.3949170112609863,2.95190167427063
21,18946,18940,-0.07927262783050537,-0.04045318439602852,0.6710416674613953,9.65503978729248,0.45943981409072876,-12.087656021118164,1.8179244995117188,3.841116189956665,0.37958815693855286,2.529181957244873,-2.3119821548461914,2.8259127140045166
22,18956,18950,-0.06887786835432053,0.12842418253421783,0.7230534553527832,10.452680587768555,1.6417797803878784,-11.31100082397461,1.8171693086624146,3.8416991233825684,0.3809840679168701,2.6374711990356445,-2.20554256439209,2.6699724197387695
23,18966,18960,-0.02105635590851307,0.2077796459197998,0.7958050966262817,7.199307441711426,6.914827823638916,-11.376435279846191,1.8175352811813354,3.8421125411987305,0.38046252727508545,2.6192564964294434,-2.2130918502807617,2.5671207904815674
24,18976,18970,-0.10782405734062195,0.08017175644636154,0.8546282649040222,8.040654182434082,7.125443935394287,-10.31561279296875,1.8172001838684082,3.8439688682556152,0.37967079877853394,2.603660821914673,-2.136894464492798,2.444502592086792
25,18986,18980,-0.04878588020801544,0.08249472826719284,0.824820339679718,9.848783493041992,4.44053840637207,-10.450906753540039,1.8160157203674316,3.8426101207733154,0.3792581260204315,2.615044593811035,-2.013267755508423,2.310889720916748
26,18996,18990,0.0312662236392498,0.37146124243736267,0.8688734173774719,6.758889198303223,7.263495445251465,-10.666581153869629,1.8172987699508667,3.8440771102905273,0.37820228934288025,2.548299789428711,-2.0122268199920654,2.233271360397339
27,19006,19000,-0.026581810787320137,0.3276326358318329,0.8366744518280029,5.5690484046936035,12.3596773147583,-10.796614646911621,1.8186722993850708,3.8456127643585205,0.37696340680122375,2.5644760131835938,-1.953599214553833,2.0666723251342773
28,19016,19010,-0.0728064477443695,0.13892251253128052,0.8282636404037476,7.217992305755615,12.538742065429688,-9.802029609680176,1.8205337524414062,3.846160411834717,0.37560349702835083,2.329530715942383,-1.8876421451568604,2.0246267318725586
29,19026,19020,0.0010414799908176064,0.07546649128198624,0.815837562084198,8.275871276855469,9.496498107910156,-10.079208374023438,1.823224663734436,3.8516690731048584,0.37081706523895264,2.1229312419891357,-1.8707878589630127,1.98921537399292
30,19036,19030,-0.16641777753829956,0.5044829845428467,0.9052516222000122,9.149041175842285,6.836991786956787,-9.108039855957031,1.8212356567382812,3.852459192276001,0.36886119842529297,2.111804246902466,-1.8389188051223755,1.8885153532028198
31,19046,19040,-0.3662343919277191,1.2102121114730835,0.9769579768180847,9.357337951660156,5.835926055908203,-9.532925605773926,1.823482871055603,3.8549551963806152,0.36674606800079346,1.9938149452209473,-1.8113609552383423,1.8233814239501953
32,19056,19050,-0.33533453941345215,1.4895257949829102,1.0413963794708252,11.416411399841309,1.8183114528656006,-9.346229553222656,1.8228869438171387,3.855985164642334,0.3635117709636688,1.9522643089294434,-1.6573315858840942,1.7045899629592896
33,19066,19060,-0.05379262566566467,0.5369265675544739,0.9827016592025757,14.71790885925293,-2.973140239715576,-7.4836344718933105,1.8260573148727417,3.859868049621582,0.36118265986442566,1.639643669128418,-1.8616870641708374,1.8534600734710693
34,19076,19070,0.03607090562582016,-0.054880235344171524,0.8990165591239929,15.419054985046387,2.4058783054351807,-9.570520401000977,1.8228163719177246,3.8569705486297607,0.3593064248561859,1.9293744564056396,-1.278296709060669,1.490698218345642
35,19086,19080,-0.037608131766319275,-0.09738574922084808,0.9949672818183899,16.769075393676758,2.010774612426758,-6.707670211791992,1.8270756006240845,3.8579628467559814,0.35546600818634033,1.5163559913635254,-1.11237633228302,1.5459296703338623
36,19096,19090,-0.010120867751538754,-0.0972733348608017,0.9588447213172913,15.21197509765625,0.6233323216438293,-7.15256929397583,1.8271843194961548,3.862699031829834,0.35317790508270264,1.56184983253479,-1.3176597356796265,1.5780820846557617
37,19106,19100,-6.088990176067455e-06,0.0006298534572124481,1.0093218088150024,12.617195129394531,-1.9880657196044922,-6.834821701049805,1.8264291286468506,3.8578619956970215,0.3508167266845703,1.652121663093567,-0.7418553829193115,1.3428882360458374
38,19116,19110,0.0033973539248108864,-0.05658193677663803,0.9438592791557312,12.209229469299316,0.9561684131622314,-5.263593673706055,1.8304139375686646,3.8578994274139404,0.34820494055747986,1.375942587852478,-0.6230588555335999,1.3733208179473877
39,19126,19120,-0.03198559582233429,0.1839951127767563,1.07182776927948,5.242964744567871,-2.4992330074310303,-6.178189754486084,1.816996455192566,3.8447470664978027,0.3421260118484497,2.5789852142333984,0.5582755208015442,0.5941207408905029
40,19136,19130,-0.05162069573998451,0.12632736563682556,1.0701329708099365,-0.6982350945472717,-1.6651554107666016,-1.2383472919464111,1.827681303024292,3.852356195449829,0.34247779846191406,1.4575787782669067,0.002569174626842141,1.0675402879714966
41,19146,19140,0.008795391768217087,-0.06940803676843643,0.976357638835907,-12.552278518676758,2.1164472103118896,-3.919188976287842,1.821768879890442,3.85256290435791,0.34061387181282043,2.0918965339660645,-0.10341925173997879,0.891510546207428
42,19156,19150,0.017452426254749298,-0.006950387731194496,0.9945772290229797,-19.668880462646484,6.6411213874816895,-3.175260066986084,1.8284410238265991,3.8582937717437744,0.33276259899139404,1.4449719190597534,-0.6904474496841431,1.1174061298370361
43,19166,19160,-0.07263991981744766,-0.007330728694796562,1.0928654670715332,-19.99770736694336,11.083154678344727,-4.4156999588012695,1.835055947303772,3.868898391723633,0.32977259159088135,0.7899635434150696,-1.8738681077957153,1.4630272388458252
44,19176,19170,0.050711970776319504,-0.15528751909732819,1.0187402963638306,-9.031906127929688,10.241022109985352,-6.638825416564941,1.8358207941055298,3.8717143535614014,0.3268135190010071,0.652530312538147,-2.084855556488037,1.4264293909072876
45,19186,19180,0.036637768149375916,-0.04719628393650055,1.0722936391830444,9.681117057800293,2.5652668476104736,-6.484828472137451,1.8308089971542358,3.8729631900787354,0.3240651786327362,1.0268133878707886,-2.040752410888672,1.2502567768096924
46,19196,19190,-0.014750436879694462,-0.034224867820739746,1.0375219583511353,32.83310317993164,-10.975809097290039,-4.084624290466309,1.8308378458023071,3.872166156768799,0.3218095600605011,1.1404132843017578,-1.6269452571868896,1.1334141492843628
47,19206,19200,-0.024703890085220337,0.08325404673814774,1.101615309715271,44.9607048034668,-16.5356502532959,-1.8709157705307007,1.829928994178772,3.8709728717803955,0.31953340768814087,1.4724745750427246,-1.0567939281463623,1.0420308113098145
48,19216,19210,-0.005766826681792736,0.22395721077919006,1.1917742490768433,42.842220306396484,-13.620903015136719,0.12324322015047073,1.8298605680465698,3.873609781265259,0.3066132068634033,1.8015176057815552,-0.7265282273292542,1.0207573175430298
49,19226,19220,-0.016995396465063095,-0.21606621146202087,1.1146513223648071,37.1397590637207,-1.711991786956787,-2.0867152214050293,1.8313963413238525,3.870893716812134,0.3038367033004761,1.8247284889221191,0.06955224275588989,0.9555202722549438
50,19236,19230,-0.014888914301991463,-0.1390412598848343,1.0354725122451782,20.591814041137695,7.5030927658081055,-1.9765121936798096,1.83120858669281,3.8776586055755615,0.3014490008354187,1.8009190559387207,-0.26441988348960876,1.062456488609314
51,19246,19240,0.0019571795128285885,0.08777404576539993,1.0818839073181152,3.6239728927612305,13.710254669189453,-2.6794960498809814,1.8306652307510376,3.8808658123016357,0.29879772663116455,1.6192355155944824,-0.11280696839094162,1.0381882190704346
52,19256,19250,0.0174374058842659,0.1837131828069687,1.1383047103881836,-4.9500322341918945,14.730551719665527,-2.459620714187622,1.8291128873825073,3.8811721801757812,0.2875613868236542,1.5639090538024902,-0.030497627332806587,0.9806759357452393
53,19266,19260,0.025171766057610512,0.23894648253917694,1.226080298423767,-3.4891905784606934,13.379962921142578,-2.002244472503662,1.8271973133087158,3.8808634281158447,0.2845107316970825,1.569080114364624,-0.035848744213581085,0.933384895324707
54,19276,19270,-0.013179468922317028,-0.02211460843682289,1.1455624103546143,3.2618868350982666,10.037665367126465,-2.606334924697876,1.8265177011489868,3.8815488815307617,0.2817142903804779,1.4283168315887451,0.014820177108049393,0.9022353887557983
55,19286,19280,0.008917290717363358,-0.14232297241687775,1.1267879009246826,13.812223434448242,10.687399864196777,-1.394106149673462,1.823498249053955,3.8809754848480225,0.2736854553222656,1.5865392684936523,0.12296245992183685,0.8482062220573425
56,19296,19290,-0.03270340338349342,0.017267778515815735,1.172074556350708,18.651700973510742,7.506319046020508,-1.1788861751556396,1.8215245008468628,3.8815433979034424,0.27088531851768494,1.5008379220962524,0.39849478006362915,0.8213638067245483
57,19306,19300,0.023387426510453224,-0.0036766480188816786,1.1841864585876465,21.416454315185547,10.015237808227539,-0.7169449925422668,1.8209497928619385,3.880288600921631,0.2680911719799042,1.4554206132888794,0.7712660431861877,0.7777848243713379
58,19316,19310,0.026254484429955482,-0.12931998074054718,1.2344539165496826,13.603151321411133,11.033470153808594,-0.23540125787258148,1.8179044723510742,3.880436658859253,0.2622009813785553,1.5210105180740356,0.9813308715820312,0.7592093348503113
59,19326,19320,0.046045973896980286,-0.13875536620616913,1.3677403926849365,2.9980344772338867,17.801645278930664,-1.7726194858551025,1.819328784942627,3.8818466663360596,0.25993412733078003,1.2759456634521484,0.9286114573478699,0.7832598686218262
60,19336,19330,0.07225904613733292,-0.09921061247587204,1.342394471168518,-4.078153610229492,20.84453582763672,-1.84959077835083,1.8182706832885742,3.8810949325561523,0.25778332352638245,1.0414071083068848,0.9798362851142883,0.7544134855270386
61,19346,19340,-0.02493949979543686,-0.06678526848554611,1.208915114402771,-8.117504119873047,22.364826202392578,-0.7482721209526062,1.8165546655654907,3.881377696990967,0.2558988034725189,0.8710029125213623,0.8853152990341187,0.7378779053688049
62,19356,19350,-0.00010483604273758829,0.0694393739104271,1.1282721757888794,-9.70676326751709,16.45381736755371,-0.6907020807266235,1.8121477365493774,3.878645181655884,0.2546858787536621,0.7885182499885559,0.985343873500824,0.7121288180351257
63,19366,19360,-0.014200055040419102,0.023051295429468155,1.2483229637145996,-5.711154937744141,14.428163528442383,-0.5455223321914673,1.8118726015090942,3.8799662590026855,0.253407746553421,0.5878936648368835,0.8170932531356812,0.7159885764122009
64,19376,19370,0.00602496275678277,-0.045681167393922806,1.177704930305481,-1.5842559337615967,14.34272289276123,-1.105191707611084,1.8112611770629883,3.881523847579956,0.25230443477630615,0.340200275182724,0.7606035470962524,0.7066946625709534
65,19386,19380,-0.0017270511016249657,0.030998563393950462,1.2268173694610596,-0.18463435769081116,13.827689170837402,0.3105735778808594,1.8098196983337402,3.880239963531494,0.2521874010562897,0.33838632702827454,0.8266289234161377,0.7129072546958923
66,19396,19390,-0.036621253937482834,0.08025823533535004,1.2398756742477417,-0.16246984899044037,13.215800285339355,0.3892059624195099,1.8090165853500366,3.880235195159912,0.25142112374305725,0.23328205943107605,0.8207004070281982,0.7149510383605957
67,19406,19400,0.006789674982428551,0.058091599494218826,1.2240647077560425,-0.09764441102743149,11.048380851745605,1.1880954504013062,1.8084362745285034,3.8802812099456787,0.2509836256504059,0.003297600196674466,0.8274489045143127,0.7168356776237488
68,19416,19410,-0.019206233322620392,0.12405722588300705,1.1287028789520264,-4.623884677886963,10.929976463317871,1.0293192863464355,1.8066151142120361,3.8791773319244385,0.2549571692943573,-0.049561936408281326,0.9314987063407898,0.7328237295150757
69,19426,19420,0.012693081051111221,-0.03535642847418785,1.118024230003357,-4.85635232925415,12.550153732299805,0.7356888651847839,1.806885004043579,3.8799781799316406,0.25517067313194275,-0.2567845582962036,0.8170971274375916,0.7325126528739929
70,19436,19430,-0.028388425707817078,0.14379547536373138,1.1148252487182617,-9.145427703857422,9.614974975585938,1.912194848060608,1.8048886060714722,3.877955913543701,0.25533196330070496,-0.2086700052022934,0.8042179942131042,0.7787964940071106
71,19446,19440,0.10224713385105133,0.006980772130191326,1.2277538776397705,-8.690279960632324,12.113829612731934,0.5972685217857361,1.804377555847168,3.8799781799316406,0.25554460287094116,-0.4340950846672058,0.6212766170501709,0.7695257663726807
72,19456,19450,-0.0006885059410706162,-0.11615157127380371,1.0896233320236206,-9.049920082092285,12.115476608276367,1.3167494535446167,1.8036854267120361,3.8795535564422607,0.25612717866897583,-0.5168083906173706,0.7650113105773926,0.7666703462600708
73,19466,19460,-0.040575265884399414,0.04251105710864067,1.1036518812179565,-7.049483299255371,13.414770126342773,1.2887550592422485,1.8029206991195679,3.880559206008911,0.25688672065734863,-0.6254566311836243,0.5741546750068665,0.7727165222167969
74,19476,19470,0.008406526409089565,-0.04531233757734299,1.0803321599960327,-6.82216739654541,9.635652542114258,1.8760108947753906,1.802282452583313,3.880009174346924,0.2576395273208618,-0.7595469355583191,0.6451631188392639,0.8001615405082703
75,19486,19480,0.022350231185555458,0.10213109105825424,1.0563044548034668,-6.337369441986084,2.731440782546997,1.7482858896255493,1.800910234451294,3.8801095485687256,0.2576107978820801,-0.8382834196090698,0.4279376268386841,0.8392742872238159
76,19496,19490,-0.033814240247011185,0.15994291007518768,1.0382918119430542,-8.247654914855957,0.7235131859779358,1.565647840499878,1.7994327545166016,3.881558656692505,0.25850430130958557,-0.8752886652946472,0.2632219195365906,0.8382319808006287
77,19506,19500,-0.06371737271547318,0.09755914658308029,1.109030842781067,-6.916581630706787,1.4959874153137207,2.1234116554260254,1.798300862312317,3.8820409774780273,0.2594577968120575,-0.8881868720054626,0.33400216698646545,0.8471625447273254
78,19516,19510,-0.032940253615379333,0.06176890805363655,1.1289063692092896,-5.9514923095703125,1.7275416851043701,2.4619758129119873,1.79798424243927,3.880859375,0.2599494159221649,-0.9896485805511475,0.4050160348415375,0.882059633731842
79,19526,19520,-0.005837766453623772,-0.03965090960264206,1.0059521198272705,-7.402899265289307,4.679965972900391,1.7568244934082031,1.7967087030410767,3.8817238807678223,0.26105156540870667,-1.0506399869918823,0.2604597806930542,0.9202337861061096
80,19536,19530,-0.012631095014512539,-0.07322268187999725,0.91966712474823,-7.568850040435791,1.7231121063232422,1.551384449005127,1.7963621616363525,3.882854700088501,0.2622585594654083,-1.0672909021377563,0.15585055947303772,0.8994591236114502
81,19546,19540,-0.032858263701200485,-0.02204098366200924,1.017897129058838,-7.475220680236816,0.7769439220428467,0.7389053702354431,1.7953176498413086,3.8825197219848633,0.2633432149887085,-1.0193722248077393,0.06586519628763199,0.9175580739974976
82,19556,19550,0.004052432719618082,-0.22444424033164978,0.9110094308853149,-6.711231231689453,3.3292396068573,1.107791543006897,1.7953290939331055,3.8810677528381348,0.2660577893257141,-1.1080291271209717,0.2033427208662033,0.9659911394119263
83,19566,19560,0.01646106131374836,-0.05961671844124794,0.8833068013191223,-5.771775245666504,2.985836982727051,0.9046787619590759,1.795091152191162,3.8804426193237305,0.2671266198158264,-1.2063871622085571,0.17425787448883057,0.9790694713592529
84,19576,19570,0.01561990287154913,0.04268763214349747,0.8466339111328125,-5.88485860824585,-1.8782439231872559,1.3173084259033203,1.795385718345642,3.879894733428955,0.2680657207965851,-1.2152032852172852,0.15654675662517548,1.0007864236831665
85,19586,19580,0.06035678833723068,-0.11468703299760818,0.8957151770591736,-7.012863636016846,-7.124672889709473,1.2924202680587769,1.7946679592132568,3.8803770542144775,0.27000269293785095,-1.2430415153503418,-0.018410108983516693,0.9838581681251526
86,19596,19590,-0.0642637312412262,-0.03357330337166786,0.9412111639976501,-7.346263885498047,-2.3684887886047363,0.825580358505249,1.7938861846923828,3.878931760787964,0.27077654004096985,-1.1518055200576782,-0.051237642765045166,1.0073355436325073
87,19606,19600,-0.031347647309303284,-0.07422932982444763,0.8570038080215454,-8.808196067810059,-4.511053562164307,1.279071569442749,1.7935490608215332,3.878204345703125,0.27145180106163025,-1.1435322761535645,-0.09109672904014587,1.0215171575546265
88,19616,19610,0.019912023097276688,-0.059629540890455246,0.8729967474937439,-11.606169700622559,-10.728280067443848,0.5027933120727539,1.7924468517303467,3.877570152282715,0.2749865651130676,-1.1170774698257446,-0.15720775723457336,1.0437244176864624
89,19626,19620,-0.03275249898433685,0.4382235109806061,1.0234657526016235,-8.384692192077637,-4.926513671875,-0.001866705366410315,1.794883131980896,3.8795719146728516,0.2756284475326538,-1.2162551879882812,-0.26047664880752563,1.0425381660461426
90,19636,19630,-0.06799104809761047,0.3975535035133362,1.071825385093689,-7.277806758880615,-3.4220333099365234,-0.22575640678405762,1.7966169118881226,3.882843017578125,0.27635955810546875,-1.1540520191192627,-0.4812408983707428,1.0189512968063354
91,19646,19640,-0.047190360724925995,0.04943611100316048,0.9938593506813049,-5.9931135177612305,-2.1229164600372314,0.35536810755729675,1.7964396476745605,3.8861522674560547,0.27868780493736267,-1.0427207946777344,-0.5907500982284546,1.0118768215179443
92,19656,19650,0.015068760141730309,-0.05101294443011284,0.9467028975486755,-1.4773612022399902,-6.492831230163574,0.5185247659683228,1.7965233325958252,3.8857858180999756,0.279436856508255,-1.025978922843933,-0.5085594058036804,1.0530043840408325
93,19666,19660,-0.024802206084132195,0.028770286589860916,0.9990750551223755,-1.450516939163208,-3.4553334712982178,-0.5783137679100037,1.7961020469665527,3.8874385356903076,0.2800973653793335,-0.9512739181518555,-0.452911376953125,1.0785518884658813
94,19676,19670,0.014888269826769829,0.03309054300189018,0.95415860414505,-0.22871260344982147,-4.810410022735596,-0.08705693483352661,1.7962791919708252,3.8884856700897217,0.28078579902648926,-0.9783284664154053,-0.5454555153846741,1.060032844543457
95,19686,19680,-0.03954865410923958,0.11624377220869064,0.953324556350708,-4.377295017242432,-5.080010414123535,-0.23081569373607635,1.7965959310531616,3.890436887741089,0.28363147377967834,-0.90907222032547,-0.6230274438858032,1.0414118766784668
96,19696,19690,-0.04498862102627754,0.0303496140986681,0.9015106558799744,-4.255434513092041,-5.807497024536133,-0.21209360659122467,1.7967804670333862,3.89162278175354,0.28427115082740784,-0.8297259211540222,-0.5832748413085938,1.0602741241455078
97,19706,19700,-0.07510410994291306,0.39677727222442627,0.9931246638298035,-3.512132167816162,-7.488430500030518,-1.0233969688415527,1.7973166704177856,3.891054630279541,0.28492164611816406,-0.8915991187095642,-0.6408829092979431,1.0571818351745605
98,19716,19710,-0.23588670790195465,1.1812242269515991,1.0771048069000244,-5.547417640686035,-4.031105995178223,-1.610304832458496,1.7973535060882568,3.8925678730010986,0.28658801317214966,-0.767764151096344,-0.7661743760108948,1.0400638580322266
99,19726,19720,-0.17642365396022797,0.6452416181564331,1.066330909729004,-2.9535763263702393,-3.555283308029175,-1.3178128004074097,1.7981092929840088,3.8928885459899902,0.28735029697418213,-0.7596388459205627,-0.6582643389701843,1.0597375631332397
100,19736,19730,-0.023099377751350403,0.12900637090206146,1.0418583154678345,-3.188570499420166,-5.271991729736328,-0.570723295211792,1.7977794408798218,3.8934450149536133,0.2882382869720459,-0.632270336151123,-0.7906644940376282,1.0264337062835693
101,19746,19740,-0.03255758807063103,0.02649613656103611,1.0142688751220703,-3.206174850463867,-6.8469672203063965,-0.4029823839664459,1.7976861000061035,3.894076347351074,0.29116585850715637,-0.7280675172805786,-0.8605093359947205,1.0173416137695312
102,19756,19750,-0.05522085353732109,0.2928127944469452,0.9643158912658691,-1.6691970825195312,1.7297546863555908,-0.7466756105422974,1.7970002889633179,3.8926429748535156,0.29219695925712585,-0.5794140696525574,-0.7971985340118408,1.0365608930587769
103,19766,19760,0.12055425345897675,0.09898458421230316,0.894576907157898,-2.4811737537384033,-3.2173147201538086,-1.1843528747558594,1.797141671180725,3.8952860832214355,0.29316458106040955,-0.4172474443912506,-0.8825656175613403,1.0161324739456177
104,19776,19770,0.0958046242594719,0.30189067125320435,0.9625303745269775,-1.5581005811691284,-6.48917818069458,-0.9548759460449219,1.8016085624694824,3.8956544399261475,0.29420003294944763,-0.9004876017570496,-0.9819285273551941,1.0251708030700684
105,19786,19780,0.12005434930324554,0.11908283829689026,0.9660063982009888,-0.20875342190265656,-9.030841827392578,-1.0276662111282349,1.8015213012695312,3.896383762359619,0.2968338131904602,-0.7742342352867126,-1.0258934497833252,1.0083532333374023
106,19796,19790,0.15236935019493103,-0.09448534995317459,0.8749303221702576,2.2521209716796875,-10.87807559967041,-0.8075461983680725,1.8037774562835693,3.8957061767578125,0.2976565659046173,-0.7952637672424316,-0.912433385848999,1.0300555229187012
107,19806,19800,0.05095130577683449,-0.18762317299842834,0.8373213410377502,2.2281086444854736,-11.53172779083252,-0.9787160158157349,1.8031589984893799,3.8952741622924805,0.29857584834098816,-0.554571807384491,-0.9263683557510376,1.0066137313842773
108,19816,19810,-0.0006471588276326656,-0.14794184267520905,0.807857871055603,1.9594662189483643,-13.705317497253418,-0.2748854458332062,1.8037201166152954,3.897106409072876,0.30107375979423523,-0.4690132141113281,-1.0030250549316406,0.9836364984512329
109,19826,19820,0.018851563334465027,-0.10561580955982208,0.8290162086486816,0.4417383372783661,-10.693953514099121,-0.8166160583496094,1.802435040473938,3.8978023529052734,0.30166539549827576,-0.2781154215335846,-0.9966305494308472,0.9703569412231445
110,19836,19830,-0.04614095389842987,0.04608525335788727,0.9405586123466492,1.3416253328323364,-10.613125801086426,-0.5850613117218018,1.802880048751831,3.8989882469177246,0.3021264970302582,-0.12330734729766846,-1.0006487369537354,0.9624858498573303
111,19846,19840,-0.051073167473077774,0.3312096893787384,0.9026381969451904,1.9419931173324585,-10.817728042602539,-1.2753779888153076,1.8030568361282349,3.8993802070617676,0.30089235305786133,-0.033693600445985794,-0.9116309285163879,0.9727355241775513
112,19856,19850,-0.054108183830976486,0.4640754163265228,0.8733665347099304,1.1355314254760742,-6.214701175689697,-1.819433331489563,1.8028382062911987,3.8995418548583984,0.3010832369327545,0.12618368864059448,-0.9019586443901062,0.9589850902557373
113,19866,19860,-0.06101749464869499,0.34862053394317627,0.9246473908424377,2.727039098739624,-3.4191813468933105,-0.2533082664012909,1.8034002780914307,3.899327039718628,0.3011637032032013,0.22255946695804596,-0.8959420919418335,0.9374012351036072
114,19876,19870,0.0285048671066761,0.08267104625701904,0.9534755945205688,3.933265447616577,-2.895033836364746,0.32382065057754517,1.8039517402648926,3.8993325233459473,0.3041483461856842,0.19182373583316803,-0.8595102429389954,0.9410812258720398
115,19886,19880,0.12622883915901184,-0.04105846956372261,0.954606294631958,4.331081867218018,-5.877305507659912,0.11630879342556,1.805192470550537,3.899507522583008,0.304233580827713,0.15651501715183258,-0.8001420497894287,0.952721893787384
116,19896,19890,0.11040913313627243,0.03229202330112457,0.8543705940246582,3.129046678543091,-6.926238059997559,-0.8610405921936035,1.8056650161743164,3.899446487426758,0.3042697012424469,0.22212602198123932,-0.8227413892745972,0.9516561031341553
117,19906,19900,-0.004712710622698069,-0.18930870294570923,0.866483211517334,0.7817478775978088,-5.659879207611084,0.13452619314193726,1.805964469909668,3.899778127670288,0.3041575253009796,0.30734309554100037,-0.787763237953186,0.9448117017745972
118,19916,19910,0.14489588141441345,-0.24225063621997833,0.879177987575531,0.9448992609977722,-4.9925856590271,-0.12390673905611038,1.807530164718628,3.900442123413086,0.3041730225086212,0.29289674758911133,-0.7982844114303589,0.9479445219039917
119,19926,19920,0.17729035019874573,-0.1941554993391037,0.881581723690033,0.839927613735199,-3.8257863521575928,0.21677038073539734,1.8073655366897583,3.899876594543457,0.30377197265625,0.3566912114620209,-0.7992281913757324,0.9479925036430359
120,19936,19930,-0.11197603493928909,0.0009328777086921036,1.0176231861114502,0.7557240724563599,6.254395008087158,0.19742204248905182,1.808672308921814,3.900315046310425,0.3032449185848236,0.3683236539363861,-0.7947255969047546,0.9522972702980042
121,19946,19940,-0.16466093063354492,0.16473788022994995,1.01273512840271,2.0471253395080566,13.000997543334961,-0.11068146675825119,1.80830717086792,3.9010815620422363,0.3005424439907074,0.33092525601387024,-0.8585621118545532,0.9536095857620239
122,19956,19950,-0.1380096822977066,0.522016704082489,1.0934600830078125,2.488307476043701,14.714242935180664,0.22208456695079803,1.8091557025909424,3.9015650749206543,0.2999193072319031,0.17362576723098755,-0.815468966960907,0.9494951963424683
123,19966,19960,0.004646093584597111,0.4190661609172821,1.0119214057922363,4.693304061889648,11.468046188354492,0.2619526982307434,1.8089632987976074,3.9020237922668457,0.2993983030319214,0.07211252301931381,-0.754144549369812,0.9444516897201538
124,19976,19970,-0.03815547004342079,0.295123815536499,1.1074576377868652,6.2384772300720215,11.502593040466309,1.0254088640213013,1.8086711168289185,3.9031243324279785,0.2996393144130707,-0.07003415375947952,-0.7431782484054565,0.9450129866600037
125,19986,19980,-0.03537917137145996,0.161552295088768,1.0568820238113403,6.892469882965088,9.0582914352417,0.9120202660560608,1.8084381818771362,3.903447389602661,0.2993268370628357,-0.18731331825256348,-0.7047549486160278,0.952964186668396
126,19996,19990,-0.0063847084529697895,0.056520942598581314,1.0533210039138794,5.618516445159912,2.3259923458099365,1.4496312141418457,1.8089693784713745,3.903625965118408,0.2990822196006775,-0.2613532245159149,-0.6518344283103943,0.9585438966751099
127,20006,20000,0.026473375037312508,0.08879152685403824,1.056046485900879,4.949681758880615,-1.6203069686889648,1.741644263267517,1.808793067932129,3.9034838676452637,0.2989707291126251,-0.2422310709953308,-0.5373125672340393,0.9671949744224548
128,20016,20010,-0.040056467056274414,0.11744599044322968,1.1138733625411987,4.0180487632751465,-0.4385405480861664,0.5694860219955444,1.8091058731079102,3.904275417327881,0.2985365688800812,-0.1641610562801361,-0.5209255218505859,0.9782271981239319
129,20026,20020,-0.04460322856903076,0.09242046624422073,1.0046626329421997,3.340524196624756,-0.6598824262619019,1.1254048347473145,1.8086317777633667,3.904552936553955,0.29854434728622437,-0.09395887702703476,-0.5129788517951965,0.9795055389404297
130,20036,20030,-0.009609805420041084,0.27526551485061646,1.0120954513549805,4.026717662811279,-2.048733711242676,1.4122475385665894,1.807739496231079,3.90617036819458,0.2986140251159668,-0.019958792254328728,-0.4308023154735565,0.987095057964325
131,20046,20040,-0.02402317337691784,0.2912018597126007,1.029976487159729,3.6729860305786133,1.7118380069732666,1.5987344980239868,1.8075125217437744,3.9077751636505127,0.29768893122673035,-0.03488337621092796,-0.5071749687194824,1.000622034072876
132,20056,20050,0.05886409059166908,-0.13014020025730133,0.9134089350700378,3.3599352836608887,10.23184585571289,0.759216845035553,1.8079637289047241,3.9080684185028076,0.2976512014865875,-0.038188520818948746,-0.41864144802093506,1.0152510404586792
133,20066,20060,0.07625868916511536,0.04945867881178856,0.9503601789474487,2.7261745929718018,11.139664649963379,0.6515767574310303,1.8082373142242432,3.910478353500366,0.2975104749202728,-0.15753653645515442,-0.4899483919143677,1.021598219871521
134,20076,20070,0.05664367973804474,0.051128268241882324,1.076711893081665,4.369046688079834,14.420702934265137,0.4718102514743805,1.8086376190185547,3.9099955558776855,0.2941482365131378,-0.30406421422958374,-0.3251471221446991,1.0332913398742676
135,20086,20080,0.028288623318076134,0.012183834798634052,0.9522458910942078,4.8355207443237305,14.055188179016113,0.27355480194091797,1.809651255607605,3.910902500152588,0.29381442070007324,-0.4820571839809418,-0.30519676208496094,1.0392212867736816
136,20096,20090,0.028009891510009766,0.3598645329475403,0.9401060342788696,4.442074775695801,6.6803998947143555,0.13513989746570587,1.8102766275405884,3.9107894897460938,0.2934471368789673,-0.6465082764625549,-0.27476441860198975,1.0428239107131958
137,20106,20100,0.03530420362949371,0.28499993681907654,1.0202170610427856,5.531697750091553,3.979367256164551,-0.11614126712083817,1.8098307847976685,3.9107866287231445,0.28905194997787476,-0.6366761922836304,-0.17266659438610077,1.0438326597213745
138,20116,20110,0.045673370361328125,0.007711929269134998,0.9706223011016846,2.9026906490325928,-0.19221638143062592,0.9801057577133179,1.8096089363098145,3.912097930908203,0.28839951753616333,-0.6521763205528259,-0.14670364558696747,1.0440505743026733
139,20126,20120,-0.03958083689212799,0.1317831128835678,1.131718635559082,2.787809133529663,-1.8716410398483276,0.1769818216562271,1.8097705841064453,3.9129765033721924,0.2877472937107086,-0.6933673024177551,-0.139496847987175,1.0494993925094604
140,20136,20130,-0.004364577122032642,0.05192521959543228,1.0126668214797974,1.5793358087539673,3.7015390396118164,-0.02464861050248146,1.8101863861083984,3.9144222736358643,0.2871069312095642,-0.7042264342308044,-0.21400967240333557,1.0482447147369385
141,20146,20140,-0.024883655831217766,0.196397066116333,1.0347610712051392,2.8797717094421387,2.6836416721343994,-0.5759280323982239,1.810774803161621,3.9147891998291016,0.28544434905052185,-0.7495525479316711,-0.2118353694677353,1.0453652143478394
142,20156,20150,0.06743570417165756,0.055139172822237015,0.9856898784637451,6.0762834548950195,0.9429202675819397,-0.85997074842453,1.8105844259262085,3.915295362472534,0.2848491072654724,-0.7129566669464111,-0.10782881081104279,1.0468826293945312
143,20166,20160,0.07330090552568436,0.031011849641799927,1.0027769804000854,7.048908233642578,-0.4244174659252167,-1.360803484916687,1.8099333047866821,3.9142262935638428,0.28433987498283386,-0.6715888977050781,-0.048815734684467316,1.046381950378418
144,20176,20170,0.02474752999842167,-0.07703080773353577,0.988831639289856,7.633048057556152,3.6547138690948486,-0.8466746211051941,1.8111547231674194,3.9150075912475586,0.28461864590644836,-0.7826119661331177,0.10621533542871475,1.0454347133636475
145,20186,20180,-0.003962430637329817,-0.09386149793863297,1.049084186553955,5.945639610290527,0.7502179741859436,-0.6052918434143066,1.8110661506652832,3.91603946685791,0.2840869128704071,-0.8429173231124878,0.17986434698104858,1.0301581621170044
146,20196,20190,-0.0016866927035152912,-0.07062338292598724,1.0905983448028564,3.8784897327423096,3.05722713470459,-0.3965456783771515,1.81087327003479,3.9171910285949707,0.2835922837257385,-0.8628542423248291,0.23207861185073853,1.027186393737793
147,20206,20200,0.02597109228372574,0.012461957521736622,1.0035940408706665,1.0355664491653442,-2.2472105026245117,-0.888992190361023,1.8108336925506592,3.9184842109680176,0.2835144102573395,-0.8242727518081665,0.2482287734746933,1.022287130355835
148,20216,20210,0.016322335228323936,0.005147235468029976,0.9761520624160767,-1.7006597518920898,-1.7285428047180176,-0.5239946842193604,1.8101325035095215,3.91964054107666,0.28316730260849,-0.741857647895813,0.29214346408843994,1.019018292427063
149,20226,20220,-0.005816809367388487,0.10119713842868805,1.0750709772109985,-1.4039796590805054,0.8499302864074707,-2.0771470069885254,1.8113194704055786,3.9197375774383545,0.2827216684818268,-0.8145169615745544,0.2917815148830414,1.0084389448165894
150,20236,20230,-0.05415577068924904,0.04945596680045128,1.0974012613296509,-0.7105202078819275,-1.8667265176773071,-0.7481385469436646,1.8132917881011963,3.920971393585205,0.2822050452232361,-0.9764927625656128,0.2981874942779541,0.9831030368804932
151,20246,20240,-0.02332204021513462,0.12534815073013306,1.1466786861419678,-0.483570396900177,-0.6735516786575317,-0.762654721736908,1.8119230270385742,3.921055793762207,0.28194543719291687,-0.8675845265388489,0.31019583344459534,0.9842898845672607
152,20256,20250,-0.05430961772799492,-0.05318630114197731,1.045972466468811,1.6308274269104004,-1.3937993049621582,-1.2785941362380981,1.811395525932312,3.9216086864471436,0.2819138765335083,-0.7752146124839783,0.2475784420967102,0.976326584815979
153,20266,20260,0.013198059983551502,-0.007102862931787968,1.047432541847229,2.7071142196655273,-8.628823280334473,-0.963648796081543,1.8122423887252808,3.9222514629364014,0.281830370426178,-0.8344742655754089,0.2979542016983032,0.9649422764778137
154,20276,20270,-0.011572407558560371,-0.051630448549985886,1.0831023454666138,2.282341480255127,0.38698530197143555,-1.158716082572937,1.8132898807525635,3.923093318939209,0.28150784969329834,-0.8396621346473694,0.2901076674461365,0.94554603099823
155,20286,20280,-0.01326758787035942,0.026964465156197548,1.0744140148162842,0.9352564811706543,-0.2531203031539917,-1.137747883796692,1.8134920597076416,3.9243788719177246,0.2816081643104553,-0.7602923512458801,0.27315568923950195,0.9345526695251465
156,20296,20290,0.008900100365281105,-0.012511339969933033,1.0218621492385864,2.1293692588806152,2.9654433727264404,-1.5088087320327759,1.8135039806365967,3.924370527267456,0.28181275725364685,-0.7086968421936035,0.31822669506073,0.9329793453216553
157,20306,20300,0.004871664568781853,0.13629844784736633,1.0548521280288696,1.880703330039978,-0.43105706572532654,-1.2993534803390503,1.8135426044464111,3.9250500202178955,0.28160977363586426,-0.8322341442108154,0.3737925887107849,0.9139743447303772
158,20316,20310,-0.041091833263635635,0.03142201155424118,1.0366569757461548,-0.5014887452125549,-4.27915620803833,-1.0537971258163452,1.8138086795806885,3.924513816833496,0.28189560770988464,-0.7452450394630432,0.4240853488445282,0.9112434387207031
159,20326,20320,0.05176251009106636,-0.19709771871566772,1.0023266077041626,-1.6748900413513184,-2.708571195602417,-2.012007236480713,1.8155710697174072,3.9254708290100098,0.282102108001709,-0.8376143574714661,0.4367315173149109,0.8896987438201904
160,20336,20330,0.02854553982615471,-0.10372772067785263,0.9667282104492188,-2.089977264404297,-4.654150009155273,-2.0927703380584717,1.8158173561096191,3.926032304763794,0.2825033962726593,-0.681839644908905,0.4224728047847748,0.8844236135482788
161,20346,20340,-0.007641905918717384,0.07223978638648987,1.0803775787353516,-2.4385762214660645,-2.574669599533081,-1.9764940738677979,1.8163225650787354,3.9267804622650146,0.281860888004303,-0.6039158701896667,0.32596254348754883,0.8593217134475708
162,20356,20350,-0.028789307922124863,-0.030436711385846138,1.00457763671875,-2.8889548778533936,-1.777990698814392,-1.9679127931594849,1.8175445795059204,3.9282073974609375,0.2819642424583435,-0.7114991545677185,0.3102448582649231,0.8289574980735779
163,20366,20360,0.028522463515400887,0.01857498101890087,0.9954504370689392,-2.0665929317474365,2.5281267166137695,-1.893397569656372,1.8182532787322998,3.9286704063415527,0.28212282061576843,-0.7348846793174744,0.2827029526233673,0.806509256362915
164,20376,20370,0.05480267107486725,-0.1481451392173767,1.0050379037857056,0.06088460236787796,-0.3386360704898834,-1.3234336376190186,1.8196524381637573,3.9298315048217773,0.2817559242248535,-0.6194374561309814,0.34958723187446594,0.8258451223373413
165,20386,20380,0.07656314224004745,-0.028899118304252625,0.9955719709396362,-0.18846525251865387,-10.506158828735352,-1.058784008026123,1.8196207284927368,3.9316630363464355,0.2819262146949768,-0.5606417655944824,0.35334184765815735,0.816002368927002
166,20396,20390,0.02405494824051857,0.009104041382670403,0.9941215515136719,0.45259830355644226,-2.2490744590759277,-2.4771366119384766,1.820300579071045,3.931936740875244,0.28216978907585144,-0.4301091730594635,0.35822364687919617,0.8067950010299683
167,20406,20400,-0.046763841062784195,-0.01560602243989706,0.9816566705703735,-1.0828150510787964,0.8356387615203857,-2.6042075157165527,1.8221817016601562,3.933241605758667,0.280474454164505,-0.695478081703186,0.28689655661582947,0.754193902015686
168,20416,20410,-0.032627467066049576,0.012386953458189964,1.0305942296981812,-2.7475826740264893,3.045538902282715,-2.3489136695861816,1.8225443363189697,3.933469772338867,0.28052666783332825,-0.5987007021903992,0.278212308883667,0.7382853627204895
169,20426,20420,0.019030576571822166,-0.03672388941049576,0.9574175477027893,-3.158383846282959,6.595921039581299,-2.49807071685791,1.821832537651062,3.9337127208709717,0.28081464767456055,-0.6061877012252808,0.25088974833488464,0.717160165309906
170,20436,20430,0.011214385740458965,-0.08189559727907181,0.9972259998321533,-0.11173062771558762,-1.8258241415023804,-1.704085350036621,1.8227856159210205,3.9335269927978516,0.2808988392353058,-0.6161940097808838,0.23080486059188843,0.6967718601226807
171,20446,20440,0.053820401430130005,0.09921649098396301,1.0360240936279297,-0.1149236336350441,-4.334540843963623,-2.2589924335479736,1.8234984874725342,3.934054136276245,0.2796103060245514,-0.46570250391960144,0.23532187938690186,0.6915411949157715
172,20456,20450,-0.06687340885400772,0.21296145021915436,1.041969895362854,-1.016746163368225,-3.784169912338257,-2.016589641571045,1.8234752416610718,3.934795618057251,0.279800146818161,-0.514682412147522,0.3246684968471527,0.6705559492111206
173,20466,20460,-0.03159478306770325,0.14012597501277924,1.064052700996399,-0.3133413791656494,-5.525767803192139,-1.27601158618927,1.8247063159942627,3.9337644577026367,0.2798926830291748,-0.40099725127220154,0.3231624662876129,0.6574586629867554
174,20476,20470,-0.014309567399322987,0.14396485686302185,1.1600470542907715,-0.8680376410484314,-4.591118335723877,-1.0095466375350952,1.8260799646377563,3.93469500541687,0.2800820767879486,-0.37022823095321655,0.316464900970459,0.6342244744300842
175,20486,20480,-0.005712160374969244,-0.04184531420469284,0.9949933290481567,-2.767709493637085,1.1735281944274902,-1.64927339553833,1.8258516788482666,3.935124158859253,0.2803637385368347,-0.2822544276714325,0.22820666432380676,0.6243335008621216
176,20496,20490,-0.013675040565431118,0.14396058022975922,1.0411468744277954,-3.5594077110290527,-2.376394033432007,-1.7999441623687744,1.8266587257385254,3.935251235961914,0.28067806363105774,-0.27659037709236145,0.1988791525363922,0.6149779558181763
177,20506,20500,-0.09437812864780426,0.23066702485084534,1.0932029485702515,-2.046447992324829,0.4001665413379669,-1.60921049118042,1.8288183212280273,3.935896158218384,0.28100091218948364,-0.48005378246307373,0.23239466547966003,0.582848310470581
178,20516,20510,-0.04828944057226181,0.14370569586753845,1.0277388095855713,-1.952659010887146,-0.36051055788993835,-1.6675403118133545,1.8293077945709229,3.9349653720855713,0.28145357966423035,-0.450249046087265,0.3477019667625427,0.5787426829338074
179,20526,20520,0.01864483579993248,-0.024724259972572327,0.9562366604804993,-3.636526107788086,0.944251537322998,-1.9515743255615234,1.8299531936645508,3.934962034225464,0.28197312355041504,-0.4145943224430084,0.30182671546936035,0.5627616047859192
180,20536,20530,-0.021318858489394188,0.11794250458478928,1.1166430711746216,-4.503314018249512,-6.001977920532227,-0.962103545665741,1.829851508140564,3.93499755859375,0.2805975675582886,-0.38095563650131226,0.23081502318382263,0.5466419458389282
181,20546,20540,-0.042363982647657394,0.12868672609329224,1.077123999595642,-3.9923815727233887,-4.18813419342041,-1.0314487218856812,1.8298252820968628,3.934257745742798,0.28116101026535034,-0.21669869124889374,0.2981860637664795,0.5542483329772949
182,20556,20550,-0.006643369793891907,-0.0304652601480484,0.9698580503463745,-3.7948684692382812,-3.5860984325408936,-2.1418585777282715,1.830430507659912,3.9351894855499268,0.28167062997817993,-0.21453526616096497,0.2126305252313614,0.5390243530273438
183,20566,20560,-0.12366391718387604,0.20016568899154663,1.1193379163742065,-2.4152021408081055,1.1606495380401611,-1.3225226402282715,1.8315231800079346,3.9361233711242676,0.2821585536003113,-0.2740493714809418,0.1318017989397049,0.5206835865974426
184,20576,20570,-0.013387775979936123,-0.10193082690238953,0.9116404056549072,-6.071444034576416,-2.719787359237671,-1.0180902481079102,1.8318603038787842,3.9362330436706543,0.28345686197280884,-0.1559825986623764,0.1339409053325653,0.532052218914032
185,20586,20580,0.01408306322991848,0.19132505357265472,0.9402989149093628,-5.157627582550049,-0.5833338499069214,-1.6398204565048218,1.8320128917694092,3.9380922317504883,0.2840278446674347,-0.11017084866762161,0.019801899790763855,0.5281350016593933
186,20596,20590,0.0055924453772604465,0.01018508616834879,0.9882547855377197,-4.1824421882629395,1.988203763961792,-2.269263744354248,1.8330607414245605,3.937544822692871,0.2845199406147003,-0.18278034031391144,0.06694566458463669,0.5138023495674133
187,20606,20600,-0.010089612565934658,-0.02924324758350849,0.9668818116188049,-0.6214732527732849,3.6784915924072266,-2.0621838569641113,1.8327974081039429,3.9382119178771973,0.2835046648979187,-0.12473659962415695,-0.021799426525831223,0.4932868480682373
188,20616,20610,0.02286003902554512,-0.04626752808690071,1.0087966918945312,-1.4314647912979126,0.8654659986495972,-1.700737714767456,1.832911729812622,3.937993288040161,0.2838858366012573,-0.2497919499874115,0.000773607287555933,0.46403977274894714
189,20626,20620,0.03755743429064751,0.32534658908843994,0.946549654006958,-0.8072501420974731,-7.550714015960693,-1.190442442893982,1.8349608182907104,3.9373011589050293,0.28407350182533264,-0.3239646553993225,0.03624410182237625,0.4352421462535858
190,20636,20630,-0.06767304241657257,0.2862580716609955,1.0832041501998901,-1.0007050037384033,-5.742452621459961,-1.4694401025772095,1.8345882892608643,3.937049627304077,0.2817271947860718,-0.17043080925941467,-0.006223641335964203,0.42680513858795166
191,20646,20640,-0.06757845729589462,0.03493000939488411,1.0544347763061523,-1.4469220638275146,2.4385249614715576,-1.3991461992263794,1.8358598947525024,3.9372522830963135,0.28188273310661316,-0.19039250910282135,-0.05988987162709236,0.40535038709640503
192,20656,20650,0.0821986123919487,-0.13098777830600739,0.9666363596916199,-5.228280067443848,-0.060945071280002594,-1.5778298377990723,1.8356916904449463,3.936565637588501,0.28214502334594727,-0.1766352504491806,-0.05406729504466057,0.3878016471862793
193,20666,20660,-0.008522641845047474,-0.07000801712274551,0.9912675619125366,-2.997459888458252,-0.19538259506225586,-2.5736844539642334,1.836130976676941,3.9358718395233154,0.28234532475471497,-0.08793280273675919,-0.15848161280155182,0.36729151010513306
194,20676,20670,-0.006955117918550968,-0.10513400286436081,0.9158738851547241,-3.5726263523101807,-3.1717164516448975,-1.3887056112289429,1.8381003141403198,3.936809539794922,0.2841767966747284,-0.30663836002349854,-0.24327966570854187,0.3308783769607544
195,20686,20680,-0.046035297214984894,0.2239455282688141,1.0622379779815674,-2.7899069786071777,-0.005250879097729921,-1.406575083732605,1.8383291959762573,3.9366531372070312,0.2845217287540436,-0.18693894147872925,-0.3164351284503937,0.3267500698566437
196,20696,20690,0.0077536278404295444,-0.1411622017621994,0.9646129012107849,-0.48113304376602173,-3.3275465965270996,-2.057581663131714,1.8390687704086304,3.936760187149048,0.2847343981266022,-0.0785842314362526,-0.3587247431278229,0.3175811469554901
197,20706,20700,-0.028693238273262978,-0.11215387284755707,0.9884642362594604,1.9738905429840088,-0.5510698556900024,-2.2893764972686768,1.8372747898101807,3.9362738132476807,0.28381940722465515,0.044950418174266815,-0.290581613779068,0.2960120439529419
198,20716,20710,0.012777717784047127,0.028011221438646317,0.9908335208892822,3.6876235008239746,2.7087395191192627,-2.551985740661621,1.8376654386520386,3.9351463317871094,0.28396451473236084,0.06610924005508423,-0.19081519544124603,0.26364460587501526
199,20726,20720,0.007597677409648895,-0.08494412899017334,1.0000077486038208,2.4548163414001465,0.4739746153354645,-1.1665022373199463,1.8382688760757446,3.935128927230835,0.28412050008773804,-0.24347853660583496,-0.15592922270298004,0.23421786725521088
200,20736,20730,-0.004360485821962357,0.014182742685079575,1.0539335012435913,2.6168859004974365,-2.9005799293518066,-0.9179902076721191,1.8419742584228516,3.934481382369995,0.28411340713500977,-0.16706502437591553,-0.2136951982975006,0.22301797568798065
201,20746,20740,-0.024006927385926247,-0.08975639939308167,0.9359097480773926,-2.4018137454986572,4.189220905303955,-1.6714098453521729,1.8415206670761108,3.9350955486297607,0.2844357192516327,-0.09413433820009232,-0.21530365943908691,0.19959275424480438
202,20756,20750,0.023316124454140663,-0.003920260351151228,0.9349402189254761,-3.4075076580047607,2.324103832244873,-1.1598708629608154,1.841016173362732,3.934144973754883,0.2847462594509125,-0.051073018461465836,-0.18847441673278809,0.18286460638046265
203,20766,20760,0.02802434004843235,-0.169817253947258,0.9830623865127563,-3.257664442062378,-1.0994505882263184,-1.2792502641677856,1.8423607349395752,3.934213161468506,0.2848753333091736,-0.27005186676979065,-0.25635167956352234,0.17465946078300476
204,20776,20770,0.031158404424786568,-0.052427761256694794,0.9618287086486816,-1.851973295211792,-0.6864078044891357,-0.7471498250961304,1.8450349569320679,3.934628963470459,0.28264889121055603,-0.22284471988677979,-0.3266999125480652,0.15081265568733215
205,20786,20780,0.010864860378205776,0.1459774523973465,1.0220493078231812,-0.687508761882782,-0.4282017946243286,-0.8465901613235474,1.8457133769989014,3.9344518184661865,0.282615602016449,-0.09968288242816925,-0.35562777519226074,0.13948635756969452
206,20796,20790,-0.04487384483218193,0.018605245277285576,1.0307222604751587,0.7630515694618225,0.9881630539894104,-0.6814183592796326,1.8454532623291016,3.934605360031128,0.28269901871681213,0.014839022420346737,-0.3601331114768982,0.13012084364891052
207,20806,20800,0.05261886864900589,-0.10515695065259933,1.0278390645980835,1.9479329586029053,-0.26060476899147034,-0.18470916152000427,1.8463644981384277,3.935370445251465,0.2816973626613617,-0.12694306671619415,-0.3424456715583801,0.14343096315860748
208,20816,20810,-0.025830958038568497,-0.08194241672754288,1.0002939701080322,2.030825614929199,1.1212737560272217,-0.27496424317359924,1.8478182554244995,3.935427188873291,0.2816495895385742,-0.09143286943435669,-0.31737473607063293,0.14882749319076538
209,20826,20820,0.04828190803527832,0.04271135851740837,1.026266098022461,2.836569309234619,3.4349205493927,-1.4481743574142456,1.849163293838501,3.935753345489502,0.28161516785621643,-0.15416911244392395,-0.28636300563812256,0.1517813801765442
210,20836,20830,-0.03523464500904083,0.14897605776786804,1.1098414659500122,2.4815635681152344,1.7772233486175537,-0.8277795910835266,1.8504606485366821,3.935631275177002,0.2827409505844116,-0.09937621653079987,-0.2383885234594345,0.15014132857322693
211,20846,20840,0.060313984751701355,-0.008190445601940155,0.9677957892417908,0.6909123659133911,1.3724445104599,-0.35920944809913635,1.8515011072158813,3.936387300491333,0.2829090356826782,-0.10258429497480392,-0.2027461677789688,0.1400919407606125
212,20856,20850,-0.02176477015018463,-0.015473169274628162,1.0332354307174683,-0.0017773801228031516,0.9447231292724609,-0.14755842089653015,1.8521147966384888,3.9369876384735107,0.2830205261707306,-0.06440997868776321,-0.19224593043327332,0.14783582091331482
213,20866,20860,0.012718934565782547,0.008158328011631966,1.0365803241729736,0.039685893803834915,-4.857665061950684,0.3466477394104004,1.8523846864700317,3.9363696575164795,0.28349030017852783,-0.22329457104206085,-0.19820117950439453,0.16344687342643738
214,20876,20870,-0.13361598551273346,0.11467678099870682,1.058525800704956,-1.0223332643508911,-1.175402045249939,-0.7129155397415161,1.854709267616272,3.9377024173736572,0.2836013436317444,-0.0951826199889183,-0.20758913457393646,0.16434144973754883
215,20886,20880,-0.009442147798836231,0.1311688870191574,1.0605500936508179,-2.3838746547698975,-7.410167217254639,0.2810565233230591,1.8541462421417236,3.938246011734009,0.2839885652065277,-0.06564503163099289,-0.2226099967956543,0.1812264621257782
216,20896,20890,-0.01358791720122099,-0.026736635714769363,1.0591703653335571,1.0386481285095215,0.7815316915512085,-0.3549809753894806,1.854927897453308,3.939152956008911,0.2843444049358368,0.061073992401361465,-0.23457035422325134,0.18717607855796814
217,20906,20900,-0.02713199146091938,0.02206091396510601,1.104299545288086,1.5070101022720337,3.6301016807556152,-0.16318829357624054,1.855105996131897,3.9401626586914062,0.2846590280532837,0.10364314913749695,-0.2975039482116699,0.1910218745470047
218,20916,20910,0.0007547693094238639,-0.07349052280187607,0.9753299355506897,2.0390286445617676,4.900907516479492,0.024674085900187492,1.855258584022522,3.940930128097534,0.2851358950138092,-0.120697520673275,-0.26186174154281616,0.18600775301456451
219,20926,20920,0.009811910800635815,-0.009910916909575462,0.9532204270362854,4.042174816131592,-2.377366781234741,0.1384076029062271,1.8576109409332275,3.94085955619812,0.28551191091537476,-0.18330368399620056,-0.20613504946231842,0.18922507762908936
220,20936,20930,-0.09230879694223404,-0.08892475068569183,0.9506518244743347,4.149703025817871,4.637450695037842,0.3523672819137573,1.858229398727417,3.939952850341797,0.2850651741027832,-0.1549662947654724,-0.15045098960399628,0.1816311627626419
221,20946,20940,0.016186341643333435,-0.21752959489822388,0.8848126530647278,3.3984320163726807,6.8022308349609375,-0.8623504042625427,1.8589038848876953,3.9402472972869873,0.28544482588768005,-0.2228977233171463,-0.08926013857126236,0.2197619527578354
222,20956,20950,0.00964393187314272,0.15477751195430756,0.9648935198783875,4.226997375488281,-0.3271811008453369,-0.203863263130188,1.8604933023452759,3.9415090084075928,0.2857201397418976,-0.21443533897399902,-0.12441036850214005,0.21300072968006134
223,20966,20960,0.05206626281142235,0.004878593143075705,0.8995532989501953,1.088026762008667,-0.1379416584968567,-0.22837182879447937,1.860221028327942,3.942298412322998,0.2864297032356262,-0.136012002825737,-0.08204899728298187,0.20973725616931915
224,20976,20970,0.055154334753751755,-0.16107138991355896,0.8911749124526978,-0.5258497595787048,-2.089841604232788,0.7438395619392395,1.8596309423446655,3.94281005859375,0.286648690700531,-0.27346158027648926,-0.07427047193050385,0.22347724437713623
225,20986,20980,0.04066048189997673,-0.06428856402635574,0.9981516599655151,-1.6528072357177734,6.4142842292785645,-0.6888416409492493,1.860778570175171,3.9431819915771484,0.28659868240356445,-0.1800074279308319,-0.08673600852489471,0.2522154748439789
226,20996,20990,0.03777344152331352,0.1370735466480255,1.030824899673462,-1.1453598737716675,-1.3601982593536377,-1.0320627689361572,1.8610388040542603,3.9440977573394775,0.2867427468299866,-0.13148126006126404,-0.1050427034497261,0.2582019865512848
227,21006,21000,0.010237524285912514,-0.0005416134372353554,0.993266224861145,1.305214285850525,6.202991485595703,-0.6033539175987244,1.8606137037277222,3.9446463584899902,0.28366217017173767,-0.2575162947177887,-0.10868846625089645,0.2506808936595917
228,21016,21010,0.09457680583000183,-0.042301032692193985,0.9197996258735657,1.410200595855713,0.13679030537605286,-0.39251548051834106,1.8619619607925415,3.9446794986724854,0.2834600806236267,-0.19085468351840973,-0.09541106224060059,0.23686054348945618
229,21026,21020,-0.008087115362286568,-0.0048648943193256855,0.9802136421203613,1.280670404434204,-0.8852258920669556,-0.4411899447441101,1.861668586730957,3.9447414875030518,0.2833668291568756,-0.32851454615592957,-0.14807476103305817,0.242579385638237
230,21036,21030,-0.036793649196624756,-0.03811590000987053,1.015040397644043,1.8699151277542114,2.2578537464141846,-0.5029616951942444,1.8633811473846436,3.946108341217041,0.282948762178421,-0.24031728506088257,-0.10638439655303955,0.24921812117099762
231,21046,21040,0.013409897685050964,-0.023990891873836517,0.9839864373207092,2.7792863845825195,1.6775270700454712,-0.11365227401256561,1.8629623651504517,3.946038007736206,0.28285911679267883,-0.24965746700763702,-0.14130957424640656,0.24696162343025208
232,21056,21050,-0.03178432956337929,0.038956355303525925,1.075972557067871,2.461256980895996,1.6212496757507324,-0.620821475982666,1.863146424293518,3.947100877761841,0.2826637923717499,-0.4034107029438019,-0.08723777532577515,0.28319934010505676
233,21066,21060,-0.0014254903653636575,0.01568453013896942,1.045108437538147,3.292581081390381,0.2884255349636078,-0.7210733294487,1.865328311920166,3.9478471279144287,0.28291183710098267,-0.30732104182243347,-0.034569866955280304,0.30917274951934814
234,21076,21070,-0.018169164657592773,-0.05072801932692528,1.0224944353103638,2.732119083404541,0.8273048400878906,-1.0945483446121216,1.8653398752212524,3.9497830867767334,0.28296899795532227,-0.24603073298931122,0.02520691603422165,0.3254324495792389
235,21086,21080,0.012506227940320969,-0.051250822842121124,1.0094506740570068,2.680415391921997,-1.749703049659729,-0.6028493046760559,1.8651483058929443,3.9495625495910645,0.2829769551753998,-0.3178589940071106,0.08098292350769043,0.3243217170238495
236,21096,21090,-0.021884389221668243,0.02804555557668209,1.0794897079467773,-1.2503708600997925,-1.2476667165756226,0.6397548913955688,1.8659266233444214,3.9501397609710693,0.2848950922489166,-0.20155328512191772,0.036645181477069855,0.3091159164905548
237,21106,21100,-0.07664455473423004,0.18658368289470673,1.100197672843933,-1.5785974264144897,-2.5990803241729736,-1.1511259078979492,1.8658101558685303,3.950336217880249,0.2850719392299652,-0.3336043357849121,0.040998462587594986,0.3172178864479065
238,21116,21110,0.01994958147406578,-0.02902301959693432,1.012691617012024,-1.5938568115234375,-0.7181265354156494,-0.8925603032112122,1.867614984512329,3.950634002685547,0.28515246510505676,-0.22075816988945007,0.03541359677910805,0.28390777111053467
239,21126,21120,-0.08994092047214508,0.017617184668779373,1.0535037517547607,-1.3369964361190796,1.3584262132644653,-1.2214938402175903,1.8691658973693848,3.9515163898468018,0.2858319878578186,-0.17549186944961548,0.008755907416343689,0.30918776988983154
