,timestamp_start,timestamp_end,acc.x,acc.y,acc.z,gyro.x,gyro.y,gyro.z,stateEstimate.x,stateEstimate.y,stateEstimate.z,stabilizer.pitch,stabilizer.roll,stabilizer.yaw
0,33632,33630,-0.0014573687221854925,-0.09603559225797653,0.9795430898666382,-3.6401374340057373,2.5636513233184814,-0.3257671594619751,2.01055908203125,4.063664436340332,0.17191752791404724,-1.5389167070388794,0.05067252740263939,1.918809175491333
1,33642,33640,-0.022710908204317093,-0.01809234917163849,1.0487797260284424,-3.899580478668213,1.5741002559661865,-0.07595255970954895,2.007295608520508,4.059940814971924,0.1732252538204193,-1.4959443807601929,0.027649039402604103,1.9250266551971436
2,33652,33650,0.041422076523303986,0.028280844911932945,1.0521517992019653,-3.0699760913848877,0.10277709364891052,0.3106454908847809,2.007068157196045,4.060321807861328,0.17168758809566498,-1.5827747583389282,-0.06572336703538895,1.8994029760360718
3,33662,33660,0.00038739151204936206,0.05503644049167633,1.1108899116516113,-2.0678141117095947,-0.10210518538951874,0.4216780364513397,2.00689959526062,4.058870315551758,0.17291368544101715,-1.7037701606750488,-0.0638444572687149,1.906840205192566
4,33672,33670,0.0003623773227445781,-0.047991205006837845,1.0521869659423828,-0.26468655467033386,-2.518289089202881,0.6808377504348755,2.0051095485687256,4.058013439178467,0.17426170408725739,-1.559988260269165,0.020445939153432846,1.954815149307251
5,33682,33680,0.006329631898552179,-0.07094742357730865,0.9633558392524719,-1.2439182996749878,-1.4327478408813477,0.4414917528629303,2.003159999847412,4.054300308227539,0.17330864071846008,-1.6533026695251465,0.03736013174057007,1.9615832567214966
6,33692,33690,0.002942126477137208,-0.01379623543471098,1.0527302026748657,-2.05049729347229,-2.5965192317962646,0.12571832537651062,2.0007941722869873,4.0533647537231445,0.17452159523963928,-1.7093617916107178,0.03716666251420975,1.96480131149292
7,33702,33700,0.02097228728234768,-0.045078378170728683,1.120187759399414,-4.576430320739746,-4.241040229797363,0.5502603650093079,1.9996665716171265,4.053303241729736,0.1757827252149582,-1.7154014110565186,-0.06868407130241394,1.9362741708755493
8,33712,33710,-0.00015035948308650404,0.09195242822170258,1.0934417247772217,-4.566288948059082,-5.790884971618652,0.2680606245994568,1.9993510246276855,4.052399635314941,0.17705395817756653,-1.6834124326705933,0.04239988327026367,1.9978082180023193
9,33722,33720,-0.017824390903115273,0.0313967764377594,1.0522054433822632,-6.418307781219482,-6.338767051696777,-0.20406413078308105,1.9982715845108032,4.052697658538818,0.17704086005687714,-1.6278488636016846,-0.10371549427509308,1.9634679555892944
10,33732,33730,0.019183427095413208,-0.08419697731733322,1.1472079753875732,-5.540285110473633,-8.321977615356445,-0.9963027238845825,1.9978480339050293,4.052302360534668,0.17843979597091675,-1.6448428630828857,-0.19785211980342865,1.9477852582931519
11,33742,33740,0.04565216973423958,-0.2309013307094574,1.1355551481246948,-4.9810686111450195,-10.282258987426758,-0.8663393259048462,1.9949333667755127,4.052145957946777,0.18001216650009155,-1.5115025043487549,-0.3520392179489136,1.9096719026565552
12,33752,33750,0.02043328434228897,-0.08914782851934433,1.0755220651626587,-2.605053663253784,-10.33590030670166,-0.533971905708313,1.9940394163131714,4.05286979675293,0.17972907423973083,-1.5886591672897339,-0.45613810420036316,1.8834465742111206
13,33762,33760,-0.007599255070090294,0.13333041965961456,1.081154227256775,-0.44575023651123047,-10.691606521606445,-1.0943683385849,1.9935410022735596,4.053845405578613,0.18142278492450714,-1.4307303428649902,-0.49859321117401123,1.8710668087005615
14,33772,33770,0.005113350693136454,0.05093898996710777,1.1006267070770264,1.4754011631011963,-12.994178771972656,-1.4095268249511719,1.9929771423339844,4.0539422035217285,0.18316547572612762,-1.3255783319473267,-0.4404848515987396,1.8803201913833618
15,33782,33780,0.012025141157209873,-0.0964323878288269,1.1062153577804565,4.542417526245117,-14.484423637390137,-1.8789783716201782,1.9918642044067383,4.054470539093018,0.18325258791446686,-1.071134328842163,-0.43167221546173096,1.8630506992340088
16,33792,33790,0.0011952708009630442,-0.06273683905601501,1.087260127067566,5.620494365692139,-13.091704368591309,-1.938643217086792,1.9911296367645264,4.053503513336182,0.1850334256887436,-0.8433851599693298,-0.3744189143180847,1.8472017049789429
17,33802,33800,0.03765268996357918,-0.027057932689785957,1.0780266523361206,3.9263062477111816,-10.461457252502441,-1.6403857469558716,1.9930977821350098,4.055294990539551,0.1871456801891327,-0.9656391739845276,-0.31172704696655273,1.8412317037582397
18,33812,33810,0.07150917500257492,-0.11518622189760208,1.074402093887329,2.2587180137634277,-8.95641803741455,-2.5548343658447266,1.9922188520431519,4.051642417907715,0.18933124840259552,-0.7044690251350403,0.4063063859939575,1.9975706338882446
19,33822,33820,0.006895451806485653,0.05717016011476517,0.9894419312477112,-2.258538246154785,-8.660486221313477,-3.8169612884521484,1.9919394254684448,4.051387310028076,0.19160723686218262,-0.5625708699226379,0.31356650590896606,1.9392426013946533
20,33832,33830,-0.035373203456401825,0.0567607507109642,1.0163124799728394,-8.060648918151855,-5.327308654785156,-4.815246105194092,1.9917457103729248,4.05418062210083,0.1943739354610443,-0.4962752163410187,0.12496085464954376,1.8631094694137573
21,33842,33840,-0.014040959067642689,0.086880162358284,1.003806710243225,-17.90570068359375,-6.279715538024902,-3.5318233966827393,1.9925639629364014,4.054638862609863,0.1968335062265396,-0.5545512437820435,-0.16797921061515808,1.7795714139938354
22,33852,33850,0.011912266723811626,-0.03195244073867798,1.0224577188491821,-18.823759078979492,-5.122087001800537,-3.150635004043579,1.993228793144226,4.053955554962158,0.19705811142921448,-0.5118887424468994,-0.3329474627971649,1.748510479927063
23,33862,33860,-0.013456090353429317,0.02452525869011879,1.0676075220108032,-16.70022964477539,-4.68379020690918,-3.0947349071502686,1.9930272102355957,4.053094387054443,0.19909854233264923,-0.5509205460548401,-0.6118062138557434,1.699568748474121
24,33872,33870,0.013848135247826576,-0.030098535120487213,0.9295872449874878,-11.07553768157959,-3.861647844314575,-3.093836545944214,1.99248206615448,4.052649974822998,0.20123519003391266,-0.44914722442626953,-0.7438791990280151,1.6699891090393066
25,33882,33880,-0.015144492499530315,0.02227083034813404,1.0448336601257324,-5.202849388122559,-10.610041618347168,-1.94071626663208,1.9921823740005493,4.05303430557251,0.20210087299346924,-0.4163724184036255,-1.0013115406036377,1.6168100833892822
26,33892,33890,0.01407851092517376,-0.05389869958162308,1.0902880430221558,3.5478508472442627,-5.122997760772705,-2.4858837127685547,1.993112564086914,4.052250385284424,0.20400391519069672,-0.5575092434883118,-1.033492922782898,1.6013083457946777
27,33902,33900,0.026344342157244682,0.04185499623417854,1.063966155052185,10.215226173400879,-11.391229629516602,-1.9858278036117554,1.9919637441635132,4.0521087646484375,0.2064579576253891,-0.3260698616504669,-0.9454588294029236,1.5723570585250854
28,33912,33910,0.03393736109137535,-0.007033830508589745,1.0060104131698608,13.644122123718262,-13.348575592041016,-1.7608529329299927,1.9920611381530762,4.05059814453125,0.20587195456027985,-0.3761712908744812,-0.7652258276939392,1.5734330415725708
29,33922,33920,-0.053718723356723785,-0.025698866695165634,1.0205421447753906,13.54012393951416,-15.529315948486328,-2.2344837188720703,1.9934055805206299,4.049985408782959,0.20768173038959503,-0.4135846197605133,-0.5572037100791931,1.5789109468460083
30,33932,33930,-0.012138528749346733,-0.003805124666541815,1.0164152383804321,10.161331176757812,-15.06855297088623,-2.3126611709594727,1.9914783239364624,4.04985237121582,0.2100997269153595,-0.07516177743673325,-0.5409204363822937,1.5309176445007324
31,33942,33940,0.03161892294883728,-0.07611764967441559,1.0086750984191895,5.227018356323242,-16.45893669128418,-1.7186005115509033,1.9904590845108032,4.04824686050415,0.21218840777873993,0.1116400957107544,-0.4231184422969818,1.512223720550537
32,33952,33950,0.047760315239429474,-0.10863589495420456,1.060809850692749,-1.216173529624939,-15.663301467895508,-1.5761454105377197,1.9903829097747803,4.047963619232178,0.21455273032188416,0.3056581914424896,-0.557756245136261,1.4802378416061401
33,33962,33960,0.04805164039134979,-0.08229835331439972,0.9748139381408691,-2.3365719318389893,-12.864272117614746,-1.821134090423584,1.9911596775054932,4.047501564025879,0.21663187444210052,0.22402653098106384,-0.5798614025115967,1.4805737733840942
34,33972,33970,-0.008337363600730896,-0.05537128448486328,0.9854606986045837,-2.4660232067108154,-8.806553840637207,-2.0657405853271484,1.9908524751663208,4.048161029815674,0.21882259845733643,0.4115784168243408,-0.6158378720283508,1.4565187692642212
35,33982,33980,0.002712201327085495,-0.0015236686449497938,0.9448372721672058,-1.2118535041809082,-6.292429447174072,-1.9602608680725098,1.9934386014938354,4.047747611999512,0.22195149958133698,0.21822908520698547,-0.5606690645217896,1.4584834575653076
36,33992,33990,0.0448918454349041,0.05157940462231636,0.8768023252487183,2.8170535564422607,-6.639688968658447,-1.8451592922210693,1.993257999420166,4.047701835632324,0.22423416376113892,0.407879501581192,-0.5470615029335022,1.4302946329116821
37,34002,34000,0.007687245029956102,0.039993766695261,0.9516438245773315,5.368180274963379,-8.881844520568848,-1.7821054458618164,1.9927866458892822,4.047502517700195,0.22639498114585876,0.6371323466300964,-0.4822056293487549,1.4033522605895996
38,34012,34010,0.0199882835149765,0.03644493967294693,0.9653370976448059,7.047116756439209,-9.69187068939209,-1.4257917404174805,1.991313099861145,4.048569679260254,0.22649270296096802,0.778450608253479,-0.6044418811798096,1.3851510286331177
39,34022,34020,0.01434366125613451,0.04437124729156494,1.0165376663208008,8.964727401733398,-11.668120384216309,-1.1701074838638306,1.990318775177002,4.048144817352295,0.22836226224899292,1.0293501615524292,-0.44468289613723755,1.3618879318237305
40,34032,34030,-0.016692860051989555,0.04301556572318077,1.0471078157424927,8.226208686828613,-10.025896072387695,-0.7871597409248352,1.9912362098693848,4.047652721405029,0.23041482269763947,0.8845935463905334,-0.3579706847667694,1.3716719150543213
41,34042,34040,0.06618987768888474,0.0546315498650074,0.977817952632904,8.184926986694336,-4.540102958679199,-0.9477423429489136,1.9933358430862427,4.0478386878967285,0.2321733981370926,0.6913061141967773,-0.2762485146522522,1.3773859739303589
42,34052,34050,0.0043158456683158875,-0.019573822617530823,0.9598129987716675,4.840437412261963,-8.826828956604004,-0.028810322284698486,1.9923745393753052,4.048674583435059,0.23448462784290314,0.9585670232772827,-0.28875190019607544,1.3666799068450928
43,34062,34060,-0.11828365921974182,-0.004056344740092754,0.989208996295929,4.096904754638672,-9.27394962310791,-0.011976692825555801,1.9921103715896606,4.047435760498047,0.2363348752260208,0.9777847528457642,-0.2512233853340149,1.3699734210968018
44,34072,34070,-0.09376280009746552,0.05605289712548256,0.9716053009033203,1.0178120136260986,-5.9299492835998535,0.43772345781326294,1.9921938180923462,4.0475053787231445,0.23826409876346588,1.1320888996124268,-0.1763586848974228,1.3663536310195923
45,34082,34080,-0.013812360353767872,0.004867012612521648,0.9636901617050171,2.267512321472168,-7.198620796203613,-0.4058382511138916,1.9899641275405884,4.045032978057861,0.23896875977516174,1.2867025136947632,-0.12324897944927216,1.3544772863388062
46,34092,34090,-0.05650828033685684,0.11539877951145172,0.9722540378570557,2.2247726917266846,-6.660720348358154,-0.3362042307853699,1.9875555038452148,4.045691967010498,0.24060194194316864,1.4867945909500122,-0.14992228150367737,1.3541663885116577
47,34102,34100,-0.016270849853754044,0.001652386854402721,0.9993528127670288,3.340651750564575,-3.817483425140381,-0.808112382888794,1.9860402345657349,4.0458197593688965,0.24235446751117706,1.6145046949386597,-0.06966760754585266,1.3389205932617188
48,34112,34110,-0.015509070828557014,0.003994592931121588,1.0105093717575073,1.9616131782531738,0.7118433117866516,-0.8061858415603638,1.98646879196167,4.046846866607666,0.2452661395072937,1.6682868003845215,-0.0027557462453842163,1.3228367567062378
49,34122,34120,-0.021164339035749435,0.021023070439696312,1.0300229787826538,3.4751038551330566,3.6557981967926025,-0.7056319713592529,1.9864121675491333,4.047581672668457,0.24703024327754974,1.6761189699172974,-0.015304521657526493,1.3268532752990723
50,34132,34130,0.0196839552372694,-0.036904770880937576,0.9574834704399109,1.935380458831787,9.985877990722656,-1.0409799814224243,1.9858518838882446,4.046664237976074,0.2470754086971283,1.5795691013336182,0.1239142045378685,1.297222375869751
51,34142,34140,0.05232447013258934,-0.09603308886289597,0.8932982087135315,2.8251798152923584,8.843608856201172,-0.8571558594703674,1.9861541986465454,4.046553134918213,0.24905328452587128,1.4369672536849976,0.17939718067646027,1.2832111120224
52,34152,34150,0.0353831946849823,-0.07519083470106125,0.9068314433097839,1.219290852546692,9.279813766479492,-1.0949199199676514,1.9860661029815674,4.046855449676514,0.2515380084514618,1.3645272254943848,0.14187555015087128,1.2852064371109009
53,34162,34160,0.0256881732493639,-0.045910630375146866,0.9271881580352783,-1.474845051765442,8.403548240661621,-1.3494796752929688,1.9862275123596191,4.046703338623047,0.25323033332824707,1.3055665493011475,0.15358509123325348,1.271531105041504
54,34172,34170,0.005906363483518362,-0.024400709196925163,0.9606716632843018,-0.3413275182247162,6.5069122314453125,-1.905068278312683,1.9872545003890991,4.046917915344238,0.2548601031303406,1.1741621494293213,0.05964185670018196,1.2686823606491089
55,34182,34180,-0.007048324216157198,-0.00980792474001646,0.9692443013191223,0.09176025539636612,4.12644100189209,-1.7676148414611816,1.9867552518844604,4.047457218170166,0.25825729966163635,1.1637284755706787,0.06536988914012909,1.2495383024215698
56,34192,34190,0.07571393996477127,-0.03985028713941574,0.9308112859725952,1.4536868333816528,3.58095645904541,-1.3781591653823853,1.9879313707351685,4.0524420738220215,0.2598217725753784,0.9919102191925049,-0.5192458033561707,1.3463881015777588
57,34202,34200,0.10502060502767563,-0.12153517454862595,0.9619979858398438,3.158148765563965,2.3188211917877197,-2.0908455848693848,1.9891810417175293,4.053084850311279,0.2615305185317993,0.8411505818367004,-0.4081764221191406,1.3100764751434326
58,34212,34210,0.04044798016548157,-0.10899245738983154,0.9938579201698303,8.373969078063965,0.5214328169822693,-1.5148231983184814,1.9896485805511475,4.052880764007568,0.26766127347946167,0.7565188407897949,-0.25214070081710815,1.2703770399093628
59,34222,34220,-0.024714071303606033,-0.09075269103050232,0.9961822628974915,14.434647560119629,-1.4380757808685303,-1.2905594110488892,1.9891788959503174,4.053011894226074,0.2695053815841675,0.788745105266571,-0.06444021314382553,1.2435052394866943
60,34232,34230,-0.03242306038737297,-0.03795246407389641,0.9712747931480408,17.676864624023438,-3.4827444553375244,-0.9170998334884644,1.9887434244155884,4.05383825302124,0.27123841643333435,0.8606820702552795,0.031457703560590744,1.245125651359558
61,34242,34240,-0.06419484317302704,-0.011679851450026035,0.972801685333252,17.163015365600586,-4.3072404861450195,-0.7396265864372253,1.989467978477478,4.053612232208252,0.27238157391548157,0.8666743040084839,0.31009992957115173,1.2193870544433594
62,34252,34250,-0.043545253574848175,-0.01754331775009632,0.953745424747467,14.059124946594238,-3.812734365463257,0.02016502059996128,1.9883804321289062,4.052375316619873,0.27408790588378906,0.9581210613250732,0.555219829082489,1.2038567066192627
63,34262,34260,-0.03548869490623474,0.03279866650700569,0.9230061173439026,7.383436679840088,-2.438847780227661,-0.6573448181152344,1.9887431859970093,4.052249908447266,0.2757316529750824,0.8667003512382507,0.6342431306838989,1.2031406164169312
64,34272,34270,-0.03121429868042469,0.07557440549135208,0.9128772020339966,0.318020761013031,-0.9992090463638306,-0.5792814493179321,1.9881033897399902,4.052198886871338,0.27732452750205994,0.9117590188980103,0.6656931638717651,1.1993106603622437
65,34282,34280,-0.006554357707500458,0.07392404228448868,0.9133779406547546,-4.29323148727417,0.8018498420715332,-0.6653327345848083,1.9881666898727417,4.052282810211182,0.277858704328537,0.925462007522583,0.675051748752594,1.1900554895401
66,34292,34290,0.009731297381222248,0.02572557143867016,0.9391419887542725,-5.820050239562988,0.8826037645339966,-0.6815763115882874,1.9875935316085815,4.052833557128906,0.2792721390724182,0.93863445520401,0.6231878399848938,1.1852651834487915
67,34302,34300,0.03165481612086296,-0.0019864197820425034,0.9194822907447815,-5.883138179779053,3.1046652793884277,-0.9278733730316162,1.986723780632019,4.052371025085449,0.281943678855896,0.9024520516395569,0.6285577416419983,1.1701478958129883
68,34312,34310,0.016036389395594597,0.010410040616989136,0.94759601354599,-4.473332405090332,2.9358954429626465,-0.8758717775344849,1.9864438772201538,4.052428245544434,0.2832684814929962,0.8711267113685608,0.5690302848815918,1.1624253988265991
69,34322,34320,0.006765586789697409,0.008600390516221523,0.9629234075546265,-1.6129300594329834,3.4612603187561035,-0.6960681080818176,1.985052466392517,4.053012847900391,0.2845366597175598,0.9849616885185242,0.5484986901283264,1.1647298336029053
70,34332,34330,0.013273078016936779,0.0030067279003560543,0.9569585919380188,0.5392847061157227,3.7194559574127197,-0.6190771460533142,1.9829542636871338,4.052460670471191,0.2856668531894684,1.0741769075393677,0.5683489441871643,1.1649855375289917
71,34342,34340,0.026698775589466095,-0.059239402413368225,0.9607270359992981,1.3664212226867676,4.3823771476745605,-0.64179527759552,1.983003854751587,4.053324222564697,0.2855822443962097,0.962576687335968,0.5279054045677185,1.1601667404174805
72,34352,34350,0.020549392327666283,0.03648390620946884,0.9582309722900391,2.8630318641662598,6.63244104385376,-0.5504755973815918,1.981317162513733,4.052408218383789,0.2867202162742615,0.9332605600357056,0.5940214395523071,1.150546669960022
73,34362,34360,0.009617913514375687,-0.06696877628564835,0.9812172055244446,2.124755859375,8.242081642150879,-0.4510878622531891,1.9818450212478638,4.052262306213379,0.28769341111183167,0.778843879699707,0.6499088406562805,1.1360634565353394
74,34372,34370,0.010563431307673454,-0.03557489439845085,0.9762455821037292,1.694840431213379,8.863972663879395,-0.6538217067718506,1.9800972938537598,4.0532402992248535,0.2885797917842865,0.8508033156394958,0.6989096999168396,1.1417121887207031
75,34382,34380,-0.010548713617026806,-0.09752082079648972,0.9865260124206543,0.6686440110206604,8.595136642456055,-0.46317431330680847,1.9799754619598389,4.052236557006836,0.2893170714378357,0.671710193157196,0.725581705570221,1.1245112419128418
76,34392,34390,-0.04084092378616333,-0.1476934403181076,1.0062650442123413,0.1685909479856491,8.713858604431152,-0.451481431722641,1.9803617000579834,4.052295684814453,0.29014042019844055,0.5066466927528381,0.7418057322502136,1.1123132705688477
77,34402,34400,-0.06612882018089294,-0.11132991313934326,1.0161278247833252,-1.811727523803711,8.35981273651123,-0.4007702171802521,1.9794566631317139,4.051900386810303,0.29096826910972595,0.4220704138278961,0.733583927154541,1.1076455116271973
78,34412,34410,-0.049817539751529694,-0.041396502405405045,0.9997031688690186,-3.687502384185791,6.9168572425842285,-0.7988128066062927,1.9790452718734741,4.051862716674805,0.2915193438529968,0.3494871258735657,0.6906779408454895,1.1054770946502686
79,34422,34420,-0.00020319603208918124,-0.012036822736263275,0.9668360948562622,-4.931052207946777,4.723870754241943,-1.2022700309753418,1.9789235591888428,4.05331563949585,0.29237228631973267,0.23946908116340637,0.5474429726600647,1.098356008529663
80,34432,34430,0.009681492112576962,-0.027025021612644196,0.9539181590080261,-3.3157877922058105,2.2137277126312256,-1.8088520765304565,1.9781179428100586,4.053311824798584,0.2931848466396332,0.1772841066122055,0.4904811382293701,1.0846545696258545
81,34442,34440,-0.012073337100446224,0.04751767963171005,0.9189541935920715,-4.108262538909912,0.17162905633449554,-1.7248950004577637,1.977914571762085,4.053065299987793,0.2916628420352936,0.1500498354434967,0.5181713104248047,1.0614464282989502
82,34452,34450,0.009739352390170097,0.03224657475948334,0.9682353138923645,-3.0924174785614014,-1.4036136865615845,-1.6184319257736206,1.9775030612945557,4.052593231201172,0.29219672083854675,0.14886519312858582,0.534117579460144,1.041159749031067
83,34462,34460,0.023345092311501503,-0.014436820521950722,0.9517996311187744,-0.6620316505432129,-2.784609317779541,-1.7005563974380493,1.9772645235061646,4.05316686630249,0.2926875352859497,0.17548096179962158,0.4332592785358429,1.0268707275390625
84,34472,34470,0.019580822438001633,-0.09263452142477036,0.9221170544624329,1.6047953367233276,-4.480910301208496,-1.2314752340316772,1.9765805006027222,4.052329063415527,0.29315146803855896,0.2236006259918213,0.4524078667163849,1.0115114450454712
85,34482,34480,-0.012435464188456535,-0.030174562707543373,0.961665689945221,1.6045855283737183,-4.192111492156982,-0.49901095032691956,1.9752753973007202,4.0514655113220215,0.2945295572280884,0.2934642434120178,0.4843575060367584,1.0032588243484497
86,34492,34490,-0.03400162234902382,0.044166725128889084,1.016015887260437,-1.1610276699066162,-1.031920313835144,-0.5189288258552551,1.9725669622421265,4.050251007080078,0.29489028453826904,0.5511942505836487,0.6429616808891296,1.0166605710983276
87,34502,34500,-0.009190638549625874,0.027491478249430656,1.003591775894165,-2.7524969577789307,2.6808531284332275,0.49634072184562683,1.9725217819213867,4.050453186035156,0.29534903168678284,0.4784635305404663,0.583523690700531,1.0127907991409302
88,34512,34510,0.007378287613391876,-0.0010694796219468117,0.9951111674308777,-3.679558753967285,5.470130443572998,-0.16882969439029694,1.9721876382827759,4.049654483795166,0.29544535279273987,0.4469560980796814,0.5922197103500366,1.0175660848617554
89,34522,34520,-0.0158185213804245,0.07556850463151932,0.9413179755210876,-6.228264331817627,9.874271392822266,-0.6982539296150208,1.9728879928588867,4.04927921295166,0.2959151268005371,0.2010735124349594,0.4866273105144501,0.9959438443183899
90,34532,34530,-0.031644366681575775,0.1422295719385147,0.9292775988578796,-9.389778137207031,12.507064819335938,0.610093355178833,1.9726896286010742,4.049227237701416,0.29625818133354187,-0.008014379069209099,0.3538500666618347,0.9873159527778625
91,34542,34540,0.022768421098589897,-0.026518689468503,0.9649057388305664,-8.652179718017578,10.230415344238281,0.03556884825229645,1.9715967178344727,4.050303936004639,0.29705870151519775,-0.055407412350177765,0.1958717554807663,0.9965436458587646
92,34552,34550,0.05496671795845032,-0.07529731094837189,1.0088474750518799,-7.540646553039551,6.707348346710205,0.34447258710861206,1.96945321559906,4.050009250640869,0.29734674096107483,0.00013776440755464137,0.053011830896139145,1.0108814239501953
93,34562,34560,0.026825683191418648,-0.12301605939865112,1.064659833908081,-2.980515480041504,2.1158673763275146,0.6848266124725342,1.9681724309921265,4.050034523010254,0.29757165908813477,0.04939320310950279,-0.038277000188827515,1.0216846466064453
94,34572,34570,0.03199327737092972,-0.050468809902668,0.9610358476638794,0.824776291847229,1.516740322113037,0.44660112261772156,1.9681328535079956,4.049704074859619,0.2969566881656647,-0.01576063595712185,0.04230891913175583,1.0237656831741333
95,34582,34580,0.042626891285181046,0.01318272203207016,0.9431037902832031,3.852836847305298,-0.8889688849449158,1.1614408493041992,1.9678698778152466,4.049471855163574,0.29718682169914246,-0.04899835214018822,0.09530805796384811,1.0315674543380737
96,34592,34590,-0.022537611424922943,-0.02211039885878563,1.0266616344451904,4.7795491218566895,-0.6663022041320801,1.4353313446044922,1.966129183769226,4.04946231842041,0.2973648011684418,0.08908668160438538,0.16414415836334229,1.051959753036499
97,34602,34600,0.009768817573785782,-0.05208824947476387,0.9251786470413208,5.151378631591797,1.6265296936035156,1.5593020915985107,1.9661041498184204,4.049405574798584,0.29758355021476746,0.03322812169790268,0.24866876006126404,1.0645321607589722
98,34612,34610,0.03643253445625305,0.05427578464150429,0.9210387468338013,2.537569046020508,5.476061820983887,1.5221837759017944,1.965764045715332,4.049112319946289,0.2946408987045288,-0.006279064808040857,0.310595840215683,1.0823960304260254
99,34622,34620,0.062066081911325455,0.11269155144691467,0.9861447811126709,-2.089627265930176,7.233139991760254,1.7345854043960571,1.9656320810317993,4.047817230224609,0.2946111261844635,-0.17329055070877075,0.29852962493896484,1.096032977104187
100,34632,34630,0.0583205372095108,0.014672461897134781,0.9801845550537109,-5.6650285720825195,6.3643388748168945,1.605312466621399,1.963452696800232,4.048094272613525,0.29447442293167114,-0.07875606417655945,0.21390320360660553,1.1169841289520264
101,34642,34640,-0.0014376459876075387,-0.013007808476686478,1.0349174737930298,-8.717840194702148,6.0818023681640625,1.4581891298294067,1.9638601541519165,4.047773361206055,0.2929067611694336,-0.24123722314834595,0.08490559458732605,1.1240770816802979
102,34652,34650,-0.04318695515394211,0.03053312376141548,1.0229521989822388,-8.848564147949219,4.953182220458984,1.531084656715393,1.9642219543457031,4.048377990722656,0.2926783859729767,-0.36929798126220703,-0.0683317556977272,1.1323620080947876
103,34662,34660,-0.0540989451110363,0.11351175606250763,1.0182160139083862,-6.163454055786133,3.4096181392669678,2.039832592010498,1.9638298749923706,4.047453880310059,0.29250484704971313,-0.38963302969932556,-0.037066180258989334,1.1591346263885498
104,34672,34670,-0.007090775296092033,0.043367620557546616,0.9955093860626221,-3.6639654636383057,3.21160888671875,2.0116748809814453,1.963749885559082,4.047346591949463,0.2938770651817322,-0.47998884320259094,-0.12760670483112335,1.1758077144622803
105,34682,34680,0.0020598231349140406,-0.015223738737404346,1.1095263957977295,0.3789171874523163,-1.1050171852111816,2.84147572517395,1.962388038635254,4.046038627624512,0.29382023215293884,-0.427297979593277,-0.07888805866241455,1.2102617025375366
106,34692,34690,0.047753896564245224,-0.08983781933784485,1.064422845840454,3.4532690048217773,-1.9869316816329956,2.590839147567749,1.9611653089523315,4.045891761779785,0.2937905192375183,-0.35155436396598816,-0.057918574661016464,1.2386229038238525
107,34702,34700,-0.01663985848426819,-0.02976318635046482,1.104158878326416,5.676551818847656,-4.9182515144348145,2.840503215789795,1.9596575498580933,4.045246601104736,0.2938680648803711,-0.3396233320236206,0.020775379613041878,1.266676664352417
108,34712,34710,0.019869770854711533,-0.060382112860679626,0.9982935786247253,4.8867363929748535,0.002772149397060275,2.3626089096069336,1.9595969915390015,4.044534206390381,0.2947089970111847,-0.36512941122055054,0.09414837509393692,1.2920005321502686
109,34722,34720,0.024495478719472885,-0.02694557048380375,1.023780345916748,2.0094573497772217,-0.1853622943162918,2.506387948989868,1.959579348564148,4.0442023277282715,0.29495498538017273,-0.39976203441619873,0.1414536088705063,1.319281816482544
110,34732,34730,0.0617600679397583,-0.07275116443634033,1.051150918006897,0.04129840433597565,-2.5046682357788086,2.9015390872955322,1.9587889909744263,4.043405532836914,0.2952384352684021,-0.3935600817203522,0.142503559589386,1.3453482389450073
111,34742,34740,0.021732447668910027,-0.0601712130010128,1.0487961769104004,-2.404937505722046,-1.786313533782959,2.832326889038086,1.9578903913497925,4.044094085693359,0.297062486410141,-0.3072633445262909,0.10844521969556808,1.3697996139526367
112,34752,34750,-0.0021609622053802013,-0.0046035111881792545,1.039568305015564,-3.9055402278900146,-1.3940815925598145,2.0058422088623047,1.956485390663147,4.04364013671875,0.2975110113620758,-0.23650196194648743,0.02638941816985607,1.3908497095108032
113,34762,34760,-0.008930309675633907,0.04728320986032486,1.0054184198379517,-6.320237636566162,4.242360591888428,1.7887996435165405,1.9566162824630737,4.043787479400635,0.29804572463035583,-0.2795468866825104,-0.07175726443529129,1.4059979915618896
114,34772,34770,-0.02118789777159691,0.07547314465045929,1.018224835395813,-5.836048603057861,13.750365257263184,1.0775331258773804,1.9567055702209473,4.042516708374023,0.298412561416626,-0.4831019341945648,-0.03405708074569702,1.4313914775848389
115,34782,34780,0.02137731947004795,0.015491651371121407,0.9938119649887085,-3.5887362957000732,18.522624969482422,1.3237686157226562,1.9559459686279297,4.042115688323975,0.2989068031311035,-0.6288464665412903,-0.05723506957292557,1.4486662149429321
116,34792,34790,-0.008000697940587997,0.00037747161695733666,1.040079116821289,-1.0836198329925537,22.518131256103516,0.5783060789108276,1.9560608863830566,4.042094707489014,0.29944345355033875,-0.9169839024543762,-0.10460294783115387,1.4546440839767456
117,34802,34800,-0.008308646269142628,0.012076446786522865,1.0322868824005127,-0.10959995537996292,20.522083282470703,1.55209481716156,1.95539391040802,4.041151523590088,0.30004993081092834,-1.0455471277236938,-0.12569352984428406,1.4612407684326172
118,34812,34810,-0.0610729455947876,0.0863228514790535,0.9882907271385193,0.8306992053985596,18.86945915222168,0.9319491982460022,1.9555723667144775,4.0412373542785645,0.3016297519207001,-1.2760648727416992,-0.14167165756225586,1.4719512462615967
119,34822,34820,-0.04922179877758026,0.14417077600955963,0.9179313778877258,0.8102328777313232,13.90787410736084,1.0943266153335571,1.9566078186035156,4.0413737297058105,0.30225440859794617,-1.4078292846679688,-0.14753587543964386,1.4730199575424194
120,34832,34830,0.0028479713946580887,0.1219177395105362,0.9309850335121155,0.38357335329055786,7.9144086837768555,1.0451117753982544,1.95527982711792,4.040025234222412,0.303031325340271,-1.4141180515289307,-0.06927888095378876,1.4930070638656616
121,34842,34840,0.011543752625584602,0.03866170719265938,1.037790060043335,0.036828793585300446,1.499697208404541,0.6746856570243835,1.9555085897445679,4.04002571105957,0.30155813694000244,-1.5590122938156128,-0.07830862700939178,1.5055826902389526
122,34852,34850,-0.02655179612338543,-0.06569001823663712,1.0604591369628906,0.7845107913017273,-4.1888041496276855,0.5477114319801331,1.955232858657837,4.038661003112793,0.30196720361709595,-1.5674078464508057,-0.007827302441000938,1.5242609977722168
123,34862,34860,-0.048725515604019165,-0.16979534924030304,1.0376312732696533,-0.2427980899810791,-5.566699028015137,0.13253094255924225,1.9550807476043701,4.038605690002441,0.30244535207748413,-1.4886456727981567,-0.02266347035765648,1.525251865386963
124,34872,34870,-0.11380580067634583,-0.04455413669347763,1.0701727867126465,-1.8372658491134644,-3.8840014934539795,0.26501497626304626,1.9546408653259277,4.038544654846191,0.30086469650268555,-1.3913013935089111,-0.04793383553624153,1.5223101377487183
125,34882,34880,-0.07143521308898926,0.06483925133943558,0.980358362197876,-4.198523044586182,-0.2912672758102417,0.4471782445907593,1.9547423124313354,4.038712501525879,0.3012847304344177,-1.335096836090088,-0.09759045392274857,1.515453577041626
126,34892,34890,-0.027420377358794212,0.01488709170371294,0.996790885925293,-6.262598991394043,4.150241374969482,0.23071737587451935,1.9549564123153687,4.038057327270508,0.30169790983200073,-1.3579870462417603,-0.11043000221252441,1.5246191024780273
127,34902,34900,-0.009453434497117996,0.03502322733402252,0.9730222225189209,-5.488473892211914,8.823212623596191,0.13351711630821228,1.9553947448730469,4.0377302169799805,0.30209219455718994,-1.448381781578064,-0.15075258910655975,1.5325844287872314
128,34912,34910,0.020254774019122124,0.05011371523141861,0.9910699129104614,-4.419559478759766,9.185925483703613,0.0009488842915743589,1.9553993940353394,4.037959098815918,0.3017444908618927,-1.5112193822860718,-0.2624363303184509,1.5221333503723145
129,34922,34920,-0.019147921353578568,0.04770427569746971,1.0609803199768066,-2.261512517929077,8.049788475036621,0.16714079678058624,1.9556440114974976,4.038197994232178,0.30206575989723206,-1.6557519435882568,-0.3461288511753082,1.5163087844848633
130,34932,34930,0.017486238852143288,-0.028390061110258102,0.9733632206916809,0.8258932828903198,4.927191734313965,-0.23189939558506012,1.956408143043518,4.037463188171387,0.3024475872516632,-1.7639353275299072,-0.307045578956604,1.5351324081420898
131,34942,34940,0.003569188993424177,-0.04723121225833893,0.9824219346046448,3.3274126052856445,2.4277045726776123,-0.9343296885490417,1.9569157361984253,4.036661624908447,0.30320534110069275,-1.8237197399139404,-0.30599191784858704,1.5355403423309326
132,34952,34950,-0.03603045269846916,0.016093039885163307,0.9989110231399536,3.923322916030884,-3.149902582168579,-0.5064839720726013,1.9562138319015503,4.035746097564697,0.3037049472332001,-1.7215877771377563,-0.2648794651031494,1.5288945436477661
133,34962,34960,0.007942082360386848,-0.0012862901203334332,0.9703801870346069,2.89241361618042,-3.955442428588867,0.03392838314175606,1.9562442302703857,4.035543441772461,0.30412858724594116,-1.6567432880401611,-0.21986471116542816,1.5236724615097046
134,34972,34970,0.03155537322163582,0.044416144490242004,0.9932267069816589,1.070418119430542,-4.499709129333496,0.07063513994216919,1.9561220407485962,4.034176349639893,0.3056435286998749,-1.650962233543396,-0.18902087211608887,1.522800326347351
135,34982,34980,0.06534373760223389,0.010277626104652882,0.9806026816368103,-1.4431941509246826,-3.3335256576538086,-0.08570218831300735,1.956038236618042,4.034152984619141,0.3061109781265259,-1.5568915605545044,-0.19679278135299683,1.5157744884490967
136,34992,34990,0.02661062404513359,-0.014849256724119186,1.0313835144042969,-3.188016653060913,-1.644395351409912,-0.25367471575737,1.9562045335769653,4.034061431884766,0.3065405488014221,-1.5617986917495728,-0.24189989268779755,1.5093419551849365
137,35002,35000,-0.01933170296251774,-0.08164185285568237,1.0337435007095337,-2.7591495513916016,-0.2428879290819168,-0.5134007930755615,1.9561948776245117,4.032805442810059,0.3029744029045105,-1.5813004970550537,-0.30063387751579285,1.5012235641479492
138,35012,35010,-0.05223141983151436,-0.13923434913158417,1.010841727256775,-2.246217966079712,0.30329376459121704,-0.5570616126060486,1.9568307399749756,4.033534049987793,0.30316171050071716,-1.610573649406433,-0.35320356488227844,1.4912664890289307
139,35022,35020,-0.04488810896873474,-0.047926899045705795,1.0336744785308838,-0.7059173583984375,2.526743173599243,-0.9908259510993958,1.9579182863235474,4.033212184906006,0.3033733069896698,-1.668479084968567,-0.38472723960876465,1.4871584177017212
140,35032,35030,0.00836180429905653,0.011068646796047688,0.9990426301956177,1.0366945266723633,1.194985032081604,-0.7597406506538391,1.9582897424697876,4.033167362213135,0.30365994572639465,-1.6536518335342407,-0.3930893838405609,1.4782651662826538
141,35042,35040,0.015806226059794426,-0.008265674114227295,0.9889286160469055,1.0614397525787354,0.9105267524719238,-0.6899203658103943,1.9598332643508911,4.0332112312316895,0.30528512597084045,-1.7805818319320679,-0.37663817405700684,1.477852702140808
142,35052,35050,0.06775261461734772,-0.09708213061094284,0.9917657971382141,2.8099732398986816,-3.4782238006591797,-0.31655970215797424,1.9600282907485962,4.032991886138916,0.305701345205307,-1.7084861993789673,-0.3447478413581848,1.470255732536316
143,35062,35060,0.05311416834592819,-0.06583313643932343,0.9986997246742249,3.3168928623199463,-6.519063949584961,-0.0018122217152267694,1.959513545036316,4.032191753387451,0.30609190464019775,-1.6718531847000122,-0.3041427433490753,1.4724277257919312
144,35072,35070,0.046347904950380325,-0.11371713131666183,1.0196317434310913,1.8858487606048584,-8.148900032043457,-0.62729412317276,1.9598652124404907,4.032205581665039,0.30936577916145325,-1.5756936073303223,-0.25762104988098145,1.4751290082931519
145,35082,35080,0.023550914600491524,-0.08256742358207703,0.9941546320915222,2.245570659637451,-8.444550514221191,-0.02410978451371193,1.960831642150879,4.031960487365723,0.3098563551902771,-1.5308517217636108,-0.21691499650478363,1.4760359525680542
146,35092,35090,-0.0006122847553342581,-0.025675024837255478,0.9883240461349487,1.0660325288772583,-7.270976543426514,-0.3275662958621979,1.9610607624053955,4.031609058380127,0.3103716969490051,-1.4806981086730957,-0.18721526861190796,1.4788674116134644
147,35102,35100,0.0036405608989298344,-0.005682678427547216,0.9971708059310913,-0.5340666770935059,-6.100278854370117,-0.2333572804927826,1.9615020751953125,4.03109884262085,0.31157341599464417,-1.3655612468719482,-0.17903068661689758,1.4746519327163696
148,35112,35110,0.016447128728032112,-0.028193162754178047,0.9714535474777222,-1.528039574623108,-4.757765293121338,-0.5456468462944031,1.9618338346481323,4.031502723693848,0.31211990118026733,-1.276279091835022,-0.19534121453762054,1.4672428369522095
149,35122,35120,0.04244083911180496,-0.03849506005644798,0.9907118678092957,-2.569584369659424,-3.6855547428131104,-0.5312204957008362,1.9616039991378784,4.030581474304199,0.31270885467529297,-1.2026426792144775,-0.14878438413143158,1.4766749143600464
150,35132,35130,0.09026356786489487,-0.07563876360654831,0.9861993193626404,-2.779345989227295,-2.5061416625976562,-0.2958398759365082,1.9629614353179932,4.0312957763671875,0.31321269273757935,-1.2270658016204834,-0.2788514792919159,1.4509758949279785
151,35142,35140,0.08380459249019623,-0.11985702067613602,0.9818813800811768,-1.514026165008545,-2.1628592014312744,-0.7953376770019531,1.9625047445297241,4.031003475189209,0.3116014301776886,-1.1051164865493774,-0.31762856245040894,1.4415215253829956
152,35152,35150,0.033263858407735825,-0.16134406626224518,0.9861361980438232,0.042456597089767456,-3.0379884243011475,-0.7170938849449158,1.9640690088272095,4.03108549118042,0.3119359612464905,-1.1515918970108032,-0.3391737639904022,1.4372642040252686
153,35162,35160,-0.005845886655151844,-0.2154606431722641,0.9693134427070618,1.6844444274902344,-4.254192352294922,-0.793338418006897,1.963818907737732,4.03106689453125,0.31238311529159546,-1.0179065465927124,-0.33160388469696045,1.4290810823440552
154,35172,35170,-0.036884211003780365,-0.22510448098182678,0.9885278344154358,3.7759602069854736,-5.675248622894287,-0.7936221957206726,1.96660315990448,4.029928684234619,0.3120582103729248,-1.1788561344146729,-0.2909807860851288,1.4361354112625122
155,35182,35180,-0.03281879797577858,-0.08610852807760239,1.01158607006073,5.017561912536621,-7.217102527618408,-0.7060735821723938,1.9664698839187622,4.029465198516846,0.312440425157547,-1.0024017095565796,-0.2195012867450714,1.4297077655792236
156,35192,35190,-0.01353437639772892,-0.09884195774793625,0.9755090475082397,5.094423294067383,-5.315884590148926,-0.9869181513786316,1.9683361053466797,4.028748989105225,0.31264743208885193,-1.0654253959655762,-0.13657470047473907,1.4340267181396484
157,35202,35200,-0.015702076256275177,-0.04714064672589302,0.9786222577095032,3.6780550479888916,-9.174071311950684,-1.652512788772583,1.9711047410964966,4.029716968536377,0.31182679533958435,-1.1923779249191284,-0.21790122985839844,1.4116288423538208
158,35212,35210,-0.08165104687213898,-0.028739098459482193,1.0313907861709595,0.7870752215385437,-4.636635780334473,-1.6125715970993042,1.971792221069336,4.029101848602295,0.31210577487945557,-1.054252028465271,-0.15973204374313354,1.3976057767868042
159,35222,35220,-0.01651572436094284,-0.02020963281393051,1.007051706314087,0.036283280700445175,-8.357077598571777,-1.1181963682174683,1.9723378419876099,4.02864933013916,0.31240519881248474,-0.9266646504402161,-0.14059510827064514,1.3808038234710693
160,35232,35230,0.016699032858014107,-0.012152377516031265,0.9885191917419434,-0.31686776876449585,-10.109478950500488,-1.020872950553894,1.973820447921753,4.02876091003418,0.31533780694007874,-0.8438593149185181,-0.13501688838005066,1.3689161539077759
161,35242,35240,0.017351510003209114,-0.12071561068296432,0.983566403388977,0.0435837060213089,-9.88542652130127,-1.1370947360992432,1.9746922254562378,4.0288214683532715,0.3157369792461395,-0.7335337400436401,-0.13469134271144867,1.3568195104599
162,35252,35250,0.008147059939801693,-0.11789754778146744,0.9722845554351807,1.9245009422302246,-10.267001152038574,-1.0449187755584717,1.9754265546798706,4.02863073348999,0.31614696979522705,-0.6141358017921448,-0.11766044795513153,1.3477771282196045
163,35262,35260,-0.014413229189813137,-0.08039543032646179,1.0142215490341187,2.876363515853882,-8.990132331848145,-1.3611699342727661,1.977728247642517,4.029180526733398,0.3164043724536896,-0.6466419100761414,-0.15219594538211823,1.3358054161071777
164,35272,35270,0.010427764616906643,-0.08516819775104523,0.9725121855735779,3.970630407333374,-6.988450527191162,-1.5287225246429443,1.9785349369049072,4.02892541885376,0.31410273909568787,-0.5351076126098633,-0.09070561081171036,1.326269268989563
165,35282,35280,0.05334034189581871,-0.057278282940387726,0.9072217345237732,3.6271820068359375,-5.318945407867432,-1.7244045734405518,1.9787260293960571,4.029313564300537,0.31435421109199524,-0.38159802556037903,-0.09455537796020508,1.3067501783370972
166,35292,35290,0.07016196846961975,0.036082252860069275,0.9471876621246338,2.846358060836792,-3.9132208824157715,-1.7608473300933838,1.9790161848068237,4.0291032791137695,0.31453272700309753,-0.2696848213672638,-0.022117121145129204,1.2903296947479248
167,35302,35300,0.04014088958501816,0.03295155242085457,0.9884190559387207,1.3884540796279907,-5.05343770980835,-1.6364234685897827,1.9780539274215698,4.0294389724731445,0.3131498098373413,-0.0938136950135231,-0.0475747250020504,1.267581820487976
168,35312,35310,0.004172267857939005,0.00022417929721996188,0.9855557680130005,1.1865496635437012,-6.472193241119385,-1.418129563331604,1.9784542322158813,4.028146743774414,0.3131156265735626,-0.08593065291643143,-0.009463741444051266,1.2518084049224854
169,35322,35320,0.0023440008517354727,-0.047855816781520844,0.9962170124053955,0.5350250005722046,0.7823014259338379,-1.803035855293274,1.980082392692566,4.027098655700684,0.3130178153514862,-0.16796697676181793,0.01867196522653103,1.2380564212799072
170,35332,35330,0.03266870602965355,-0.08588885515928268,1.0002268552780151,1.87655508518219,0.43581047654151917,-1.5714784860610962,1.981024146080017,4.02683162689209,0.316220223903656,-0.1336296796798706,0.04405853524804115,1.220962405204773
171,35342,35340,-0.0037149244453758,-0.09448114037513733,1.0262902975082397,1.9372504949569702,0.5283681154251099,-1.59475839138031,1.9811094999313354,4.025899410247803,0.31635478138923645,-0.11795292049646378,0.07470324635505676,1.2069892883300781
172,35352,35350,-0.03934921324253082,-0.0930333286523819,1.010685682296753,2.5919525623321533,-1.5604498386383057,-0.40706899762153625,1.9835491180419922,4.0260396003723145,0.31640464067459106,-0.24478678405284882,0.04024025797843933,1.1908714771270752
173,35362,35360,0.013243267312645912,-0.06140824407339096,0.9457372426986694,0.4651399254798889,-0.4126461446285248,-0.6557716727256775,1.9832978248596191,4.02638578414917,0.3166787922382355,-0.11673127859830856,0.08172635734081268,1.1820156574249268
174,35372,35370,0.01621137373149395,0.12165626883506775,0.9980871677398682,2.176649808883667,-5.116999626159668,-0.9644705653190613,1.985395073890686,4.026330471038818,0.31887534260749817,-0.21636559069156647,0.1075487956404686,1.178199052810669
175,35382,35380,-0.01619987189769745,0.02169918082654476,1.023091435432434,-0.09913003444671631,-7.779148578643799,-0.8265855312347412,1.9853217601776123,4.026632785797119,0.3192562162876129,-0.03552709519863129,0.06425180286169052,1.169734239578247
176,35392,35390,0.011597122065722942,-0.01846805401146412,1.0067225694656372,1.8811229467391968,-6.561399936676025,-0.9163669943809509,1.9862357378005981,4.0266218185424805,0.3194666802883148,0.012230410240590572,0.08852360397577286,1.1618247032165527
177,35402,35400,0.006325645372271538,0.01015792228281498,1.0185506343841553,1.865434169769287,-6.870449542999268,-0.8818992972373962,1.988675832748413,4.026467800140381,0.31593430042266846,-0.07859190553426743,0.12220549583435059,1.149911642074585
178,35412,35410,-0.03813682869076729,-0.004094360861927271,1.032143235206604,1.368367075920105,-5.099710941314697,-1.0089153051376343,1.9873418807983398,4.0262675285339355,0.3161567747592926,0.14004236459732056,0.16191443800926208,1.1416183710098267
179,35422,35420,-0.0819234848022461,-0.00730757974088192,1.0492494106292725,1.2763272523880005,-4.008894443511963,-1.141841173171997,1.988692283630371,4.025681495666504,0.31621822714805603,0.17264683544635773,0.19485385715961456,1.1301783323287964
180,35432,35430,-0.09130341559648514,0.07364179193973541,1.0595873594284058,1.020656704902649,-1.6530267000198364,-0.8852900862693787,1.9898974895477295,4.026472568511963,0.3155308961868286,0.11018674075603485,0.145979106426239,1.121582269668579
181,35442,35440,-0.06963077187538147,0.1130816787481308,1.0001341104507446,0.5962710976600647,0.5467000007629395,-0.6031308174133301,1.9905471801757812,4.026061058044434,0.3156476318836212,0.16767242550849915,0.17171891033649445,1.111859917640686
182,35452,35450,-0.047691769897937775,0.17958514392375946,0.9983987212181091,-0.03156588226556778,2.029073476791382,-0.2713069021701813,1.9906277656555176,4.025822162628174,0.31584489345550537,0.25403571128845215,0.18248222768306732,1.1061338186264038
183,35462,35460,-0.01570437103509903,0.11398683488368988,1.023697853088379,0.6870399713516235,0.2719435691833496,-0.8609523773193359,1.9911086559295654,4.024168491363525,0.31594592332839966,0.1749693900346756,0.2679092586040497,1.0913537740707397
184,35472,35470,0.041247982531785965,0.04916543886065483,0.9658034443855286,-0.9342191815376282,1.4221709966659546,-0.1159931868314743,1.9921119213104248,4.024930477142334,0.3168053925037384,0.1825556457042694,0.19840943813323975,1.0931681394577026
185,35482,35480,0.004028692375868559,0.07346528768539429,1.029402256011963,0.591029942035675,-2.364504814147949,0.08814065903425217,1.992795705795288,4.024282455444336,0.3169934153556824,0.19677045941352844,0.19978956878185272,1.0874006748199463
186,35492,35490,-0.017257701605558395,0.04022949934005737,1.0449832677841187,-1.2057944536209106,-3.027108907699585,-0.7967308163642883,1.994447112083435,4.023316383361816,0.3170924782752991,0.10609546303749084,0.20586365461349487,1.0792843103408813
187,35502,35500,0.015980446711182594,-0.0355849526822567,0.9708076119422913,-0.9622722268104553,-4.240434169769287,-0.5113492608070374,1.9945385456085205,4.023077011108398,0.32010945677757263,0.2604050636291504,0.20259259641170502,1.0747935771942139
188,35512,35510,-0.060620129108428955,-0.0401991568505764,0.9853936433792114,-0.2270991951227188,-4.868871688842773,-0.45049673318862915,1.9949095249176025,4.02332067489624,0.3205207586288452,0.35298091173171997,0.1986049860715866,1.0721622705459595
189,35522,35520,-0.11263114959001541,0.06782644987106323,1.008577823638916,-0.2466595470905304,-3.1531872749328613,-0.16530632972717285,1.9971582889556885,4.022867202758789,0.3208322525024414,0.2935624420642853,0.19683663547039032,1.0575898885726929
190,35532,35530,-0.06441166251897812,0.1324489712715149,0.9759163856506348,0.32678619027137756,-0.8143636584281921,0.2251536101102829,1.9969608783721924,4.022861957550049,0.3157651722431183,0.36872413754463196,0.19930796325206757,1.0558655261993408
191,35542,35540,-0.03081544302403927,0.16180795431137085,0.9743918776512146,0.9593926668167114,0.8811893463134766,0.35771170258522034,1.997275710105896,4.022040843963623,0.3158433437347412,0.4761796295642853,0.2847631275653839,1.0501160621643066
192,35552,35550,0.019829606637358665,0.12205974012613297,0.9615030288696289,1.1839176416397095,2.2255301475524902,0.22353477776050568,1.9991298913955688,4.023336887359619,0.31584006547927856,0.3930678367614746,0.14111800491809845,1.0706089735031128
193,35562,35560,0.0505550317466259,0.08319395035505295,0.9781168103218079,0.29198527336120605,3.8871517181396484,0.3910726308822632,2.0001962184906006,4.022753715515137,0.31455859541893005,0.36602506041526794,0.16479121148586273,1.064526915550232
194,35572,35570,-0.0033189463429152966,0.0328308530151844,1.043317198753357,0.9771669507026672,4.163155555725098,0.25029757618904114,2.0022225379943848,4.022205829620361,0.31438687443733215,0.242518812417984,0.1847609281539917,1.0495189428329468
195,35582,35580,-0.005943389143794775,-0.02253975346684456,1.0115817785263062,0.9769881367683411,4.645817756652832,0.06702758371829987,2.001868724822998,4.021490097045898,0.31436583399772644,0.2752295136451721,0.2063453644514084,1.053956389427185
196,35592,35590,0.018947478383779526,-0.043122295290231705,0.9636406898498535,-0.1682741343975067,3.8953206539154053,0.03028116561472416,2.0021493434906006,4.020443916320801,0.3142930269241333,0.22928428649902344,0.22597722709178925,1.0457097291946411
197,35602,35600,-0.06109248474240303,-0.0018946339841932058,1.016065001487732,0.11531517654657364,-0.03156081959605217,-0.8738964796066284,2.0028882026672363,4.020327091217041,0.31653714179992676,0.21036335825920105,0.23802511394023895,1.0453747510910034
198,35612,35610,-0.07595018297433853,0.03042750060558319,0.9967267513275146,-0.32665327191352844,-0.04325017333030701,-0.3051615059375763,2.0031204223632812,4.019711494445801,0.3165958821773529,0.21653145551681519,0.234090656042099,1.0416719913482666
199,35622,35620,0.007816396653652191,0.05928457900881767,0.9854593873023987,-2.0147202014923096,1.5999736785888672,-0.04500635340809822,2.003539800643921,4.019839286804199,0.31674012541770935,0.2958879768848419,0.2203419804573059,1.0349950790405273
200,35632,35630,0.04731917753815651,0.04823460802435875,0.9968390464782715,-0.4518062174320221,1.0550930500030518,-0.44471725821495056,2.0049121379852295,4.01899528503418,0.3154281675815582,0.20753717422485352,0.19882582128047943,1.0268000364303589
201,35642,35640,0.04800284653902054,-0.050001341849565506,1.0060386657714844,-1.422921895980835,1.9826650619506836,-0.31378981471061707,2.005300760269165,4.01819372177124,0.3153938055038452,0.19529765844345093,0.18249090015888214,1.0192524194717407
202,35652,35650,0.031035320833325386,-0.14609986543655396,1.0269221067428589,1.3448022603988647,0.955803394317627,-0.559824526309967,2.005373954772949,4.017971515655518,0.31541305780410767,0.2567746639251709,0.1732262372970581,1.015632152557373
203,35662,35660,0.019666451960802078,-0.08729144930839539,1.0010268688201904,0.8684011101722717,2.4546172618865967,-1.050059199333191,2.0061848163604736,4.016946792602539,0.31623926758766174,0.16497980058193207,0.19394272565841675,0.9993860721588135
204,35672,35670,-0.018918927758932114,-0.09682362526655197,0.9918948411941528,-0.04439438879489899,2.6688272953033447,-0.24118351936340332,2.0064754486083984,4.0167927742004395,0.3163314461708069,0.21192263066768646,0.20047055184841156,0.9853494763374329
205,35682,35680,-0.009908637031912804,-0.06970590353012085,0.9930233359336853,0.7207338213920593,2.276151657104492,-0.9736438393592834,2.006096363067627,4.015881538391113,0.3164340555667877,0.242228165268898,0.20139671862125397,0.9801332950592041
206,35692,35690,-0.021549716591835022,-0.04670330137014389,1.00047767162323,-1.4490381479263306,5.698320388793945,-0.13335108757019043,2.0068163871765137,4.014966011047363,0.3164997398853302,0.18636232614517212,0.20470741391181946,0.9597734212875366
207,35702,35700,0.07509249448776245,-0.05626027658581734,1.0118560791015625,-1.4017655849456787,4.878833293914795,0.21825619041919708,2.0069351196289062,4.014249324798584,0.31603145599365234,0.18374578654766083,0.18301798403263092,0.9591823220252991
208,35712,35710,0.11040643602609634,-0.10685144364833832,1.0110911130905151,-0.7421942949295044,5.694346904754639,0.4048781991004944,2.0084903240203857,4.0136399269104,0.31600287556648254,-0.05669546127319336,0.23716434836387634,0.9473199844360352
209,35722,35720,0.048403557389974594,-0.15487203001976013,1.0166689157485962,-1.1193960905075073,5.57700777053833,0.03234578296542168,2.009040594100952,4.013599872589111,0.3161005675792694,-0.05678848549723625,0.21543481945991516,0.9544557332992554
210,35732,35730,-0.009059143252670765,-0.12513379752635956,1.0027868747711182,-1.6578054428100586,5.260232448577881,-0.9113758206367493,2.0094857215881348,4.013612747192383,0.31612688302993774,-0.06558828800916672,0.18748076260089874,0.9589806199073792
211,35742,35740,0.017667848616838455,-0.10778693109750748,0.9458816647529602,-0.956514298915863,3.6176490783691406,-0.6204866766929626,2.0109262466430664,4.012008190155029,0.3161301016807556,-0.21195897459983826,0.23839688301086426,0.9359122514724731
212,35752,35750,0.003259777557104826,-0.0039945426397025585,1.0068591833114624,-0.10283591598272324,-1.6652686595916748,-0.07530596107244492,2.0108628273010254,4.012455940246582,0.31626495718955994,-0.1602993905544281,0.20850776135921478,0.9401901960372925
213,35762,35760,0.008990018628537655,-0.014805592596530914,0.990699291229248,-0.6925090551376343,-2.2121870517730713,1.1072216033935547,2.0118024349212646,4.012156009674072,0.31447169184684753,-0.2100774049758911,0.18610289692878723,0.9374186396598816
214,35772,35770,0.02609325386583805,-0.03122972510755062,1.0267302989959717,-0.10963842272758484,-3.0454905033111572,1.106621265411377,2.0124666690826416,4.012106418609619,0.31438538432121277,-0.16311614215373993,0.1682889610528946,0.9488900899887085
215,35782,35780,0.015813611447811127,-0.010300060734152794,1.0714255571365356,-1.9494191408157349,-0.9710497856140137,0.30575159192085266,2.012950897216797,4.012112617492676,0.31429654359817505,-0.10995817184448242,0.15753717720508575,0.9611835479736328
216,35792,35790,-0.010998427867889404,0.040387410670518875,1.0638757944107056,-1.8405048847198486,0.7671784162521362,-0.14349684119224548,2.012845516204834,4.011838436126709,0.3143250644207001,-0.009778152219951153,0.12232323735952377,0.964937150478363
217,35802,35800,-0.040226660668849945,0.11275164037942886,0.9967404007911682,-2.769585609436035,4.37687349319458,0.004016381222754717,2.015392780303955,4.01206636428833,0.3155708909034729,-0.2009786069393158,0.07153351604938507,0.9630741477012634
218,35812,35810,-0.023654913529753685,0.0864095389842987,0.9488067626953125,-1.2886477708816528,4.595047473907471,-0.17789946496486664,2.0167315006256104,4.012002468109131,0.31567978858947754,-0.2530317008495331,0.03201392665505409,0.9656878709793091
219,35822,35820,-0.05318596959114075,0.16233262419700623,0.9976088404655457,-1.8085438013076782,4.200664520263672,0.31540706753730774,2.0171360969543457,4.011355876922607,0.3158513605594635,-0.2338787317276001,0.08355814963579178,0.9628249406814575
220,35832,35830,0.012720329686999321,0.0888797789812088,0.9697729349136353,-2.019967794418335,2.822648286819458,-0.018892841413617134,2.018221139907837,4.011360168457031,0.31488990783691406,-0.2908838987350464,0.03945821523666382,0.963487982749939
221,35842,35840,-0.02268996834754944,0.06274202466011047,1.094567060470581,0.38836315274238586,-1.062882423400879,0.47077327966690063,2.0191304683685303,4.010981559753418,0.31490013003349304,-0.3093923330307007,0.011239537969231606,0.9642724990844727
222,35852,35850,-0.05178680643439293,0.03326522931456566,1.1194090843200684,0.4323838949203491,-2.6919827461242676,0.8842000365257263,2.018881320953369,4.010847568511963,0.315059095621109,-0.1956012099981308,0.011847952380776405,0.9700376987457275
223,35862,35860,-0.06381040066480637,0.021891210228204727,1.0527089834213257,-0.1712799370288849,-1.322590708732605,0.19372671842575073,2.0212912559509277,4.010571479797363,0.3136383295059204,-0.3824366331100464,0.015942813828587532,0.9760168194770813
224,35872,35870,-0.06872185319662094,0.07219241559505463,0.9728792905807495,-0.16104699671268463,-0.636768102645874,1.1005077362060547,2.0213072299957275,4.009829044342041,0.3138611912727356,-0.26724502444267273,0.07747083902359009,0.9788217544555664
225,35882,35880,-0.013867460191249847,0.001767850830219686,0.9618498682975769,-0.7996848225593567,-2.0525434017181396,1.4148061275482178,2.021320104598999,4.009638786315918,0.3140470087528229,-0.2364756166934967,0.0625779926776886,0.9896859526634216
226,35892,35890,0.02551248110830784,-0.07515407353639603,1.0162434577941895,-1.1778827905654907,-0.5707027912139893,0.6366334557533264,2.0225064754486084,4.009701251983643,0.31407928466796875,-0.2836855351924896,0.03794969618320465,1.0008162260055542
227,35902,35900,0.020423466339707375,0.020913749933242798,1.0289493799209595,-1.4177286624908447,-2.4044065475463867,0.49895045161247253,2.0225846767425537,4.0097432136535645,0.3175041079521179,-0.1751546561717987,0.01478974986821413,1.0049164295196533
228,35912,35910,-0.02458387054502964,-0.013289683498442173,1.0669670104980469,-1.3283236026763916,-3.905580997467041,0.2902719974517822,2.0230722427368164,4.009799957275391,0.317833811044693,-0.1419292837381363,-0.011075160466134548,1.0069082975387573
229,35922,35920,-0.031545527279376984,-0.10603605210781097,1.070461392402649,-1.0379390716552734,-1.6206176280975342,0.00471878657117486,2.023153781890869,4.009708404541016,0.31829044222831726,-0.021947920322418213,-0.03797020763158798,1.0062506198883057
230,35932,35930,-0.0620831698179245,-0.05282377824187279,1.0762760639190674,-0.1046217828989029,-0.4442552328109741,0.38845503330230713,2.024458169937134,4.010091304779053,0.3186017572879791,-0.16217607259750366,-0.13565431535243988,1.0055630207061768
231,35942,35940,-0.03174964338541031,-0.01768225058913231,1.0028616189956665,0.5847480297088623,4.346895217895508,0.32332268357276917,2.0248398780822754,4.00998067855835,0.31917130947113037,-0.10037551820278168,-0.13394354283809662,0.9995218515396118
232,35952,35950,-0.012641320936381817,0.04101242870092392,0.9796040654182434,1.3146203756332397,4.690223217010498,0.24305953085422516,2.026451349258423,4.009700298309326,0.3196662962436676,-0.2370849996805191,-0.11758469045162201,1.0086685419082642
233,35962,35960,0.006956455297768116,0.11268701404333115,0.9387020468711853,2.1990458965301514,3.6588494777679443,0.48396292328834534,2.0275871753692627,4.009120464324951,0.31905728578567505,-0.2863006889820099,-0.08522998541593552,1.0163016319274902
234,35972,35970,0.06256808340549469,0.06954824924468994,0.919045090675354,2.7244420051574707,2.750906229019165,1.0198335647583008,2.0278518199920654,4.008886337280273,0.3195391595363617,-0.24380473792552948,0.03882056102156639,1.0199089050292969
235,35982,35980,0.04692056402564049,0.052307095378637314,0.9973167777061462,2.2539238929748535,0.4885522127151489,0.9556912779808044,2.029362201690674,4.008833885192871,0.31981170177459717,-0.416618287563324,0.07726982980966568,1.0372830629348755
236,35992,35990,0.0016467219684273005,-0.14243416488170624,1.0733850002288818,2.474656343460083,-2.273078680038452,0.2682285010814667,2.0292012691497803,4.008144855499268,0.3160960078239441,-0.2817341089248657,0.10783667117357254,1.0390684604644775
237,36002,36000,0.017257142812013626,-0.10798844695091248,0.9516650438308716,0.5626407265663147,-3.958418369293213,0.8499020338058472,2.029742479324341,4.007709503173828,0.31616857647895813,-0.3043067157268524,0.13246166706085205,1.037834644317627
238,36012,36010,-0.003660352434962988,-0.13072746992111206,0.9281116724014282,-1.6948331594467163,-5.579299449920654,0.6453269720077515,2.030738115310669,4.007776737213135,0.31618139147758484,-0.2993471324443817,0.12101637572050095,1.051466464996338
239,36022,36020,-0.10627074539661407,-0.05191466212272644,1.0192745923995972,-3.759479522705078,-4.672164440155029,0.22387300431728363,2.0307414531707764,4.0086517333984375,0.31635716557502747,-0.13525712490081787,0.06715866178274155,1.0562944412231445
