,timestamp_start,timestamp_end,acc.x,acc.y,acc.z,gyro.x,gyro.y,gyro.z,stateEstimate.x,stateEstimate.y,stateEstimate.z,stabilizer.pitch,stabilizer.roll,stabilizer.yaw
0,23091,23089,0.006977067328989506,0.012306592427194118,1.0477137565612793,-2.431165933609009,-19.59357261657715,-0.3490009605884552,1.9036865234375,3.955928087234497,0.15227003395557404,-1.7268949747085571,0.8396033048629761,3.684922695159912
1,23101,23099,-0.012226127088069916,-0.2572341859340668,1.0548990964889526,-3.7975118160247803,-13.626501083374023,0.0746355727314949,1.902536153793335,3.958037853240967,0.15361225605010986,-1.6206347942352295,0.8631663918495178,3.695281505584717
2,23111,23109,0.04266628250479698,-0.20308080315589905,0.9333161115646362,-4.972538948059082,-9.327886581420898,-0.6207038164138794,1.9033942222595215,3.9596476554870605,0.15188747644424438,-1.5069717168807983,0.8632194995880127,3.7031209468841553
3,23121,23119,0.0581982359290123,-0.11764620244503021,1.0322953462600708,-8.209343910217285,-8.04528522491455,-0.5355196595191956,1.9029873609542847,3.9598171710968018,0.15296238660812378,-1.554017186164856,0.9386761784553528,3.723142385482788
4,23131,23129,-0.056701771914958954,0.011261474341154099,1.0911959409713745,-6.979689121246338,-9.579150199890137,-0.06209106743335724,1.904301643371582,3.959594964981079,0.1539507657289505,-1.4718856811523438,0.8631922602653503,3.722912311553955
5,23141,23139,-0.08723379671573639,0.09126734733581543,1.1161495447158813,-7.14939022064209,-4.602072238922119,-0.5514240860939026,1.9032788276672363,3.961050033569336,0.15427660942077637,-1.308972954750061,0.7061434984207153,3.706902265548706
6,23151,23149,-0.03554922714829445,0.15426300466060638,1.2175589799880981,-6.148991107940674,-11.93227767944336,-0.6109777688980103,1.9053030014038086,3.9609968662261963,0.15539199113845825,-1.3690491914749146,0.7611150145530701,3.709406852722168
7,23161,23159,-0.028569946065545082,0.004485101904720068,1.119572401046753,-7.1984543800354,-11.397461891174316,-0.812707781791687,1.9044935703277588,3.9614086151123047,0.15714140236377716,-1.2588738203048706,0.688267707824707,3.7034482955932617
8,23171,23169,0.015865692868828773,-0.04422222077846527,1.0675556659698486,-6.779972076416016,-13.861579895019531,0.2551930844783783,1.9058362245559692,3.962083101272583,0.1587023288011551,-1.2507209777832031,0.5192265510559082,3.6466245651245117
9,23181,23179,0.013438209891319275,-0.031070265918970108,1.0889266729354858,-6.145207405090332,-14.755956649780273,-0.8743572235107422,1.9056744575500488,3.9613351821899414,0.15783721208572388,-0.9821429252624512,0.6516588926315308,3.716029644012451
10,23191,23189,0.004781393334269524,0.07452276349067688,1.0761830806732178,-7.425002098083496,-12.221382141113281,-1.4013808965682983,1.9047950506210327,3.9604437351226807,0.15935468673706055,-0.7447330355644226,0.6050658822059631,3.7282516956329346
11,23201,23199,0.01801222562789917,0.01913885958492756,1.0811835527420044,-7.484034061431885,-13.946802139282227,-1.5517233610153198,1.903898000717163,3.9630227088928223,0.1620536893606186,-0.5271002054214478,-0.023509223014116287,3.586559534072876
12,23211,23209,-0.008608995005488396,-0.0080372029915452,1.133420467376709,-6.86158561706543,-9.609633445739746,-1.7877223491668701,1.9041117429733276,3.9593400955200195,0.16316111385822296,-0.40227657556533813,0.5857701301574707,3.715871572494507
13,23221,23219,-0.0024610862601548433,0.0003564222133718431,1.1231263875961304,-5.243685722351074,-4.7456512451171875,-1.4123483896255493,1.9055196046829224,3.960354804992676,0.16528843343257904,-0.5014790892601013,0.4556620717048645,3.6658310890197754
14,23231,23229,-0.03581944853067398,0.07335583865642548,1.0839695930480957,-6.344102382659912,-2.7378244400024414,-0.6273419260978699,1.905747413635254,3.9608442783355713,0.16730578243732452,-0.48154115676879883,0.345784455537796,3.6443190574645996
15,23241,23239,-0.09433992207050323,0.009196514263749123,1.1024281978607178,-9.378118515014648,-5.793525695800781,-0.35741981863975525,1.906063437461853,3.960123300552368,0.16722537577152252,-0.5218026638031006,0.20106685161590576,3.6214182376861572
16,23251,23249,-0.054678164422512054,-0.04504387825727463,1.087540626525879,-10.206771850585938,-3.274554967880249,0.20044167339801788,1.9051464796066284,3.957791328430176,0.16931043565273285,-0.48562413454055786,0.10033322870731354,3.6213016510009766
17,23261,23259,-0.011981088668107986,-0.08144593238830566,1.0203205347061157,-10.603880882263184,-5.255829811096191,-0.5521681308746338,1.9043879508972168,3.9573099613189697,0.17149581015110016,-0.37402328848838806,0.004287024028599262,3.626574993133545
18,23271,23269,-0.02758084051311016,-0.06781915575265884,1.0438071489334106,-9.647916793823242,-5.468815803527832,-1.2246805429458618,1.9048314094543457,3.957498550415039,0.17350229620933533,-0.5049442648887634,0.17230594158172607,3.6269454956054688
19,23281,23279,-0.024435535073280334,-0.06317347288131714,0.9858582615852356,-8.353857040405273,-10.38766098022461,-1.3148916959762573,1.9050310850143433,3.95611572265625,0.1726960688829422,-0.48039039969444275,0.20661664009094238,3.618990421295166
20,23291,23289,0.037739235907793045,0.13804525136947632,1.0732557773590088,-9.16783618927002,-11.647884368896484,-1.32284414768219,1.9048818349838257,3.956930160522461,0.17444556951522827,-0.4299752712249756,-0.07183043658733368,3.5856940746307373
21,23301,23299,-0.012631891295313835,0.07264210283756256,0.9939062595367432,-9.784759521484375,-13.382428169250488,-1.8015495538711548,1.9058533906936646,3.956843614578247,0.17691585421562195,-0.3481694459915161,-0.2606743574142456,3.559633731842041
22,23311,23309,0.024291250854730606,0.04119527339935303,1.0113765001296997,-11.578160285949707,-14.04344367980957,-1.9080880880355835,1.905846357345581,3.956879138946533,0.17906205356121063,-0.5239437818527222,-0.32329851388931274,3.531879425048828
23,23321,23319,-0.022396089509129524,-0.0430462472140789,1.0956618785858154,-10.706076622009277,-18.7630558013916,-1.792353868484497,1.9085478782653809,3.95617938041687,0.18069908022880554,-0.15605773031711578,-0.5957899689674377,3.5118253231048584
24,23331,23329,-0.013760010711848736,0.10515691339969635,1.1274490356445312,-8.354811668395996,-18.99180793762207,-1.9073734283447266,1.9071235656738281,3.954662322998047,0.18360185623168945,-0.0913793221116066,-0.5964008569717407,3.495762348175049
25,23341,23339,-0.09182224422693253,0.3072601854801178,1.0366878509521484,-5.349257946014404,-16.520505905151367,-1.8760212659835815,1.9080108404159546,3.955118179321289,0.18547506630420685,0.056655194610357285,-0.6678736209869385,3.4809093475341797
26,23351,23349,-0.025174688547849655,0.24046333134174347,1.0419471263885498,-0.5658974051475525,-19.327924728393555,-2.4460842609405518,1.9065414667129517,3.953213691711426,0.1879524439573288,0.35778889060020447,-0.6604178547859192,3.4594786167144775
27,23361,23359,-0.10803568363189697,0.35508179664611816,1.2509862184524536,0.8258326649665833,-21.364639282226562,-2.7589879035949707,1.9084739685058594,3.9524946212768555,0.19006402790546417,0.2567443549633026,-0.7398428916931152,3.440457820892334
28,23371,23369,-0.08961234241724014,0.1499476432800293,1.1162409782409668,1.928464412689209,-16.507417678833008,-2.3361592292785645,1.9077337980270386,3.953340530395508,0.19442175328731537,0.6571715474128723,-0.7142876982688904,3.409327268600464
29,23381,23379,-0.06727097183465958,0.01599518395960331,1.0361733436584473,3.1876718997955322,-12.684501647949219,-2.051234006881714,1.9071968793869019,3.953352689743042,0.19734756648540497,0.9627284407615662,-0.7386731505393982,3.3815646171569824
30,23391,23389,-0.021616633981466293,0.05535633862018585,1.0462089776992798,0.9857921600341797,-8.457127571105957,-2.517779588699341,1.9071102142333984,3.9529500007629395,0.20025022327899933,1.0345520973205566,-0.6857858300209045,3.359966516494751
31,23401,23399,-0.060551729053258896,0.4631648659706116,0.9969838857650757,-1.5430068969726562,-4.607754707336426,-3.2592968940734863,1.907194972038269,3.952395439147949,0.20314860343933105,1.1798102855682373,-0.7418596744537354,3.3290278911590576
32,23411,23409,-0.18763761222362518,0.340491384267807,1.1808432340621948,-4.761997222900391,0.47865256667137146,-3.297921657562256,1.9121919870376587,3.9539427757263184,0.2054574340581894,0.6741762161254883,-0.7613990306854248,3.336388111114502
33,23421,23419,-0.03476584702730179,0.1897454708814621,1.057573914527893,-4.704731464385986,-0.19445978105068207,-2.453653573989868,1.9118534326553345,3.953263759613037,0.20853078365325928,0.7473559975624084,-0.744843065738678,3.293811082839966
34,23431,23429,-0.05699552223086357,0.40296417474746704,1.0136412382125854,-2.4318718910217285,-7.424623489379883,-1.5960657596588135,1.9118059873580933,3.952535390853882,0.21169540286064148,0.8580905199050903,-0.8635875582695007,3.276500701904297
35,23441,23439,0.08133256435394287,0.028435181826353073,0.9552589654922485,-2.3586909770965576,-4.518214225769043,-2.302943468093872,1.9124231338500977,3.9524130821228027,0.21409070491790771,0.7856762409210205,-0.9447973966598511,3.27303147315979
36,23451,23449,0.14036943018436432,-0.03828532621264458,0.938298225402832,-0.6366326212882996,-10.207968711853027,-2.579625129699707,1.9114115238189697,3.951369285583496,0.21739119291305542,1.0363068580627441,-1.0045267343521118,3.2391140460968018
37,23461,23459,0.04884592071175575,0.16885749995708466,0.9380178451538086,2.898890733718872,-14.30390453338623,-2.9287946224212646,1.91074800491333,3.951533555984497,0.22057367861270905,1.3563566207885742,-0.9442561864852905,3.1852381229400635
38,23471,23469,0.012381208129227161,0.17781825363636017,0.9503977298736572,10.082048416137695,-19.59859275817871,-1.6625778675079346,1.9105387926101685,3.9505250453948975,0.22137898206710815,1.420411467552185,-0.8147130012512207,3.161468505859375
39,23481,23479,0.08839095383882523,-0.08301979303359985,0.782396137714386,9.147035598754883,-9.163100242614746,-2.1167616844177246,1.9098743200302124,3.9479827880859375,0.22413648664951324,1.6458661556243896,-0.5970269441604614,3.114212989807129
40,23491,23489,-0.02320953458547592,-0.09715590626001358,0.846053421497345,6.277933120727539,-4.338870525360107,-2.3467884063720703,1.9103752374649048,3.948714017868042,0.2268524169921875,1.5745571851730347,-0.5778607130050659,3.1191134452819824
41,23501,23499,-0.15475068986415863,0.12666189670562744,0.9726266860961914,4.43402099609375,-1.2627153396606445,-2.979320764541626,1.909956693649292,3.9490652084350586,0.22931331396102905,1.5786323547363281,-0.5229437947273254,3.0930685997009277
42,23511,23509,-0.3372674882411957,0.7670911550521851,1.056257963180542,-1.7554651498794556,4.521306037902832,-3.8475263118743896,1.9101300239562988,3.949340343475342,0.22862356901168823,1.5742921829223633,-0.6047558784484863,3.0700907707214355
43,23521,23519,-0.15296106040477753,0.4400256276130676,1.0415021181106567,-3.704111099243164,5.769851207733154,-3.0764756202697754,1.9088010787963867,3.9482648372650146,0.230709969997406,1.5629823207855225,-0.6767684817314148,3.0381557941436768
44,23531,23529,0.07636409252882004,0.005990413948893547,0.889373779296875,-6.492713928222656,9.868684768676758,-3.810485363006592,1.909069538116455,3.947915554046631,0.2327669858932495,1.443247675895691,-0.7722547650337219,3.017106771469116
45,23541,23539,0.18111677467823029,-0.1429087519645691,0.795745849609375,-2.5574147701263428,7.178420543670654,-4.221421241760254,1.9083900451660156,3.9490878582000732,0.2334899604320526,1.398723840713501,-0.8560274839401245,2.984693765640259
46,23551,23549,0.13183584809303284,0.35175246000289917,0.8713073134422302,0.14071327447891235,4.480765342712402,-4.472830772399902,1.907344102859497,3.9484739303588867,0.2353339046239853,1.391150712966919,-0.812475860118866,2.9222986698150635
47,23561,23559,-0.037238918244838715,0.5430744290351868,0.993529200553894,4.220534324645996,0.9752710461616516,-4.853733062744141,1.9074300527572632,3.9488279819488525,0.23701538145542145,1.4114707708358765,-0.7982244491577148,2.8741466999053955
48,23571,23569,-0.09655646979808807,-0.0007072625448927283,0.9142071008682251,9.494766235351562,-6.498160362243652,-4.199756145477295,1.905673623085022,3.947939872741699,0.23670095205307007,1.5021214485168457,-0.6983819603919983,2.8132803440093994
49,23581,23579,-0.0643608495593071,-0.1726745218038559,0.8982245326042175,10.366251945495605,-5.631213665008545,-4.236734867095947,1.9045536518096924,3.9475791454315186,0.23806482553482056,1.6104745864868164,-0.629727303981781,2.769144296646118
50,23591,23589,-0.007874463684856892,-0.18507231771945953,0.8946977853775024,10.04336166381836,0.8456331491470337,-3.8197755813598633,1.9037141799926758,3.9477434158325195,0.2393343448638916,1.675681471824646,-0.5312471985816956,2.7252066135406494
51,23601,23599,-0.04904662445187569,0.09566453844308853,0.9821029305458069,5.369501113891602,4.876578330993652,-3.851867437362671,1.9032574892044067,3.9481000900268555,0.24058544635772705,1.6474193334579468,-0.46815377473831177,2.689053773880005
52,23611,23609,-0.1155911535024643,0.33674144744873047,1.0796613693237305,4.688054084777832,9.147347450256348,-3.8873274326324463,1.9034234285354614,3.9501607418060303,0.24144776165485382,1.5384600162506104,-0.3796786367893219,2.6409056186676025
53,23621,23619,0.010363412089645863,0.15341688692569733,0.8928653597831726,0.8082591891288757,10.993691444396973,-4.237549304962158,1.9037773609161377,3.9518184661865234,0.24256892502307892,1.3815141916275024,-0.31391003727912903,2.5920019149780273
54,23631,23629,0.06540568917989731,0.07567086815834045,0.9458120465278625,-1.9301955699920654,10.55629825592041,-4.961185932159424,1.9013277292251587,3.9513018131256104,0.2437240332365036,1.4583499431610107,-0.3038243055343628,2.5315887928009033
55,23641,23639,-0.02247793972492218,0.026044854894280434,1.0639175176620483,-2.0894765853881836,8.865705490112305,-3.584956169128418,1.8973559141159058,3.951420307159424,0.2422955185174942,1.7557438611984253,-0.32814663648605347,2.4676320552825928
56,23652,23649,-0.17004092037677765,0.5933120250701904,0.9877071380615234,-0.5340430736541748,10.70722484588623,-2.9160866737365723,1.8966249227523804,3.949202060699463,0.24343076348304749,1.4964925050735474,-0.5064629912376404,2.4851386547088623
57,23661,23659,-0.030812067911028862,0.26473376154899597,1.0109423398971558,-0.04326128587126732,21.929546356201172,-3.7403128147125244,1.8955492973327637,3.9510984420776367,0.24444106221199036,1.3391610383987427,-0.510124683380127,2.4505608081817627
58,23671,23669,0.11053857207298279,0.038746245205402374,0.9868910908699036,2.8729753494262695,16.717430114746094,-3.195000648498535,1.895556926727295,3.9504971504211426,0.2440943419933319,1.0068166255950928,-0.39471137523651123,2.3952720165252686
59,23681,23679,0.04169848933815956,-0.0838303342461586,0.9754499793052673,5.462578773498535,14.788797378540039,-3.0411031246185303,1.895402193069458,3.9507651329040527,0.24497786164283752,0.7760304808616638,-0.38388603925704956,2.374906063079834
60,23691,23689,0.01734018698334694,-0.029163964092731476,1.0160982608795166,7.548813343048096,8.998299598693848,-2.1873526573181152,1.8912111520767212,3.951201915740967,0.24581627547740936,1.0075557231903076,-0.3311910927295685,2.338318347930908
61,23701,23699,-0.013237375766038895,0.0017133374931290746,0.9864466190338135,7.931567192077637,11.822957038879395,-2.983189821243286,1.8887056112289429,3.9485881328582764,0.2460227757692337,1.0145870447158813,-0.18588556349277496,2.2961783409118652
62,23711,23709,0.023077964782714844,0.042544398456811905,0.9932219386100769,6.535772323608398,14.182777404785156,-1.8970043659210205,1.8886280059814453,3.9491617679595947,0.24691465497016907,0.8346608877182007,-0.12056691944599152,2.2790608406066895
63,23721,23719,0.00892325397580862,0.02325008250772953,1.072658658027649,4.944220542907715,10.881433486938477,-1.0265233516693115,1.8895660638809204,3.9491422176361084,0.24787622690200806,0.5580987930297852,-0.07100414484739304,2.272061347961426
64,23731,23729,0.049912746995687485,0.02424444444477558,1.021838665008545,3.9749631881713867,12.061241149902344,-0.6702256202697754,1.889614462852478,3.950867176055908,0.24875856935977936,0.4082547426223755,-0.1264953762292862,2.2797367572784424
65,23741,23739,0.04337103292346001,-0.12443239241838455,1.0226733684539795,-0.7042943835258484,10.832518577575684,-2.633786678314209,1.887666940689087,3.95086407661438,0.24910365045070648,0.35783419013023376,-0.059763938188552856,2.252730369567871
66,23751,23749,-0.010914070531725883,0.07396920025348663,1.0476489067077637,-0.5483947992324829,13.161272048950195,-1.0172486305236816,1.8863192796707153,3.9497570991516113,0.24997563660144806,0.26041272282600403,-0.10928415507078171,2.2419052124023438
67,23761,23759,-0.027603331953287125,0.1229211837053299,1.1078623533248901,1.5904700756072998,7.735602855682373,0.03811674565076828,1.8859062194824219,3.9503839015960693,0.25098562240600586,0.018141407519578934,-0.07408680766820908,2.232489585876465
68,23771,23769,-0.007894039154052734,0.07388939708471298,1.1085561513900757,3.8492624759674072,7.70292854309082,0.194792240858078,1.8842930793762207,3.9492719173431396,0.2519684135913849,-0.09494468569755554,-0.0024838114622980356,2.2274224758148193
69,23781,23779,0.012262606993317604,-0.03274838253855705,0.9599437117576599,4.3380961418151855,4.510669231414795,0.1630532592535019,1.8835893869400024,3.949812650680542,0.2531024217605591,-0.1782202422618866,0.0783267468214035,2.2241458892822266
70,23791,23789,0.05699671059846878,-0.03732593357563019,1.030023217201233,2.8851284980773926,-2.3336377143859863,0.17052453756332397,1.882991075515747,3.94941782951355,0.2542119026184082,-0.29322388768196106,0.15629348158836365,2.223092555999756
71,23801,23799,0.02138754352927208,-0.006768721621483564,1.0441783666610718,3.129520893096924,-4.0853800773620605,0.8561928272247314,1.8822383880615234,3.9496753215789795,0.2562374174594879,-0.29312950372695923,0.14213168621063232,2.228018045425415
72,23811,23809,-0.05958759784698486,-0.004035812336951494,1.0598410367965698,3.1366400718688965,-3.964653968811035,0.5655398964881897,1.8813865184783936,3.950167417526245,0.2574470043182373,-0.2779269516468048,0.20443403720855713,2.2314136028289795
73,23821,23819,0.01831744611263275,-0.01717163622379303,0.9385275840759277,1.9058549404144287,-1.2865773439407349,-0.3635428547859192,1.879668116569519,3.9507741928100586,0.2587430477142334,-0.19220463931560516,0.25419101119041443,2.2316277027130127
74,23831,23829,-0.012719416059553623,0.09090989083051682,0.9959599375724792,0.4906710386276245,-3.5093183517456055,0.020390700548887253,1.8791543245315552,3.951794147491455,0.26007798314094543,-0.19587825238704681,0.20876936614513397,2.226546287536621
75,23841,23839,0.0363365039229393,0.05559077113866806,1.0259443521499634,-0.5169313549995422,-0.6142453551292419,-0.12470868229866028,1.8780556917190552,3.950730323791504,0.25946056842803955,-0.2055562138557434,0.21203316748142242,2.223968267440796
76,23851,23849,0.09062380343675613,-0.0693688914179802,0.9850324988365173,-1.4822584390640259,0.974591076374054,0.42758452892303467,1.8767927885055542,3.9515411853790283,0.2605880796909332,-0.17565757036209106,0.052440095692873,2.2190518379211426
77,23861,23859,-0.044973086565732956,-0.07066764682531357,1.0033619403839111,-0.9824954271316528,5.970499038696289,0.5490015745162964,1.8761703968048096,3.949946880340576,0.26179665327072144,-0.27281370759010315,0.20071828365325928,2.2281224727630615
78,23871,23869,0.007042386569082737,-0.036138396710157394,0.9835450053215027,1.2497951984405518,3.6700446605682373,0.8037494421005249,1.87738835811615,3.9507663249969482,0.2606307864189148,-0.4662274718284607,0.19966286420822144,2.2265090942382812
79,23881,23879,0.042303331196308136,-0.0011757201282307506,0.9320774078369141,1.1999486684799194,-0.9876441359519958,1.5537856817245483,1.8763728141784668,3.9500572681427,0.26163968443870544,-0.4629926085472107,0.2111261934041977,2.236359119415283
80,23891,23889,-0.1427178531885147,0.10203956067562103,0.9740075469017029,0.8347734212875366,0.45271745324134827,0.9820459485054016,1.8746774196624756,3.9492709636688232,0.26262176036834717,-0.3587341904640198,0.22267551720142365,2.2545087337493896
81,23901,23899,0.04665485769510269,0.07966239005327225,0.9289493560791016,0.0004741358570754528,11.951047897338867,0.6228423714637756,1.872212529182434,3.9496688842773438,0.26139703392982483,-0.26414763927459717,0.16011212766170502,2.268955945968628
82,23911,23909,-0.1271425485610962,0.5377057790756226,1.1114054918289185,-1.7983797788619995,10.220296859741211,1.1607820987701416,1.872404932975769,3.948561191558838,0.26218676567077637,-0.4898345172405243,0.1551503688097,2.2665109634399414
83,23921,23919,-0.159986674785614,0.2510804235935211,1.0577517747879028,-0.5704439878463745,17.411954879760742,1.3629727363586426,1.8721030950546265,3.949411392211914,0.26295822858810425,-0.64606773853302,0.08454416692256927,2.2687461376190186
84,23931,23929,-0.11047744750976562,0.5332074165344238,1.0765560865402222,-1.2622408866882324,22.286575317382812,1.5049057006835938,1.871894359588623,3.948524236679077,0.2638119161128998,-0.9606745839118958,0.0848625898361206,2.2737138271331787
85,23941,23939,-0.06777021288871765,0.48647722601890564,1.0004817247390747,-1.0197618007659912,23.093242645263672,1.2283480167388916,1.8723421096801758,3.949378728866577,0.2626546621322632,-1.2924355268478394,0.08531128615140915,2.2831850051879883
86,23951,23949,-0.13041621446609497,0.36877965927124023,0.9700057506561279,0.07098943740129471,19.344724655151367,0.7395534515380859,1.8718923330307007,3.949450731277466,0.26347559690475464,-1.504783272743225,0.09529876708984375,2.2964718341827393
87,23961,23959,-0.16484194993972778,0.3990466892719269,1.2105792760849,1.0210102796554565,6.136031150817871,1.5541036128997803,1.8708821535110474,3.94892954826355,0.2642805576324463,-1.5949959754943848,0.10961873084306717,2.3099753856658936
88,23971,23969,-0.0860566794872284,0.17999900877475739,1.1146329641342163,2.9751107692718506,3.8126208782196045,1.4542460441589355,1.8700021505355835,3.950090169906616,0.264474093914032,-1.5610932111740112,0.15689343214035034,2.334351062774658
89,23981,23979,-0.11996279656887054,0.043440695852041245,1.023861289024353,1.8315492868423462,3.160343885421753,1.6293818950653076,1.8693450689315796,3.9499473571777344,0.2654629349708557,-1.6334477663040161,0.2134387493133545,2.352646589279175
90,23991,23989,-0.03386681154370308,0.02038073167204857,1.0127768516540527,1.4545096158981323,-2.4051108360290527,2.37046217918396,1.8690701723098755,3.9524853229522705,0.26648977398872375,-1.6519476175308228,0.2594374120235443,2.372225046157837
91,24001,23999,-0.041945863515138626,0.06936270743608475,1.065499186515808,1.603377103805542,-4.236939430236816,1.5746625661849976,1.8687686920166016,3.9527950286865234,0.2660259008407593,-1.6166852712631226,0.2190515398979187,2.376138687133789
92,24011,24009,-0.10250850766897202,0.48224732279777527,0.9243492484092712,-1.5449919700622559,-3.0453975200653076,1.0369303226470947,1.8681477308273315,3.95344877243042,0.2670685350894928,-1.5788978338241577,0.21768049895763397,2.3941662311553955
93,24021,24019,-0.10490742325782776,0.34498634934425354,0.9795046448707581,-7.040661334991455,3.3071200847625732,1.3879320621490479,1.867990493774414,3.952465772628784,0.26808854937553406,-1.5734914541244507,0.18744729459285736,2.4083144664764404
94,24031,24029,-0.05380649492144585,0.15672411024570465,1.0723919868469238,-2.7419276237487793,6.389183521270752,1.7218778133392334,1.8679853677749634,3.95485782623291,0.26902592182159424,-1.639553427696228,0.13152161240577698,2.4181604385375977
95,24041,24039,-0.031873419880867004,0.22590334713459015,1.077162504196167,-3.3098645210266113,9.379728317260742,1.3567252159118652,1.869930386543274,3.958712100982666,0.2699793577194214,-1.8189626932144165,0.10570357739925385,2.4307563304901123
96,24051,24049,-0.03162889927625656,0.20426487922668457,1.005159616470337,-2.31809401512146,6.472826957702637,1.9742159843444824,1.8700264692306519,3.9587273597717285,0.2710011303424835,-1.904678225517273,0.07201632112264633,2.444474220275879
97,24061,24059,-0.016452498733997345,-0.020848166197538376,0.9346018433570862,-1.1104602813720703,8.043707847595215,1.3168506622314453,1.8699134588241577,3.957368850708008,0.2721518278121948,-1.9116157293319702,0.08321959525346756,2.466627836227417
98,24071,24069,-0.043205663561820984,0.07544905692338943,0.9507370591163635,2.017857789993286,1.584136724472046,1.8536760807037354,1.8700271844863892,3.9571714401245117,0.27278077602386475,-1.9116650819778442,0.09399795532226562,2.4697654247283936
99,24081,24079,-0.017228566110134125,0.09423608332872391,0.9740250110626221,2.0730068683624268,-3.859408140182495,2.2244231700897217,1.8698593378067017,3.9573466777801514,0.2739420235157013,-1.9456087350845337,0.050711389631032944,2.471379280090332
100,24091,24089,0.027966933324933052,-0.0948379710316658,0.9582839012145996,-0.7302878499031067,2.1013400554656982,0.2602420747280121,1.870736002922058,3.958012104034424,0.2749372124671936,-2.0057568550109863,0.11478261649608612,2.501955270767212
101,24101,24099,-0.057492319494485855,-0.038415566086769104,1.0984748601913452,1.540077805519104,-4.802424907684326,1.3876802921295166,1.871636986732483,3.9584176540374756,0.27310970425605774,-2.063579559326172,0.15247505903244019,2.5175933837890625
102,24111,24109,-0.19151905179023743,0.3417408764362335,0.9586162567138672,-0.8114230632781982,-6.375182628631592,1.646898627281189,1.8708833456039429,3.9585776329040527,0.2740916609764099,-1.9141170978546143,0.18761718273162842,2.5405633449554443
103,24121,24119,-0.0928448736667633,0.7324910759925842,1.066589117050171,-2.3228871822357178,-9.078015327453613,1.9375358819961548,1.8703200817108154,3.958317518234253,0.2750835418701172,-1.7397005558013916,0.18442696332931519,2.5618715286254883
104,24131,24129,0.05210758000612259,0.48169854283332825,0.9655121564865112,-0.3672611713409424,-0.7168983817100525,1.952659249305725,1.870772123336792,3.959092378616333,0.27225297689437866,-1.757368803024292,0.15056665241718292,2.570200204849243
105,24141,24139,0.07315946370363235,-0.060778941959142685,0.9261732697486877,0.99504154920578,-12.020612716674805,1.8651567697525024,1.8720208406448364,3.958263397216797,0.2727901041507721,-1.8472856283187866,0.13361424207687378,2.5835201740264893
106,24151,24149,0.01137534435838461,-0.15202629566192627,0.8954305648803711,1.060768723487854,-8.147522926330566,1.3058280944824219,1.8731423616409302,3.9581780433654785,0.2732779383659363,-1.850568413734436,0.1280304491519928,2.5937657356262207
107,24161,24159,-0.029329095035791397,0.014297123067080975,0.9303216934204102,-2.0320796966552734,-6.185637474060059,0.6787427663803101,1.8721741437911987,3.9561126232147217,0.2739904224872589,-1.6311275959014893,0.20014043152332306,2.6354165077209473
108,24171,24169,-0.018952995538711548,0.14611589908599854,0.9858769178390503,-2.2043585777282715,-15.308159828186035,1.9112657308578491,1.8730885982513428,3.9565165042877197,0.27523496747016907,-1.6102477312088013,0.16000831127166748,2.6367156505584717
109,24181,24179,0.007797129452228546,-0.0030750297009944916,1.0261609554290771,-1.8649266958236694,-14.886041641235352,0.23339778184890747,1.8718353509902954,3.95635724067688,0.2757595479488373,-1.377684235572815,0.10916091501712799,2.648918628692627
110,24191,24189,-0.013714611530303955,0.1575276404619217,1.0203510522842407,-3.6285436153411865,-2.1734418869018555,0.6607728004455566,1.870278000831604,3.9556753635406494,0.27620604634284973,-1.1413037776947021,0.13711261749267578,2.6793956756591797
111,24201,24199,0.004141578450798988,0.09394806623458862,0.9767175912857056,-3.2103207111358643,-1.3836404085159302,-0.32399097084999084,1.8739676475524902,3.9554390907287598,0.27798914909362793,-1.4775152206420898,0.14817474782466888,2.6768553256988525
112,24211,24209,-0.014426794834434986,0.1613197922706604,1.0421886444091797,-2.529165744781494,-5.682402610778809,0.9861472249031067,1.874832272529602,3.954343557357788,0.278402715921402,-1.4725148677825928,0.07885117083787918,2.6656277179718018
113,24221,24219,-0.11484908312559128,0.11734814941883087,1.0386452674865723,-2.232288360595703,-6.998899936676025,-0.16690944135189056,1.8757619857788086,3.952824592590332,0.27872586250305176,-1.5268739461898804,0.17877650260925293,2.698495864868164
114,24231,24229,-0.11823343485593796,0.019558338448405266,0.9412214159965515,-2.961125612258911,-15.747834205627441,0.0840211734175682,1.8760300874710083,3.95251202583313,0.27791470289230347,-1.4021055698394775,0.11735838651657104,2.692310333251953
115,24241,24239,-0.1280730962753296,0.18660125136375427,1.1127723455429077,-4.49548864364624,-17.714496612548828,0.21149924397468567,1.876205325126648,3.9517736434936523,0.2783743143081665,-1.2658015489578247,0.04996957629919052,2.6836764812469482
116,24251,24249,-0.06533543020486832,-0.00878776516765356,1.0258837938308716,-3.390519857406616,-12.586092948913574,0.6613003015518188,1.876604676246643,3.9518721103668213,0.27884241938591003,-1.1420848369598389,-0.031296003609895706,2.6726672649383545
117,24261,24259,0.021584337577223778,-0.042550235986709595,0.9744125604629517,-3.9008429050445557,-17.777616500854492,1.3200331926345825,1.8777496814727783,3.952012538909912,0.2793278694152832,-1.035489797592163,-0.022434299811720848,2.686533212661743
118,24271,24269,0.010160582140088081,0.04953821375966072,1.0402207374572754,-3.0633883476257324,-9.70088005065918,-0.14900897443294525,1.8793268203735352,3.9524919986724854,0.27656474709510803,-0.9799397587776184,-0.09902861714363098,2.6828978061676025
119,24281,24279,-0.06106191501021385,0.0038438758347183466,1.0354537963867188,-3.0618011951446533,-8.733480453491211,0.046715591102838516,1.8794939517974854,3.9520230293273926,0.27699682116508484,-0.8282193541526794,-0.16499464213848114,2.6776208877563477
120,24291,24289,-0.06381569802761078,0.15736931562423706,1.054490327835083,-1.4138782024383545,-10.533480644226074,0.2959126830101013,1.8811383247375488,3.9517428874969482,0.27725034952163696,-0.8441224098205566,-0.21989506483078003,2.6712310314178467
121,24301,24299,-0.010508013889193535,0.07643074542284012,1.0111846923828125,-0.06031502038240433,-15.583985328674316,0.505628228187561,1.8812360763549805,3.9523730278015137,0.27548784017562866,-0.6273943185806274,-0.2510524392127991,2.6757776737213135
122,24311,24309,-0.108111172914505,0.11051449179649353,1.089552640914917,1.7956511974334717,-9.939216613769531,0.7221981883049011,1.883255124092102,3.954157590866089,0.27573248744010925,-0.5982606410980225,-0.24785162508487701,2.679419994354248
123,24321,24319,0.007832834497094154,0.013888910412788391,1.0046666860580444,2.8573076725006104,-13.67987060546875,1.132093906402588,1.8821240663528442,3.9541268348693848,0.27638548612594604,-0.29905375838279724,-0.22085878252983093,2.68532133102417
124,24331,24329,-0.02190832979977131,-0.021496998146176338,0.994899570941925,2.8359038829803467,-7.188464641571045,0.47144103050231934,1.8840289115905762,3.955044984817505,0.27715450525283813,-0.30802372097969055,-0.18223461508750916,2.694521188735962
125,24341,24339,0.02355736307799816,0.01628599874675274,1.0186529159545898,1.120113492012024,-12.827225685119629,0.359159916639328,1.8859257698059082,3.9538300037384033,0.277463436126709,-0.29196980595588684,-0.12941645085811615,2.7018401622772217
126,24351,24349,-0.04893573746085167,0.04208696633577347,1.1272414922714233,-0.6506274938583374,-10.14130687713623,0.641895055770874,1.8852602243423462,3.9557178020477295,0.2781524658203125,-0.09173638373613358,-0.12876266241073608,2.708064317703247
127,24361,24359,-0.0271855890750885,-0.01926126517355442,1.0702176094055176,-2.786480188369751,-3.3817076683044434,0.42775100469589233,1.887412428855896,3.9565229415893555,0.2763954997062683,-0.14845570921897888,-0.14225159585475922,2.7099719047546387
128,24371,24369,0.010342251509428024,-0.12730489671230316,0.9284056425094604,-1.9003554582595825,-9.422713279724121,1.179934024810791,1.88864266872406,3.95703387260437,0.27683231234550476,-0.09368515759706497,-0.18165165185928345,2.7053136825561523
129,24381,24379,-0.027293216437101364,-0.03831334784626961,0.9942420125007629,-1.6558390855789185,-7.102726936340332,0.6486615538597107,1.889167070388794,3.9567954540252686,0.2774293124675751,0.05968305096030235,-0.2238861471414566,2.7079453468322754
130,24391,24389,0.03400059789419174,0.06905341893434525,1.0108184814453125,-1.8026158809661865,-7.5004658699035645,0.20192818343639374,1.8909811973571777,3.955160140991211,0.27767354249954224,-0.03909019008278847,-0.1802036613225937,2.7091786861419678
131,24401,24399,-0.04701880365610123,-0.12906022369861603,1.0448325872421265,-0.3815913498401642,-11.522335052490234,0.9572904109954834,1.8908239603042603,3.95538067817688,0.2795754075050354,0.11185698211193085,-0.2171824872493744,2.709010601043701
132,24411,24409,0.05318760871887207,-0.29582467675209045,0.8929338455200195,3.219296455383301,-1.9896339178085327,1.0171843767166138,1.890891194343567,3.9554452896118164,0.28005504608154297,0.22578774392604828,-0.23090416193008423,2.717001438140869
133,24421,24419,0.06588214635848999,-0.3446657359600067,0.7361700534820557,0.9238185286521912,-5.545355796813965,0.9298191666603088,1.8919073343276978,3.95467472076416,0.28044235706329346,0.19179435074329376,-0.128350168466568,2.716475486755371
134,24431,24429,0.07837527990341187,-0.20513780415058136,0.8696081638336182,2.0140042304992676,-7.916247367858887,-0.021756501868367195,1.8916726112365723,3.953887701034546,0.27746257185935974,0.3267773687839508,-0.05298338830471039,2.7230894565582275
135,24441,24439,0.016815325245261192,-0.18863680958747864,0.9279252290725708,-1.8168387413024902,-3.5397443771362305,-0.0092389527708292,1.8936455249786377,3.9541590213775635,0.2772523760795593,0.2365797907114029,-0.1356526017189026,2.740534782409668
136,24451,24449,0.03968603536486626,-0.09346883744001389,1.0219911336898804,-3.8138673305511475,-2.6609206199645996,1.3890992403030396,1.892813801765442,3.955188512802124,0.2772035300731659,0.4325014054775238,-0.17653734982013702,2.738225221633911
137,24461,24459,0.1613169014453888,-0.2594227194786072,0.9601178169250488,-5.148989677429199,-2.982316732406616,-0.1496868133544922,1.8936574459075928,3.95523738861084,0.2768945097923279,0.36592939496040344,-0.2457762062549591,2.7524123191833496
138,24471,24469,0.05934183672070503,-0.2512957751750946,0.8588292002677917,-3.4626550674438477,-2.2533249855041504,0.2517968416213989,1.894727349281311,3.9545633792877197,0.2766405940055847,0.3922175467014313,-0.23693324625492096,2.750417709350586
139,24481,24479,-0.03474334999918938,-0.06746715307235718,0.9715149998664856,-2.956721782684326,1.767881989479065,-1.2100131511688232,1.897194743156433,3.956299304962158,0.2761291265487671,0.2530722916126251,-0.30244675278663635,2.775303602218628
140,24491,24489,-0.05426785722374916,0.03543470427393913,1.0906163454055786,-0.9508125185966492,-6.481466770172119,0.7886653542518616,1.8975752592086792,3.9561798572540283,0.2758553624153137,0.3247365653514862,-0.34746605157852173,2.760341167449951
141,24501,24499,-0.033359769731760025,0.11058249324560165,1.0632301568984985,0.40829309821128845,-6.314151287078857,0.41392940282821655,1.8970370292663574,3.955505847930908,0.27884453535079956,0.5814910531044006,-0.2757941782474518,2.7495667934417725
142,24511,24509,0.03430888429284096,0.023230068385601044,1.062286138534546,4.145419120788574,0.15742093324661255,-0.09099464118480682,1.8978769779205322,3.9541215896606445,0.27866700291633606,0.5789358615875244,-0.2695009410381317,2.740248441696167
143,24521,24519,-0.06625617295503616,0.1372889131307602,1.1521860361099243,0.10939641296863556,-5.152396202087402,1.1538200378417969,1.8996340036392212,3.9548134803771973,0.27856579422950745,0.51490318775177,-0.2247743308544159,2.750058650970459
144,24531,24529,-0.03223602846264839,0.18874378502368927,1.320691466331482,1.6701089143753052,1.0346745252609253,0.0372966006398201,1.9017062187194824,3.955472707748413,0.2815034091472626,0.48305901885032654,-0.28533250093460083,2.7707173824310303
145,24541,24539,-0.06085114926099777,0.061478350311517715,1.1661572456359863,0.3376918435096741,1.0035159587860107,0.9420107007026672,1.9019662141799927,3.9559273719787598,0.2820666432380676,0.5505202412605286,-0.33322805166244507,2.770364761352539
146,24551,24549,-0.05224760249257088,0.013037855736911297,1.0247913599014282,1.64519202709198,1.1209534406661987,0.033527668565511703,1.9027851819992065,3.9544456005096436,0.2828947901725769,0.5918086767196655,-0.2326515167951584,2.7613120079040527
147,24561,24559,0.039746690541505814,0.06817609816789627,1.0873782634735107,-0.7589477300643921,-5.208327770233154,0.18132193386554718,1.9041588306427002,3.956101894378662,0.2861209213733673,0.47923511266708374,-0.28431278467178345,2.7874972820281982
148,24571,24569,-0.05020241066813469,-0.0636783018708229,1.1304858922958374,1.9320757389068604,-2.4907302856445312,-0.05772056058049202,1.9039216041564941,3.955866575241089,0.28737348318099976,0.6518452763557434,-0.1924520581960678,2.7720093727111816
149,24581,24579,-0.030084412544965744,-0.0661105215549469,1.0062187910079956,0.7162401676177979,-0.15456978976726532,-0.4105962812900543,1.9039950370788574,3.95711612701416,0.28857842087745667,0.7205886244773865,-0.23913878202438354,2.7881076335906982
150,24591,24589,-0.003272413508966565,-0.14183969795703888,0.9821200370788574,0.4758668839931488,1.9515695571899414,-0.9533554315567017,1.90543532371521,3.957794189453125,0.28979378938674927,0.6764057278633118,-0.2185286581516266,2.772824287414551
151,24601,24599,0.005010394379496574,-0.0006545321666635573,1.0353540182113647,1.5492039918899536,1.847561240196228,-1.6128443479537964,1.9055920839309692,3.958024024963379,0.29046204686164856,0.749761164188385,-0.279453307390213,2.771308183670044
152,24611,24609,-0.03857075795531273,-0.25760185718536377,0.9144349098205566,2.5707223415374756,2.0957679748535156,-0.37875068187713623,1.9067593812942505,3.9580633640289307,0.2916085720062256,0.6389837861061096,-0.32278311252593994,2.7679226398468018
153,24621,24619,0.08735184371471405,-0.27363187074661255,0.8880200982093811,3.6532373428344727,2.2930238246917725,-0.8262312412261963,1.9085332155227661,3.958367347717285,0.2927362620830536,0.5326435565948486,-0.26556259393692017,2.753131151199341
154,24631,24629,-0.0050681657157838345,-0.147323876619339,0.9238905310630798,5.481877326965332,6.986856937408447,-0.2043280154466629,1.9085756540298462,3.9599826335906982,0.2960236966609955,0.5755629539489746,-0.34212905168533325,2.767441749572754
155,24641,24639,-0.03610807657241821,-0.04620356485247612,0.9854045510292053,5.678493499755859,1.2649891376495361,0.6245312094688416,1.9083172082901,3.959030866622925,0.2972862124443054,0.6358985304832458,-0.15148457884788513,2.737126350402832
156,24651,24649,0.02028411626815796,-0.028603537008166313,0.9366766214370728,5.086065292358398,2.4651927947998047,-0.2755972743034363,1.908896565437317,3.9599146842956543,0.29835668206214905,0.5813473463058472,-0.04662506654858589,2.7525455951690674
157,24661,24659,-0.021812371909618378,0.11922483146190643,0.96763014793396,5.149904727935791,-2.2121338844299316,-0.9397995471954346,1.9111393690109253,3.9591403007507324,0.3022165596485138,0.3690192401409149,0.04338047280907631,2.743978261947632
158,24671,24669,-0.1438329666852951,0.6224283576011658,1.0778731107711792,-1.9116454124450684,2.6914210319519043,-1.6104940176010132,1.9105123281478882,3.959648847579956,0.3034222424030304,0.4586046636104584,0.12590719759464264,2.730546236038208
159,24681,24679,-0.23933766782283783,0.34892699122428894,1.1220616102218628,-3.1948599815368652,9.031333923339844,-0.9612223505973816,1.911341667175293,3.9591593742370605,0.3045773506164551,0.40367797017097473,0.041604746133089066,2.711134433746338
160,24691,24689,-0.10662021487951279,0.3246051073074341,0.9593077301979065,-4.928161144256592,14.265559196472168,-0.8694577217102051,1.9125889539718628,3.9600062370300293,0.3057979643344879,0.27793586254119873,0.006834973115473986,2.695359945297241
161,24701,24699,-0.04626862704753876,0.39376530051231384,0.9981482028961182,-4.590866565704346,9.242193222045898,-0.7584400177001953,1.9146723747253418,3.960324287414551,0.3091448247432709,0.03809421882033348,-0.12833307683467865,2.702465295791626
162,24711,24709,-0.09940169006586075,0.612113893032074,1.1978480815887451,-3.244307041168213,3.7160353660583496,-0.36263689398765564,1.913804531097412,3.9593958854675293,0.31075721979141235,0.08862807601690292,-0.17352662980556488,2.693405866622925
163,24721,24719,-0.2346145361661911,0.9791678190231323,1.09980046749115,3.1296191215515137,-2.3084208965301514,-0.9100095629692078,1.9132578372955322,3.9593141078948975,0.3123963177204132,0.12816479802131653,-0.11274416744709015,2.6784658432006836
164,24731,24729,-0.07956647127866745,0.3417676091194153,1.0154188871383667,3.6607391834259033,2.948197603225708,-1.0029813051223755,1.9148385524749756,3.9596264362335205,0.31597432494163513,0.08571140468120575,-0.05702611431479454,2.6775362491607666
165,24741,24739,0.012777253985404968,0.2610485553741455,0.9911715984344482,7.825514316558838,-1.6306889057159424,-0.6872696876525879,1.915169596672058,3.9609429836273193,0.3178904056549072,0.16240812838077545,-0.060956358909606934,2.6712560653686523
166,24751,24749,0.08893878757953644,0.05887840688228607,0.943483829498291,6.770515441894531,-0.6781613826751709,-0.9093552231788635,1.9156666994094849,3.9607603549957275,0.31974831223487854,0.17488308250904083,0.061800308525562286,2.6950268745422363
167,24761,24759,-0.010125996544957161,0.027071340009570122,0.9567252993583679,3.75736665725708,1.167508602142334,-0.6128626465797424,1.916995644569397,3.9607629776000977,0.3223855793476105,0.11500194668769836,0.10553155839443207,2.667768716812134
168,24771,24769,-0.14199984073638916,0.26194900274276733,0.9350566267967224,3.9807801246643066,-0.8688189387321472,-1.8593930006027222,1.9164059162139893,3.961843729019165,0.32428622245788574,0.1784331351518631,0.04417583346366882,2.670423984527588
169,24781,24779,-0.18039339780807495,0.5882585048675537,0.8907982110977173,-3.49715256690979,6.890253067016602,-1.256635308265686,1.9157040119171143,3.9613873958587646,0.3261948227882385,0.3432748019695282,0.13446642458438873,2.6629984378814697
170,24791,24789,-0.17466500401496887,0.31739941239356995,0.9328610301017761,-6.059767723083496,14.283019065856934,-1.319125771522522,1.918365240097046,3.9615912437438965,0.3263072073459625,0.09106511622667313,0.11825653910636902,2.6377980709075928
171,24801,24799,-0.05985892191529274,0.07416050136089325,0.8472258448600769,-5.329427242279053,16.172256469726562,-0.4263228178024292,1.9199024438858032,3.961958169937134,0.32804763317108154,-0.07928241044282913,0.036318980157375336,2.626222848892212
172,24811,24809,-0.011060664430260658,0.05726007744669914,0.899678647518158,-2.792426347732544,10.330288887023926,-0.2899242043495178,1.9212614297866821,3.9625980854034424,0.3295391798019409,-0.252215713262558,-0.026610976085066795,2.621694564819336
173,24821,24819,0.01125968899577856,0.2731943428516388,0.9414913058280945,-3.2671775817871094,8.385015487670898,-1.230947494506836,1.9217301607131958,3.9628872871398926,0.3309321999549866,-0.33930644392967224,-0.048816315829753876,2.620405673980713
174,24831,24829,-0.22500045597553253,0.23128104209899902,0.8850128650665283,-3.1332523822784424,12.260366439819336,-0.6501815915107727,1.9260187149047852,3.963627576828003,0.33006858825683594,-0.7977725863456726,-0.1317545622587204,2.6156656742095947
175,24841,24839,-0.49661415815353394,0.4927186965942383,1.0098106861114502,-2.2828941345214844,8.301043510437012,-0.6399648785591125,1.9269028902053833,3.9637558460235596,0.33112627267837524,-0.8756391406059265,-0.16532690823078156,2.608403205871582
176,24851,24849,-0.21352453529834747,0.8057762980461121,0.9290881156921387,3.3881783485412598,-1.8477611541748047,-1.4228676557540894,1.928390622138977,3.963304281234741,0.331926554441452,-1.0003396272659302,-0.16851365566253662,2.5910933017730713
177,24861,24859,-0.04293790087103844,0.5086241364479065,0.8519961833953857,5.11456298828125,-2.8767573833465576,-2.281419277191162,1.929271936416626,3.9624722003936768,0.33179497718811035,-0.9964761137962341,-0.15156570076942444,2.5521819591522217
178,24871,24869,-0.059691473841667175,0.13074064254760742,0.8276105523109436,10.182133674621582,-20.174522399902344,-1.3104459047317505,1.9283164739608765,3.9634318351745605,0.3328680396080017,-0.7566637992858887,-0.09549951553344727,2.555713415145874
179,24881,24879,-0.2399415224790573,-0.04154973849654198,0.9841650128364563,12.16859245300293,-19.97982406616211,-1.6560330390930176,1.9294742345809937,3.963029384613037,0.3333624303340912,-0.6726685166358948,0.03408591449260712,2.5386135578155518
180,24891,24889,-0.24293331801891327,0.21451504528522491,1.019704818725586,8.148833274841309,-11.239019393920898,-1.5954837799072266,1.9279757738113403,3.9620184898376465,0.33358219265937805,-0.2422453761100769,0.2409442812204361,2.525686264038086
181,24901,24899,-0.17250679433345795,0.5968294143676758,1.006787896156311,6.337677478790283,-13.331510543823242,-2.0321013927459717,1.9297806024551392,3.9627885818481445,0.33408913016319275,-0.278463214635849,0.2157808393239975,2.5032575130462646
182,24911,24909,-0.09240402281284332,0.5806791186332703,0.9119770526885986,3.412430763244629,-13.18151569366455,-2.1778202056884766,1.9312193393707275,3.9634222984313965,0.33465448021888733,-0.16477617621421814,0.2654552459716797,2.464975118637085
183,24921,24919,0.026298727840185165,0.05501346290111542,0.8516110181808472,-2.393876075744629,-3.5669450759887695,-2.1914584636688232,1.9328545331954956,3.963228702545166,0.33514654636383057,-0.1019352599978447,0.3583846688270569,2.463958501815796
184,24931,24929,-0.006254850421100855,-0.08614128082990646,0.8359299302101135,-5.077442169189453,0.09024781733751297,-2.534454345703125,1.9330974817276,3.963986873626709,0.33521679043769836,0.02690206840634346,0.33223938941955566,2.459479331970215
185,24941,24939,-0.09622343629598618,0.01362887118011713,0.953314483165741,-3.1331608295440674,-0.6798136234283447,-1.5529370307922363,1.9354255199432373,3.9657328128814697,0.3354189395904541,-0.08149319142103195,0.18522831797599792,2.4364476203918457
186,24951,24949,-0.017767032608389854,0.10052423179149628,0.9665058255195618,-3.202139377593994,1.62184739112854,-1.212831974029541,1.9366815090179443,3.9662270545959473,0.335593044757843,-0.10765336453914642,0.11407545208930969,2.4151394367218018
187,24961,24959,0.23154111206531525,0.1251831203699112,0.9230077862739563,-2.7176265716552734,-1.952432632446289,-2.227112293243408,1.9383620023727417,3.966264247894287,0.33579638600349426,-0.1898769587278366,0.07868119329214096,2.380800485610962
188,24971,24969,0.06054341420531273,-0.0033066673204302788,0.894097626209259,0.8772856593132019,-8.91677188873291,-1.5627211332321167,1.9387608766555786,3.9648492336273193,0.336058109998703,-0.0678563192486763,0.15947255492210388,2.3661322593688965
189,24981,24979,0.04111723601818085,-0.1282026618719101,0.9058636426925659,3.5391645431518555,-7.5106706619262695,-1.5133342742919922,1.9383165836334229,3.9633002281188965,0.33624574542045593,0.14763234555721283,0.22526638209819794,2.336846351623535
190,24991,24989,-0.028026890009641647,-0.07951278239488602,0.9414095878601074,6.234625339508057,-12.250152587890625,-0.4949997663497925,1.940199613571167,3.9632961750030518,0.3350297510623932,0.16596868634223938,0.3162132203578949,2.31968355178833
191,25001,24999,-0.13507695496082306,-0.008900193497538567,1.0652060508728027,5.181718349456787,-3.460252285003662,-1.2143934965133667,1.9426605701446533,3.966810464859009,0.3348728120326996,0.23975446820259094,0.1934535950422287,2.3382444381713867
192,25011,25009,-0.12055285274982452,0.35269343852996826,1.1293820142745972,2.974085807800293,-0.48061537742614746,-1.536569356918335,1.9440027475357056,3.9663021564483643,0.3347380757331848,0.2664429843425751,0.2942754030227661,2.3049933910369873
193,25021,25019,-0.05657190829515457,0.3248569667339325,0.970641016960144,2.234409809112549,-5.30342435836792,-1.502604365348816,1.9453574419021606,3.965580940246582,0.33468127250671387,0.2815605700016022,0.34265685081481934,2.2892706394195557
194,25031,25029,-0.013160428032279015,0.013579130172729492,0.9706054329872131,3.570819139480591,-4.7769622802734375,-0.40485459566116333,1.9466933012008667,3.9655957221984863,0.33248284459114075,0.3184393644332886,0.33791592717170715,2.2649006843566895
195,25041,25039,-0.024447161704301834,0.024257583543658257,0.9797403812408447,1.4161665439605713,-3.3664228916168213,-0.45835790038108826,1.9496703147888184,3.965479850769043,0.3321537971496582,0.2169116884469986,0.4215735197067261,2.263735294342041
196,25051,25049,0.011061935685575008,0.07176625728607178,0.9845771193504333,0.7099339365959167,-3.7737293243408203,-0.43754538893699646,1.9492244720458984,3.9670608043670654,0.33217117190361023,0.43779852986335754,0.38765645027160645,2.300091505050659
197,25061,25059,-0.01990160346031189,-0.059038612991571426,0.906400740146637,-0.22206005454063416,-4.820647716522217,-0.5428114533424377,1.94987952709198,3.9667484760284424,0.3296780586242676,0.4069293737411499,0.4228372871875763,2.268418073654175
198,25071,25069,-0.0868694931268692,-0.0003083334013354033,1.024083137512207,-1.0110524892807007,-5.722415447235107,-0.6283539533615112,1.9517359733581543,3.966978073120117,0.32918885350227356,0.40467098355293274,0.43006330728530884,2.2772533893585205
199,25081,25079,0.012679467909038067,-0.03475257754325867,0.9352983236312866,-0.41233691573143005,-9.193391799926758,0.11762479692697525,1.9533582925796509,3.9657270908355713,0.3286856710910797,0.41739001870155334,0.4328603446483612,2.26088547706604
200,25091,25089,-0.03716966509819031,-0.01596047729253769,0.9977164268493652,0.21493718028068542,-5.390897274017334,0.6133122444152832,1.9528627395629883,3.9665443897247314,0.3239472508430481,0.6631577014923096,0.46221354603767395,2.2834811210632324
201,25101,25099,-0.01803910732269287,-0.050007760524749756,0.9739148020744324,-1.2360713481903076,-3.999129295349121,1.4306254386901855,1.9532414674758911,3.9670865535736084,0.323196142911911,0.7218554615974426,0.3916378617286682,2.295675754547119
202,25111,25109,-0.008504007942974567,0.09696963429450989,1.020774006843567,-2.20149564743042,-2.339600086212158,1.1253587007522583,1.952509880065918,3.967132806777954,0.3225620687007904,0.9402043223381042,0.3683190643787384,2.333092451095581
203,25121,25119,-0.13242295384407043,0.22426678240299225,1.040013313293457,-1.1825218200683594,-0.40672123432159424,1.2185444831848145,1.9549647569656372,3.9697811603546143,0.3201959729194641,0.8458535075187683,0.34911710023880005,2.3972723484039307
204,25131,25129,-0.010689150542020798,-0.18586722016334534,0.9477195739746094,-2.5394837856292725,1.5405964851379395,0.33208727836608887,1.955491542816162,3.969575881958008,0.3194425702095032,0.9656137824058533,0.3565402626991272,2.398958921432495
205,25141,25139,-0.07458171248435974,0.14170537889003754,1.1779550313949585,-0.4263048470020294,3.6030261516571045,1.552067756652832,1.9583505392074585,3.969863176345825,0.31856340169906616,0.7482410669326782,0.3193279802799225,2.39833402633667
206,25151,25149,-0.03930005058646202,0.14139465987682343,1.0765365362167358,-0.35955435037612915,6.599799633026123,2.0082178115844727,1.9586548805236816,3.9714019298553467,0.31790170073509216,0.7805184125900269,0.2568536102771759,2.46211576461792
207,25161,25159,-0.05300326272845268,0.10761792212724686,1.1507586240768433,2.9722256660461426,1.0719484090805054,2.823357343673706,1.9604026079177856,3.970993757247925,0.31471744179725647,0.6504030227661133,0.36448878049850464,2.4677834510803223
208,25171,25169,0.0036602166946977377,0.12037555873394012,1.0981374979019165,3.993746519088745,2.555546522140503,2.4660892486572266,1.9596821069717407,3.9715561866760254,0.3141796886920929,0.7919430732727051,0.35294264554977417,2.524960517883301
209,25181,25179,-0.09564612805843353,0.12724344432353973,1.0157064199447632,3.324643135070801,-2.0180611610412598,2.527724504470825,1.9592052698135376,3.9712438583374023,0.3137301802635193,0.8642750978469849,0.34113651514053345,2.56298828125
210,25191,25189,-0.06977254897356033,0.022093545645475388,1.0426985025405884,2.0849852561950684,-3.2804617881774902,2.4737515449523926,1.9600441455841064,3.971855640411377,0.309827595949173,0.8493235111236572,0.40176334977149963,2.5909197330474854
211,25201,25199,0.11643999069929123,-0.32280054688453674,0.8532400727272034,1.8494081497192383,-0.3903224468231201,2.335745096206665,1.9608014822006226,3.972493886947632,0.30924269556999207,0.8178575038909912,0.4628031253814697,2.637497901916504
212,25211,25209,-0.009518231265246868,-0.03157155588269234,1.0595797300338745,-1.9956297874450684,1.6248706579208374,1.776505947113037,1.9627612829208374,3.972839832305908,0.3085900545120239,0.7169582843780518,0.45233094692230225,2.66054630279541
213,25221,25219,-0.08923254162073135,0.20072296261787415,1.1754976511001587,-2.626039981842041,-0.4337499439716339,2.235610246658325,1.9634228944778442,3.9723854064941406,0.30766454339027405,0.7600851058959961,0.4373299181461334,2.664525270462036
214,25231,25229,-0.059450019150972366,0.127202108502388,1.1056469678878784,-3.366300344467163,-1.7022790908813477,2.242382764816284,1.9630608558654785,3.972609519958496,0.3071998953819275,0.8932275176048279,0.3870379626750946,2.708740234375
215,25241,25239,-0.06413577497005463,0.20490998029708862,1.0771560668945312,-3.125731945037842,-0.6819459795951843,1.9244822263717651,1.9648345708847046,3.974015712738037,0.3067333996295929,0.7618973255157471,0.34385135769844055,2.7793140411376953
216,25251,25249,-0.12879875302314758,0.21876588463783264,1.1591814756393433,-1.599176049232483,-3.162325143814087,2.2456343173980713,1.964865803718567,3.9731645584106445,0.30652403831481934,0.8389139771461487,0.37973135709762573,2.7839252948760986
217,25261,25259,-0.09125589579343796,0.03556349501013756,1.1094930171966553,-1.319836974143982,0.39089658856391907,1.7841215133666992,1.9673001766204834,3.9733810424804688,0.3015758991241455,0.7179158329963684,0.34894174337387085,2.799325704574585
218,25271,25269,-0.05799146741628647,0.034215133637189865,1.0409778356552124,0.7163302302360535,-1.2058080434799194,1.9791063070297241,1.9670308828353882,3.9734890460968018,0.30137306451797485,0.8107328414916992,0.33219343423843384,2.827528953552246
219,25281,25279,-0.04215017333626747,-0.00314094009809196,1.0421948432922363,-1.4745912551879883,5.009960651397705,2.3133769035339355,1.9664993286132812,3.9727139472961426,0.3012455403804779,0.8872261047363281,0.33467167615890503,2.814962387084961
220,25291,25289,-0.12692569196224213,0.12977799773216248,1.0785517692565918,-1.1720973253250122,4.705343246459961,2.1833317279815674,1.9664894342422485,3.9734489917755127,0.297402948141098,0.9340059161186218,0.31560924649238586,2.906238317489624
221,25301,25299,0.04285493493080139,-0.18317802250385284,0.9313933849334717,-1.0766178369522095,6.575701713562012,2.0232279300689697,1.966286301612854,3.975224256515503,0.29714322090148926,0.9732294678688049,0.3244969844818115,2.985563278198242
222,25311,25309,-0.13655969500541687,0.019033169373869896,1.1124646663665771,-1.2288199663162231,6.8558149337768555,1.0852794647216797,1.9672890901565552,3.9751837253570557,0.29688242077827454,0.8990971446037292,0.36243730783462524,3.006303310394287
223,25321,25319,-0.13839605450630188,0.0761091560125351,1.1300631761550903,-1.7229063510894775,9.71988296508789,1.4540343284606934,1.9691853523254395,3.9756484031677246,0.297057569026947,0.7065242528915405,0.31453609466552734,3.020512819290161
224,25331,25329,-0.029965437948703766,0.14171725511550903,1.065301775932312,-2.8704535961151123,9.419318199157715,1.4816153049468994,1.9696568250656128,3.9755120277404785,0.296969473361969,0.6209747195243835,0.27089300751686096,3.010357141494751
225,25341,25339,-0.07191221415996552,0.08726664632558823,1.0093683004379272,-2.493508815765381,4.504941463470459,0.9147897362709045,1.9703025817871094,3.975492477416992,0.29702407121658325,0.5724608302116394,0.2267996221780777,3.036796808242798
226,25351,25349,-0.1719513237476349,-0.029614027589559555,1.024668574333191,-3.092980146408081,6.23699426651001,1.2960060834884644,1.970134973526001,3.975813150405884,0.2952043414115906,0.6046663522720337,0.1764974445104599,3.056165933609009
227,25361,25359,0.033883098512887955,-0.12061415612697601,0.9595096111297607,-0.08717980980873108,8.012128829956055,1.231521487236023,1.9720535278320312,3.9752748012542725,0.29518070816993713,0.38932356238365173,0.22928398847579956,3.055530309677124
228,25371,25369,0.04690225422382355,-0.20200534164905548,0.9058619737625122,-0.9999114274978638,5.074970245361328,1.4515018463134766,1.972599744796753,3.9763529300689697,0.29518818855285645,0.2849312722682953,0.22008033096790314,3.118746042251587
229,25381,25379,-0.0920407846570015,-0.05445694178342819,1.0779684782028198,-1.2471075057983398,5.131446838378906,0.9025226831436157,1.9727774858474731,3.9764626026153564,0.29528436064720154,0.2952808141708374,0.17309215664863586,3.134946584701538
230,25391,25389,-0.0916607677936554,0.16624896228313446,1.1102408170700073,-1.1389408111572266,1.6010550260543823,1.6025917530059814,1.9729126691818237,3.9759840965270996,0.2924478054046631,0.3264633119106293,0.23474512994289398,3.1545510292053223
231,25401,25399,-0.04486975446343422,0.0033283820375800133,1.0024150609970093,-1.8500752449035645,2.0129425525665283,1.1048868894577026,1.972387433052063,3.974991798400879,0.29240310192108154,0.3749821186065674,0.18716904520988464,3.136807680130005
232,25411,25409,-0.049236588180065155,-0.056048255413770676,1.022878885269165,-2.062384843826294,2.205568313598633,0.7747717499732971,1.9733620882034302,3.9752612113952637,0.29236871004104614,0.2501997947692871,0.14442932605743408,3.153470516204834
233,25421,25419,-0.010685211047530174,-0.0022258670069277287,1.0491559505462646,-1.4218515157699585,3.988262414932251,0.6210340261459351,1.9732718467712402,3.973886489868164,0.2909327447414398,0.2739306092262268,0.17576952278614044,3.130277633666992
234,25431,25429,-0.01569434627890587,0.06923824548721313,1.0986988544464111,-3.1248793601989746,4.799962997436523,0.9056622385978699,1.9751207828521729,3.9736461639404297,0.29077959060668945,-0.01973988674581051,0.1101229339838028,3.123457193374634
235,25441,25439,-0.0715729370713234,0.1973356008529663,1.1440017223358154,-3.1092922687530518,3.7853827476501465,1.5998872518539429,1.9753096103668213,3.9731130599975586,0.29088959097862244,-0.034378036856651306,0.10839657485485077,3.1436030864715576
236,25451,25449,-0.014522893354296684,0.2222176492214203,1.2003206014633179,-1.415880560874939,3.1453421115875244,0.8671542406082153,1.9753003120422363,3.9730947017669678,0.29013556241989136,-0.01710555888712406,0.04246778041124344,3.1767172813415527
237,25461,25459,-0.08770933002233505,0.24378043413162231,1.1395790576934814,-1.0042815208435059,0.4284001886844635,0.10461253672838211,1.9750711917877197,3.973585367202759,0.29052719473838806,0.03499956801533699,0.08673787117004395,3.199770927429199
238,25471,25469,-0.0471612773835659,0.24287894368171692,1.1273000240325928,0.7120575308799744,-0.762890636920929,-0.5079230666160583,1.974787950515747,3.974548816680908,0.2910689413547516,0.12500311434268951,0.04765477031469345,3.240138292312622
239,25481,25479,-0.18531256914138794,0.28204163908958435,1.2421866655349731,-1.1221286058425903,-1.6930955648422241,-0.38581234216690063,1.976544737815857,3.974362373352051,0.29162025451660156,-0.028824176639318466,0.08875202387571335,3.2443768978118896
240,25491,25489,-0.10739337652921677,0.19390074908733368,1.2592785358428955,-0.9307041764259338,2.493802070617676,-1.024397850036621,1.9768182039260864,3.975822925567627,0.2922511100769043,-0.05703463777899742,0.02149493247270584,3.289998769760132
