,timestamp_start,timestamp_end,acc.x,acc.y,acc.z,gyro.x,gyro.y,gyro.z,stateEstimate.x,stateEstimate.y,stateEstimate.z,stabilizer.pitch,stabilizer.roll,stabilizer.yaw
0,19632,19631,0.0018916131230071187,0.02495758980512619,1.0742579698562622,-3.010751485824585,-0.2924637198448181,3.3096632957458496,1.6830415725708008,4.463735580444336,0.15898007154464722,-0.6629818081855774,1.2120469808578491,3.043105363845825
1,19642,19641,-0.01408122293651104,0.1491648256778717,1.0061256885528564,-5.492500305175781,0.9008273482322693,3.567711353302002,1.6764134168624878,4.464603424072266,0.1669788658618927,0.5083019733428955,1.193529486656189,3.2842259407043457
2,19652,19651,0.02679460681974888,-0.038146886974573135,0.992197573184967,-8.084972381591797,3.0591418743133545,2.728463888168335,1.6828287839889526,4.469370365142822,0.17821736633777618,-1.1046688556671143,0.5417545437812805,3.0019640922546387
3,19662,19661,0.025435442104935646,-0.015401775948703289,0.971734881401062,-7.702490329742432,3.1766433715820312,3.9416613578796387,1.6830072402954102,4.46971321105957,0.17676891386508942,-0.9856217503547668,0.5241653323173523,3.058903694152832
4,19672,19671,-0.014896939508616924,0.030041882768273354,1.0004276037216187,-5.151749134063721,-2.491244316101074,3.598644256591797,1.6834821701049805,4.469605445861816,0.18007855117321014,-0.9385057091712952,0.575368344783783,3.119251012802124
5,19682,19681,0.03856709972023964,0.013836509548127651,1.015523076057434,-0.84572833776474,-9.269928932189941,3.086447238922119,1.682847023010254,4.469203948974609,0.18414317071437836,-0.630914568901062,0.6399596929550171,3.2148680686950684
6,19692,19691,0.051116425544023514,-0.11746523529291153,1.0164098739624023,3.580364942550659,-17.236562728881836,2.3702430725097656,1.6827529668807983,4.4684295654296875,0.18116116523742676,-0.4718863368034363,0.8263334035873413,3.2820560932159424
7,19702,19701,0.01863485388457775,-0.11816385388374329,0.9991410374641418,5.357382297515869,-22.004444122314453,2.3741400241851807,1.6838173866271973,4.469040393829346,0.1836564838886261,-0.4244827926158905,0.7555180788040161,3.279411554336548
8,19712,19711,0.027554066851735115,-0.0757322832942009,0.930223286151886,4.2818803787231445,-23.111162185668945,1.9604167938232422,1.683512568473816,4.468841075897217,0.1863107830286026,-0.07156933099031448,0.8685529828071594,3.324585199356079
9,19722,19721,0.0715530514717102,-0.08094168454408646,0.9881653785705566,0.6905626654624939,-20.632583618164062,2.124603748321533,1.6799370050430298,4.471168518066406,0.18615932762622833,0.35161253809928894,0.946402370929718,3.3764257431030273
10,19732,19731,0.05418074503540993,-0.09936043620109558,1.099439263343811,-3.178553581237793,-16.15155029296875,1.4310624599456787,1.6769872903823853,4.472218990325928,0.18822379410266876,0.7181393504142761,1.113535761833191,3.4273781776428223
11,19742,19741,0.06478490680456161,-0.1268523782491684,0.9480863213539124,-6.51131010055542,-7.636671543121338,1.1775119304656982,1.676334261894226,4.4760050773620605,0.19130277633666992,0.969220757484436,0.4456464350223541,3.4310245513916016
12,19752,19751,0.011643748730421066,-0.030047839507460594,0.9620371460914612,-7.094216823577881,2.018617630004883,1.6403591632843018,1.671477198600769,4.478002548217773,0.19178786873817444,1.651854157447815,0.1985217183828354,3.526947498321533
13,19762,19761,0.041542306542396545,-0.049120526760816574,0.9366987943649292,-3.837263345718384,12.517437934875488,1.3293001651763916,1.6717925071716309,4.477790832519531,0.19482991099357605,1.7101584672927856,0.7161757349967957,3.5223753452301025
14,19772,19771,0.07940787822008133,-0.03616835176944733,0.9871016144752502,0.17554032802581787,22.0438232421875,1.36825692653656,1.6680433750152588,4.477379322052002,0.1951690912246704,2.0450310707092285,0.5231608152389526,3.605680227279663
15,19782,19781,0.028944585472345352,-0.012587268836796284,1.0024118423461914,0.8094680309295654,31.003028869628906,0.8912135362625122,1.6679513454437256,4.476499080657959,0.19858397543430328,1.6252785921096802,0.5576781630516052,3.592726707458496
16,19792,19791,-0.03548191115260124,0.02171482890844345,0.9845401644706726,0.6683778166770935,37.53257369995117,0.895514965057373,1.6686679124832153,4.4763312339782715,0.20014458894729614,1.0836479663848877,0.5979406237602234,3.5720529556274414
17,19802,19801,-0.0015411855420097709,-0.002592993201687932,0.9865805506706238,-0.40082263946533203,38.22140121459961,0.955083966255188,1.668708086013794,4.473233699798584,0.20219191908836365,0.7025726437568665,0.7074852585792542,3.5669286251068115
18,19812,19811,0.015164229087531567,-0.004926576744765043,0.9823258519172668,-2.795236825942993,33.274837493896484,0.6434525847434998,1.6700555086135864,4.472562313079834,0.20453931391239166,0.1009584441781044,0.712282121181488,3.5572354793548584
19,19822,19821,0.015589410439133644,-0.013359149917960167,0.9685026407241821,-2.9848456382751465,23.192983627319336,1.057021975517273,1.6665143966674805,4.477234840393066,0.2050539255142212,-0.3152269721031189,0.7478432655334473,3.5547900199890137
20,19832,19831,-0.005674305371940136,0.029794754460453987,0.9408892393112183,-4.384243011474609,9.89919376373291,0.27268847823143005,1.6671044826507568,4.468144416809082,0.20691460371017456,-0.4703274965286255,0.8445107936859131,3.5678529739379883
21,19842,19841,0.017769118770956993,-0.000986470258794725,0.9792714715003967,-5.153725624084473,-1.498520016670227,0.19884660840034485,1.6673367023468018,4.468372821807861,0.20885995030403137,-0.7282325625419617,0.7449397444725037,3.558492422103882
22,19852,19851,0.012460063211619854,0.010448425076901913,0.9686660170555115,-4.754633903503418,-2.958301305770874,-0.5833073258399963,1.6668024063110352,4.466903209686279,0.21136753261089325,-0.7882764935493469,0.7880509495735168,3.5529539585113525
23,19862,19861,0.02040100283920765,0.014788500033318996,1.0154778957366943,-6.279723644256592,-10.641037940979004,-0.5061379075050354,1.6671494245529175,4.4654083251953125,0.21308046579360962,-0.9228769540786743,0.8071437478065491,3.5316836833953857
24,19872,19871,0.0018232574220746756,0.032647304236888885,0.9243727326393127,-7.123257637023926,-11.09467887878418,-0.8329570889472961,1.6651829481124878,4.463901519775391,0.21520300209522247,-0.6201727390289307,0.8017697930335999,3.5482840538024902
25,19882,19881,-0.0011836354387924075,0.02407277747988701,0.9747327566146851,-8.667612075805664,-8.76667308807373,-0.9525737166404724,1.6646121740341187,4.4642133712768555,0.21730521321296692,-0.6499838829040527,0.5489059686660767,3.5136585235595703
26,19892,19891,0.03683452680706978,-0.10266081988811493,0.9954598546028137,-10.541394233703613,-3.8932204246520996,-1.2459274530410767,1.6639546155929565,4.461935997009277,0.22095616161823273,-0.4906494915485382,0.7342339754104614,3.52687668800354
27,19902,19901,-0.0009097752044908702,-0.015909841284155846,1.0235058069229126,-11.630318641662598,1.3764936923980713,-2.0836455821990967,1.665154218673706,4.461402893066406,0.2226765900850296,-0.8068094849586487,0.7806065678596497,3.488138198852539
28,19912,19911,0.023432383313775063,-0.03683475777506828,0.9720611572265625,-12.873208045959473,4.136629104614258,-2.580496311187744,1.6643915176391602,4.461337089538574,0.22441701591014862,-0.8553223609924316,0.7171014547348022,3.4690942764282227
29,19922,19921,0.11458642035722733,-0.07041312009096146,0.975835382938385,-15.970230102539062,5.985226154327393,-2.473170280456543,1.6635966300964355,4.461594581604004,0.22644256055355072,-0.9572769999504089,0.612080991268158,3.4415249824523926
30,19932,19931,0.12934106588363647,-0.17621354758739471,0.9681912064552307,-17.89943504333496,-1.137877106666565,-2.848503828048706,1.66374933719635,4.462441921234131,0.22859233617782593,-1.03192937374115,0.23633790016174316,3.387974739074707
31,19942,19941,0.005678792018443346,-0.0635739415884018,0.9545281529426575,-16.38892364501953,-7.635510444641113,-2.6368818283081055,1.6604682207107544,4.464547157287598,0.23038604855537415,-1.0716890096664429,0.17574624717235565,3.367248773574829
32,19952,19951,0.0161266028881073,-0.029212918132543564,0.9011269211769104,-15.913277626037598,-11.015912055969238,-2.54956316947937,1.661806344985962,4.464337348937988,0.23201601207256317,-1.160499930381775,-0.03483288735151291,3.3206992149353027
33,19962,19961,0.013723419979214668,0.03473026677966118,0.9971179962158203,-11.126574516296387,-16.658905029296875,-2.9729835987091064,1.660556435585022,4.46437406539917,0.23406124114990234,-0.8516858816146851,-0.2943108081817627,3.2941384315490723
34,19972,19971,0.0326942503452301,0.026107879355549812,1.0488649606704712,-6.498207092285156,-20.359113693237305,-2.8548288345336914,1.660598874092102,4.461083889007568,0.23575101792812347,-0.7582759857177734,-0.24243223667144775,3.2893712520599365
35,19982,19981,0.019462797790765762,-0.00018213086877949536,0.9964779615402222,-3.618009328842163,-18.986942291259766,-2.6400890350341797,1.660551905632019,4.458695888519287,0.23745065927505493,-0.6158610582351685,-0.29078587889671326,3.262718439102173
36,19992,19991,-0.026596112176775932,0.09470891952514648,0.9537873864173889,-3.641681432723999,-13.722274780273438,-4.1070990562438965,1.6600840091705322,4.457812786102295,0.23912237584590912,-0.27059417963027954,-0.370616614818573,3.2326819896698
37,20002,20001,-0.0632782131433487,0.19116361439228058,0.937066376209259,-5.873658180236816,-14.13461685180664,-3.179885149002075,1.6601390838623047,4.457308769226074,0.24084214866161346,-0.1177816167473793,-0.4429657459259033,3.189793109893799
38,20012,20011,0.013249565847218037,0.03311679884791374,0.9192906022071838,-7.096165657043457,-6.9903435707092285,-4.219970703125,1.662413239479065,4.456324577331543,0.24253807961940765,-0.07991289347410202,-0.618650496006012,3.139822006225586
39,20022,20021,0.016933351755142212,0.006133297458291054,0.966033399105072,-7.314024925231934,-3.2094061374664307,-4.572378635406494,1.662857174873352,4.459136962890625,0.24630431830883026,-0.25166407227516174,-0.7271593809127808,3.0997049808502197
40,20032,20031,0.011032399721443653,-0.005361251533031464,0.979663610458374,-6.4900970458984375,-1.7346689701080322,-4.6659321784973145,1.6631759405136108,4.4578022956848145,0.24800172448158264,-0.13959139585494995,-0.8275008201599121,3.0502917766571045
41,20042,20041,-0.014147059060633183,-0.012042011134326458,1.048116683959961,-4.603459358215332,-3.0227460861206055,-4.823855400085449,1.6641472578048706,4.458228588104248,0.24955961108207703,-0.18049651384353638,-0.9841663837432861,3.001230478286743
42,20052,20051,-0.02192254550755024,0.020284978672862053,1.0199253559112549,-0.9944671392440796,-5.318806171417236,-4.930983543395996,1.6629242897033691,4.458060264587402,0.25256454944610596,0.02212425135076046,-1.0912144184112549,2.9358808994293213
43,20062,20061,-0.027576280757784843,0.028904419392347336,0.9990753531455994,0.3249181807041168,-7.659046173095703,-4.257202625274658,1.664890170097351,4.4565558433532715,0.25437378883361816,-0.07339801639318466,-0.9784632921218872,2.907634735107422
44,20072,20071,-0.002953931922093034,0.01263953372836113,0.9481541514396667,5.343461990356445,-7.97033166885376,-5.124805450439453,1.6644083261489868,4.454751968383789,0.25637978315353394,0.11704490333795547,-0.975147545337677,2.8456149101257324
45,20082,20081,0.03263560310006142,0.10443821549415588,0.8757813572883606,6.49270486831665,-10.93748664855957,-4.634952068328857,1.6635005474090576,4.454891204833984,0.25813817977905273,0.18666626513004303,-0.9196215271949768,2.793919563293457
46,20092,20091,0.033695485442876816,0.12275195121765137,0.9305412769317627,5.5009846687316895,-11.319172859191895,-4.46664571762085,1.6650946140289307,4.454511642456055,0.2632727324962616,0.16873690485954285,-0.8468976616859436,2.7597522735595703
47,20102,20101,0.017758958041667938,0.09397494792938232,0.9834291338920593,3.4826433658599854,-10.887259483337402,-4.907154083251953,1.664352536201477,4.453232288360596,0.26523715257644653,0.3825102746486664,-0.6591970920562744,2.702190399169922
48,20112,20111,0.005438550841063261,0.00394849618896842,0.9840287566184998,0.13067680597305298,-9.981460571289062,-4.585916042327881,1.6650251150131226,4.453286170959473,0.2669485807418823,0.443338006734848,-0.6632402539253235,2.6586694717407227
49,20122,20121,-0.035833071917295456,-0.05750632286071777,0.9940507411956787,-3.2739784717559814,-8.459565162658691,-4.78934383392334,1.664377212524414,4.452749729156494,0.27112072706222534,0.6401218771934509,-0.71425461769104,2.598949909210205
50,20132,20131,-0.0219425056129694,-0.01963595114648342,0.9566566348075867,-5.578106880187988,-6.110942363739014,-4.082754135131836,1.6635209321975708,4.451992034912109,0.27293092012405396,0.8058649301528931,-0.8170825242996216,2.5429563522338867
51,20142,20141,-0.052054136991500854,-0.09091711789369583,0.9460002779960632,-5.4293212890625,-2.7766029834747314,-3.8596086502075195,1.6632111072540283,4.45100736618042,0.27468299865722656,0.9211801886558533,-0.7938553690910339,2.4935340881347656
52,20152,20151,-0.03232843801379204,-0.21721261739730835,0.9443169832229614,-3.9576706886291504,-0.7978482246398926,-3.224717855453491,1.6634315252304077,4.452280521392822,0.27694591879844666,0.8359081149101257,-0.9053763151168823,2.472824811935425
53,20162,20161,0.018290553241968155,-0.2792685627937317,0.8994985222816467,-1.2319238185882568,3.1121349334716797,-3.9577298164367676,1.6633983850479126,4.452514171600342,0.2786860764026642,0.8609638810157776,-0.9824303388595581,2.437960386276245
54,20172,20171,0.020112833008170128,-0.05976236239075661,0.9104677438735962,1.938537359237671,4.801578521728516,-3.6033518314361572,1.6643184423446655,4.449557781219482,0.28037312626838684,0.8260118365287781,-1.0106761455535889,2.3992395401000977
55,20182,20181,0.008248517289757729,-0.0020944387651979923,0.9391635060310364,5.222987174987793,4.651569366455078,-3.262113094329834,1.6631863117218018,4.4485859870910645,0.2820090651512146,0.8452680110931396,-0.8327879905700684,2.343080759048462
56,20192,20191,0.048406317830085754,-0.042857177555561066,0.9078121781349182,8.187204360961914,3.371863842010498,-2.8993382453918457,1.662243366241455,4.450634479522705,0.2835922837257385,0.8719091415405273,-0.9771139025688171,2.3215105533599854
57,20202,20201,0.05734255164861679,-0.03620491549372673,0.9054942727088928,8.51501178741455,1.8188530206680298,-3.0011463165283203,1.661757469177246,4.450649261474609,0.2850777804851532,0.8415876626968384,-0.8454534411430359,2.290403127670288
58,20212,20211,-0.0032397557515650988,-0.008105685003101826,0.9357037544250488,6.833316802978516,0.7129796743392944,-2.9076035022735596,1.6617299318313599,4.451656341552734,0.2864064574241638,0.8276283144950867,-0.8683836460113525,2.27223801612854
59,20222,20221,0.05635849013924599,-0.006940028164535761,0.8974962830543518,6.016524314880371,-0.0249356459826231,-3.0541882514953613,1.6616499423980713,4.452630519866943,0.29136958718299866,0.8454354405403137,-0.8952709436416626,2.2539379596710205
60,20232,20231,0.11151737719774246,0.023376815021038055,0.8891429901123047,5.562851905822754,0.18843406438827515,-2.7649199962615967,1.6614073514938354,4.453717231750488,0.29268473386764526,0.8743050694465637,-0.9211681485176086,2.2342517375946045
61,20242,20241,0.045347437262535095,0.003135247388854623,0.9207155108451843,6.4086761474609375,1.7471897602081299,-2.694242238998413,1.6621123552322388,4.454827308654785,0.2939104437828064,0.7999995350837708,-0.937405526638031,2.226897716522217
62,20252,20251,0.0626327320933342,0.11543873697519302,0.9343094825744629,9.060296058654785,2.4443068504333496,-2.278132677078247,1.6613781452178955,4.4534783363342285,0.2937963008880615,0.8672252893447876,-0.7060250043869019,2.170936346054077
63,20262,20261,0.01653466559946537,-0.08715913444757462,0.9436282515525818,10.118703842163086,3.693124532699585,-2.033426284790039,1.6604933738708496,4.453039169311523,0.2948286533355713,0.8955665826797485,-0.5264766216278076,2.130122423171997
64,20272,20271,-0.0005505765439011157,0.0006730934837833047,0.9207988381385803,11.269425392150879,4.500946044921875,-1.473414421081543,1.66033136844635,4.4505205154418945,0.2958235442638397,0.8117784261703491,-0.25513777136802673,2.0952160358428955
65,20282,20281,0.017005395144224167,0.10876370966434479,0.9101205468177795,9.706473350524902,4.998781204223633,-1.1874445676803589,1.653067946434021,4.44860315322876,0.297976553440094,1.4407687187194824,0.002766742603853345,1.9699077606201172
66,20292,20291,0.03857572004199028,0.12112059444189072,0.9377789497375488,6.1447367668151855,5.836099147796631,-0.23227575421333313,1.6699944734573364,4.451220989227295,0.3018893301486969,-0.3020195960998535,-0.08715333789587021,2.183067798614502
67,20302,20301,0.0019311611540615559,0.0033607573714107275,0.9377785325050354,0.219485804438591,8.951445579528809,-1.6135820150375366,1.670560359954834,4.45100736618042,0.30292728543281555,-0.3396138846874237,-0.016155309975147247,2.1709811687469482
68,20312,20311,-0.005111953243613243,0.00041980479727499187,0.9410771131515503,-5.177109241485596,6.548491954803467,-1.9119253158569336,1.6695369482040405,4.451981067657471,0.3043021857738495,-0.25504380464553833,-0.12458837777376175,2.147076368331909
69,20322,20321,0.08535654097795486,-0.11082841455936432,0.9495230913162231,-7.62725830078125,-1.5678112506866455,-1.2759195566177368,1.6692984104156494,4.451528072357178,0.3029627799987793,-0.2857339084148407,-0.2917154133319855,2.130652904510498
70,20332,20331,0.09529972076416016,-0.17121049761772156,0.937596321105957,-5.925381660461426,-9.33770751953125,-1.8531172275543213,1.6689363718032837,4.452024936676025,0.30377641320228577,-0.16534873843193054,-0.3921530544757843,2.110154867172241
71,20342,20341,0.032496459782123566,-0.044649604707956314,0.9254465699195862,0.023921847343444824,-16.999975204467773,-1.3601831197738647,1.6674963235855103,4.451406955718994,0.30461880564689636,0.09219327569007874,-0.4348655045032501,2.083372116088867
72,20352,20351,0.029942329972982407,-0.018330706283450127,0.8907918930053711,6.254546165466309,-20.110227584838867,-1.3380941152572632,1.6666332483291626,4.4500627517700195,0.30299919843673706,0.4160347878932953,-0.38237154483795166,2.0575389862060547
73,20362,20361,-0.002716887043789029,0.002887330949306488,0.9622164368629456,11.245298385620117,-19.141010284423828,-0.33822229504585266,1.6659694910049438,4.449371337890625,0.3034166097640991,0.700656533241272,-0.2292734831571579,2.038877487182617
74,20372,20371,-0.01298583298921585,0.01374388113617897,0.987555742263794,13.813742637634277,-12.974853515625,-0.013519062660634518,1.6657886505126953,4.448017120361328,0.30375972390174866,0.8517454862594604,-0.08310819417238235,2.036223888397217
75,20382,20381,0.04216014966368675,-0.021481670439243317,0.9323037266731262,12.05511474609375,-3.626574754714966,-0.15459924936294556,1.664682388305664,4.448453903198242,0.3046814501285553,1.0161077976226807,0.07577177882194519,2.0301530361175537
76,20392,20391,-0.01592697575688362,-0.009177010506391525,1.0030988454818726,8.890691757202148,3.3925869464874268,-0.45000964403152466,1.6649099588394165,4.449063301086426,0.30496472120285034,0.9707508087158203,0.19385798275470734,2.0322771072387695
77,20402,20401,-0.0489836223423481,0.037061966955661774,1.010781168937683,3.0734951496124268,12.308619499206543,-0.5218103528022766,1.6649397611618042,4.4514994621276855,0.3052416741847992,0.8842082023620605,0.09424348175525665,2.0424370765686035
78,20412,20411,-0.007543166633695364,-0.1188177764415741,0.9935089945793152,-2.0246376991271973,21.94173812866211,-0.6626294851303101,1.664272665977478,4.452312469482422,0.30425921082496643,0.8219743967056274,0.07065632939338684,2.0420026779174805
79,20422,20421,0.022264033555984497,-0.1342124044895172,0.9927729964256287,-3.7440216541290283,29.09465789794922,-0.9340452551841736,1.6641956567764282,4.452523708343506,0.3043983578681946,0.6210931539535522,0.05674745514988899,2.0382773876190186
80,20432,20431,0.014269653707742691,-0.09009052067995071,1.0222008228302002,-2.33689284324646,31.83100128173828,-0.9232812523841858,1.6620436906814575,4.452582359313965,0.3045244812965393,0.5516006946563721,0.029032714664936066,2.028886556625366
81,20442,20441,-0.0165998637676239,-0.03580412641167641,1.039815068244934,0.15933272242546082,31.263324737548828,-1.3304697275161743,1.662503719329834,4.453447341918945,0.30469778180122375,0.19730031490325928,-0.043238915503025055,2.0269343852996826
82,20452,20451,-0.004461946431547403,-0.04578186944127083,0.9741691946983337,4.671871662139893,26.996593475341797,-1.111398696899414,1.6621743440628052,4.454794883728027,0.3014891743659973,-0.14897657930850983,-0.06750424206256866,2.0169050693511963
83,20462,20461,0.007536233868449926,-0.013815508224070072,0.9346199035644531,7.579805850982666,22.034786224365234,-1.2238620519638062,1.6599202156066895,4.454162120819092,0.3015919327735901,-0.21294838190078735,0.06098161265254021,1.999160647392273
84,20472,20471,0.062384508550167084,-0.023022018373012543,0.9076939821243286,10.58253002166748,15.526782989501953,-0.8271869421005249,1.6585582494735718,4.4514970779418945,0.3015759289264679,-0.3907647430896759,0.22689922153949738,1.9822078943252563
85,20482,20481,0.020123226568102837,0.01473218109458685,0.9972403049468994,10.504263877868652,10.0155611038208,-0.46282055974006653,1.6557261943817139,4.452579975128174,0.2991824150085449,-0.36482223868370056,0.11736521869897842,1.9844138622283936
86,20492,20491,0.019155722111463547,-0.03350556269288063,0.9825658798217773,8.038818359375,9.296586036682129,-0.30156949162483215,1.6561771631240845,4.451158046722412,0.29896506667137146,-0.5887631773948669,0.31049689650535583,1.977458119392395
87,20502,20501,-0.0224334467202425,0.017564380541443825,1.0387085676193237,6.852705955505371,8.896075248718262,0.5830149054527283,1.654923439025879,4.4515461921691895,0.2986694276332855,-0.6253666281700134,0.40322527289390564,1.9770128726959229
88,20512,20511,0.03812151029706001,-0.04538486897945404,0.9588755965232849,2.0180599689483643,12.816068649291992,0.8751171231269836,1.654018759727478,4.452081203460693,0.2982335388660431,-0.6856651306152344,0.443905770778656,1.9856178760528564
89,20522,20521,-0.01660541445016861,0.0025653368793427944,1.0509649515151978,-0.02431762032210827,15.279194831848145,0.27998027205467224,1.6550698280334473,4.45375919342041,0.29793474078178406,-0.9622422456741333,0.33864277601242065,1.9879664182662964
90,20532,20531,0.02780887670814991,-0.03396276384592056,0.9891467094421387,-0.6418650150299072,16.287973403930664,0.11180384457111359,1.6546616554260254,4.453723907470703,0.2976592779159546,-1.1063766479492188,0.3766881823539734,1.993861198425293
91,20542,20541,0.03243570029735565,0.04290628433227539,1.0081275701522827,-1.50184965133667,16.318164825439453,0.1264689862728119,1.6585344076156616,4.441678047180176,0.2973301112651825,-1.231687068939209,0.4153709411621094,2.0002260208129883
92,20552,20551,0.04402069002389908,-0.0001421627530362457,1.0070428848266602,-0.4712613821029663,14.15893268585205,0.2612929344177246,1.6588842868804932,4.442508697509766,0.2986382246017456,-1.4601805210113525,0.3583318889141083,1.995993971824646
93,20562,20561,-0.02238021232187748,0.0031253721099346876,1.073898196220398,1.3441869020462036,10.843239784240723,-0.07798560708761215,1.659897804260254,4.438918590545654,0.2984364926815033,-1.6292191743850708,0.3969278037548065,1.9990264177322388
94,20572,20571,-0.00903640128672123,-0.04003504291176796,1.0314935445785522,2.8642592430114746,8.14741039276123,0.38335564732551575,1.6592962741851807,4.438663482666016,0.2983003258705139,-1.7375233173370361,0.3859676420688629,1.9956750869750977
95,20582,20581,0.013221049681305885,-0.001088840188458562,1.0450224876403809,4.418292045593262,4.637515068054199,0.4422902464866638,1.659534215927124,4.437514305114746,0.30012238025665283,-1.868656873703003,0.48093393445014954,2.006072759628296
96,20592,20591,0.047684285789728165,0.018951158970594406,1.0631452798843384,7.0690016746521,0.2683675289154053,0.4449736475944519,1.6579111814498901,4.4372148513793945,0.3002963364124298,-1.7676036357879639,0.5911721587181091,2.0316197872161865
97,20602,20601,0.023731116205453873,-0.05442054942250252,1.060415267944336,6.890861511230469,-1.8391292095184326,0.3233252763748169,1.6577509641647339,4.43831729888916,0.30043014883995056,-1.763848900794983,0.5700510740280151,2.0213751792907715
98,20612,20611,0.012284930795431137,-0.039529621601104736,1.0292160511016846,3.6998372077941895,-0.9763913750648499,-0.14204542338848114,1.65762460231781,4.4378767013549805,0.29857197403907776,-1.745978832244873,0.7036727666854858,2.037151336669922
99,20622,20621,0.008560698479413986,-0.005286375992000103,1.023589849472046,1.2231074571609497,0.9268409609794617,-0.4170073866844177,1.657643437385559,4.437657833099365,0.2986658811569214,-1.747877597808838,0.7766379117965698,2.0430824756622314
100,20632,20631,0.0397186316549778,-0.04577100649476051,1.0242873430252075,-1.240695834159851,2.8456695079803467,-0.6946781873703003,1.6577606201171875,4.438436985015869,0.29879239201545715,-1.7766196727752686,0.7249394655227661,2.0257883071899414
101,20642,20641,0.07907867431640625,-0.13854384422302246,1.0411021709442139,-3.718388795852661,3.781811475753784,-0.6815248727798462,1.6572359800338745,4.439283847808838,0.29894277453422546,-1.8230968713760376,0.7064558267593384,2.021190643310547
102,20652,20651,0.03579581156373024,-0.09645873308181763,1.063183069229126,-4.478063583374023,5.052242755889893,-0.5080307722091675,1.6567555665969849,4.439554214477539,0.2991018295288086,-1.8109242916107178,0.6548601388931274,2.0189085006713867
103,20662,20661,0.008455458097159863,-0.019278859719634056,1.0009139776229858,-3.414013147354126,7.2094902992248535,-0.9534651637077332,1.6578208208084106,4.4381184577941895,0.29933279752731323,-1.9007465839385986,0.591961681842804,2.007685661315918
104,20672,20671,-0.007938235066831112,0.02193843014538288,0.9528266191482544,-1.6879762411117554,2.854642868041992,-0.43435296416282654,1.6584354639053345,4.4383416175842285,0.2995438277721405,-2.02506947517395,0.556749165058136,1.9915825128555298
105,20682,20681,0.007326479535549879,-0.006550600286573172,1.0061285495758057,1.3171666860580444,-2.726360559463501,-0.29069533944129944,1.6584354639053345,4.438393592834473,0.2959213852882385,-2.0411603450775146,0.5657951235771179,1.992414116859436
106,20692,20691,-0.006769982166588306,0.019273241981863976,1.046379566192627,2.5491156578063965,-1.6860235929489136,0.3199276626110077,1.658387303352356,4.438238620758057,0.29590845108032227,-2.0013539791107178,0.6103411316871643,2.0022764205932617
107,20702,20701,0.0064627304673194885,-0.019558612257242203,1.0115739107131958,2.956658124923706,-3.058075189590454,0.18968169391155243,1.6590253114700317,4.438059329986572,0.2958613336086273,-2.0207667350769043,0.6657838225364685,2.0094547271728516
108,20712,20711,-0.019972054287791252,0.03708920627832413,1.01604163646698,1.2264600992202759,-4.087873458862305,0.2293034791946411,1.658097505569458,4.43665075302124,0.2966027557849884,-1.9126882553100586,0.7213252782821655,2.023794651031494
109,20722,20721,-0.0356057845056057,0.04076046496629715,1.0623918771743774,-0.23395591974258423,-5.126861572265625,-0.31692904233932495,1.6577893495559692,4.436578273773193,0.29671239852905273,-1.8132569789886475,0.7372531294822693,2.029296875
110,20732,20731,-0.005434413906186819,0.09128500521183014,0.9600419402122498,-4.464653015136719,-2.4207794666290283,-0.5014828443527222,1.657003402709961,4.438109874725342,0.29686447978019714,-1.7459907531738281,0.6252952218055725,1.9992035627365112
111,20742,20741,-0.0418359637260437,0.03180520609021187,1.045386791229248,-4.8423566818237305,-1.3238242864608765,-1.3279465436935425,1.659702181816101,4.432743549346924,0.2969244718551636,-1.7786436080932617,0.6211229562759399,1.99984872341156
112,20752,20751,0.023473454639315605,-0.04884066805243492,0.986548900604248,-4.603382587432861,-0.2498238980770111,-1.174298644065857,1.6612474918365479,4.433144569396973,0.29845911264419556,-1.8841423988342285,0.5356993675231934,1.9665526151657104
113,20762,20761,-0.000740815419703722,0.017231104895472527,1.0505728721618652,-3.9561030864715576,0.16064879298210144,-1.0547897815704346,1.6612989902496338,4.431863784790039,0.29871493577957153,-1.830236554145813,0.4654237926006317,1.9538625478744507
114,20772,20771,0.02041272260248661,-0.013779287226498127,1.0039504766464233,-3.275027275085449,-2.125439405441284,-0.8359734416007996,1.6606624126434326,4.431183338165283,0.29900965094566345,-1.7642556428909302,0.41288939118385315,1.9433460235595703
115,20782,20781,-0.0013893722789362073,-0.04074067249894142,1.0056260824203491,-1.5660319328308105,-4.678536891937256,-0.9686498641967773,1.6608690023422241,4.429749965667725,0.2978076934814453,-1.6632267236709595,0.3787405788898468,1.9373284578323364
116,20792,20791,-0.006973994895815849,-0.011187317781150341,1.0314252376556396,1.4253473281860352,-5.756674766540527,-1.3633273839950562,1.66238534450531,4.424023628234863,0.29800254106521606,-1.5358235836029053,0.3844830095767975,1.9363222122192383
117,20802,20801,0.01621057093143463,-0.07218609750270844,1.0129069089889526,1.7757408618927002,-5.440114974975586,-1.79085111618042,1.6641366481781006,4.423970699310303,0.29816490411758423,-1.698920488357544,0.5061689615249634,1.931193232536316
118,20812,20811,-0.0201391763985157,-0.05568638816475868,0.9968328475952148,1.7939094305038452,-3.572287082672119,-2.3370888233184814,1.6626691818237305,4.420128345489502,0.30006179213523865,-1.5526374578475952,0.5238136649131775,1.9220798015594482
119,20822,20821,-0.005519018042832613,-0.04624134302139282,0.9821334481239319,1.3250679969787598,-4.834054470062256,-2.290225028991699,1.663906455039978,4.420089244842529,0.3003406226634979,-1.5817015171051025,0.5367165803909302,1.8948525190353394
120,20832,20831,0.002649825531989336,-0.010041425935924053,1.002100944519043,-0.6179169416427612,-4.330080509185791,-2.410064935684204,1.6640651226043701,4.419541358947754,0.3006504774093628,-1.5134265422821045,0.6209361553192139,1.8911590576171875
121,20842,20841,0.02189747802913189,0.0021871894132345915,1.0273244380950928,-2.833867311477661,-5.242239475250244,-2.7911713123321533,1.6660151481628418,4.419748306274414,0.29913565516471863,-1.6119604110717773,0.5791680216789246,1.8441818952560425
122,20852,20851,0.018931446596980095,-0.006743450649082661,1.0051023960113525,-6.227201461791992,-5.474972248077393,-2.8793842792510986,1.6657356023788452,4.419939994812012,0.29945433139801025,-1.449581503868103,0.49107274413108826,1.8117583990097046
123,20862,20861,-0.004685680847615004,-0.02849617600440979,1.0086504220962524,-5.857345104217529,-7.435335159301758,-3.5132312774658203,1.6648781299591064,4.41945219039917,0.2997611463069916,-1.2616177797317505,0.37803781032562256,1.7767237424850464
124,20872,20871,-0.0028022739570587873,-0.022866137325763702,0.9878582954406738,-7.886168479919434,-5.551319599151611,-3.649851083755493,1.6651339530944824,4.419947624206543,0.3000126779079437,-1.157486081123352,0.2539324462413788,1.7309490442276
125,20882,20881,0.002030209871008992,0.12085966020822525,0.9486179351806641,-6.68515157699585,-3.2834103107452393,-3.5967180728912354,1.6679929494857788,4.419880390167236,0.3008243143558502,-1.4382083415985107,0.2789466381072998,1.6922558546066284
126,20892,20891,-0.0030666240490972996,0.0593692809343338,0.9888732433319092,-3.0567166805267334,-4.533045291900635,-2.8479998111724854,1.6685667037963867,4.4215898513793945,0.30119311809539795,-1.2671302556991577,0.2672789692878723,1.6786704063415527
127,20902,20901,0.005150231532752514,-0.04469256103038788,0.9946889877319336,-1.1623786687850952,-5.660223484039307,-2.8120458126068115,1.669729471206665,4.420950412750244,0.3013749122619629,-1.2512816190719604,0.3000907897949219,1.657347559928894
128,20912,20911,0.04208487644791603,-0.015531075187027454,0.9539185762405396,1.0740437507629395,-7.105456352233887,-2.5533347129821777,1.6712615489959717,4.420808792114258,0.3034221827983856,-1.2762207984924316,0.2782297432422638,1.6168670654296875
129,20922,20921,0.05765887722373009,-0.05556052178144455,1.0131902694702148,1.7549806833267212,-9.03487777709961,-2.579104423522949,1.672465443611145,4.420865058898926,0.3036864697933197,-1.240305781364441,0.26033681631088257,1.584800124168396
130,20932,20931,-0.0026536749210208654,-0.054405923932790756,1.0914374589920044,-1.6779760122299194,-9.82833194732666,-1.7525501251220703,1.6720737218856812,4.419314861297607,0.304090291261673,-1.0395386219024658,0.3239564001560211,1.5789320468902588
131,20942,20941,-0.040947411209344864,-0.03632095456123352,1.0690786838531494,-1.2114272117614746,-11.114407539367676,-1.9062784910202026,1.674608588218689,4.41985559463501,0.302237868309021,-0.9745184183120728,0.12056426703929901,1.5257015228271484
132,20952,20951,-0.06032227352261543,0.11221093684434891,1.0240447521209717,-3.9412412643432617,-8.548791885375977,-1.8522790670394897,1.6763488054275513,4.418975830078125,0.3025382459163666,-0.839574933052063,0.09646984934806824,1.502993106842041
133,20962,20961,0.015383255667984486,-0.02069314755499363,0.9476838111877441,-2.101608991622925,-8.437738418579102,-1.8769502639770508,1.676863193511963,4.418883800506592,0.3028620481491089,-0.7559706568717957,0.1072828620672226,1.494702696800232
134,20972,20971,0.0240466371178627,0.1314118653535843,0.9687135815620422,-2.386089563369751,-5.106474876403809,-1.715816855430603,1.679104208946228,4.415820598602295,0.303054541349411,-0.8052788376808167,0.15337584912776947,1.476746916770935
135,20982,20981,0.015466663986444473,0.1319061517715454,0.9908324480056763,-0.17291812598705292,-5.821260929107666,-1.6857023239135742,1.6798269748687744,4.415579319000244,0.3040703237056732,-0.6385340094566345,0.11250635981559753,1.4590076208114624
136,20992,20991,-0.012370246462523937,0.0021563530899584293,1.0554184913635254,0.35184717178344727,-5.658417224884033,-2.3645894527435303,1.6810195446014404,4.4154205322265625,0.30434074997901917,-0.6003404855728149,0.09824605286121368,1.4368761777877808
137,21002,21001,-0.08285076916217804,-0.006794384215027094,1.0991533994674683,-1.1033592224121094,-5.017703056335449,-2.1582541465759277,1.685584545135498,4.413805961608887,0.3044643998146057,-0.7746013402938843,0.14300371706485748,1.4140760898590088
138,21012,21011,-0.1007779985666275,-0.0006366593297570944,1.041751742362976,-0.11790181696414948,-5.542860984802246,-2.8274824619293213,1.6846226453781128,4.41289758682251,0.3069484531879425,-0.5136343240737915,0.12586790323257446,1.3912729024887085
139,21022,21021,-0.09297042340040207,0.11668826639652252,1.0065239667892456,-3.54313588142395,-5.810214042663574,-2.559871196746826,1.6844260692596436,4.412184715270996,0.3076015114784241,-0.3539769649505615,0.09949474781751633,1.36114501953125
140,21032,21031,0.02232733555138111,0.023612676188349724,0.9675071835517883,-1.8766353130340576,-7.912167549133301,-2.4143006801605225,1.685720682144165,4.411412239074707,0.3081449270248413,-0.36673691868782043,0.029887355864048004,1.335137963294983
141,21042,21041,0.019231583923101425,0.1061861515045166,1.0025287866592407,-2.5227952003479004,-7.6947784423828125,-2.3287277221679688,1.685444951057434,4.410529136657715,0.3093898594379425,-0.20819607377052307,-0.02312696911394596,1.3102601766586304
142,21052,21051,0.02675611339509487,0.0735565647482872,1.000809907913208,-2.083644390106201,-7.142061233520508,-1.9821332693099976,1.686548113822937,4.409175872802734,0.30997174978256226,-0.14139041304588318,0.07528781145811081,1.292805790901184
143,21062,21061,0.009332085028290749,-0.027240371331572533,0.9899147152900696,-0.9695322513580322,-5.845629692077637,-1.6995266675949097,1.6902772188186646,4.406647682189941,0.31043386459350586,-0.23187565803527832,0.024945532903075218,1.273506999015808
144,21072,21071,-0.056178949773311615,-0.07190306484699249,1.0277729034423828,-0.8312652111053467,-5.160557746887207,-2.2753489017486572,1.6899008750915527,4.407305717468262,0.31113603711128235,-0.08601163327693939,-0.003963367082178593,1.2544918060302734
145,21082,21081,-0.09430820494890213,-0.05316806584596634,1.0377004146575928,-1.3696036338806152,-4.929764270782471,-2.1367712020874023,1.6901159286499023,4.407398700714111,0.31174591183662415,0.06450257450342178,-0.038665711879730225,1.2316116094589233
146,21092,21091,-0.08838653564453125,-0.00039154375554062426,0.9994818568229675,-1.3637248277664185,-3.243755578994751,-2.3192837238311768,1.6919020414352417,4.407508373260498,0.31231704354286194,0.0554506815969944,-0.06915689259767532,1.2101421356201172
147,21102,21101,-0.07904712855815887,0.06292176991701126,0.981009304523468,-1.3913753032684326,-1.7296823263168335,-2.058295965194702,1.692272424697876,4.406795501708984,0.3129974901676178,0.1686914712190628,-0.02328115701675415,1.1850242614746094
148,21112,21111,-0.04831002280116081,0.10649173706769943,0.9670357704162598,-1.8226604461669922,-0.46280181407928467,-2.2114052772521973,1.6930464506149292,4.406097888946533,0.312209814786911,0.16883176565170288,-0.06724576652050018,1.1650276184082031
149,21122,21121,-0.0030332731548696756,0.13316167891025543,0.965329647064209,-1.931681752204895,-0.13579359650611877,-2.4336671829223633,1.6951513290405273,4.405622959136963,0.3126823902130127,0.14781302213668823,-0.11354365944862366,1.1449745893478394
150,21132,21131,0.0233493372797966,0.13935597240924835,0.9808547496795654,-1.7235677242279053,-0.42632898688316345,-2.7730002403259277,1.6976754665374756,4.404016494750977,0.3131121098995209,0.11794622242450714,-0.08473818004131317,1.1179430484771729
151,21142,21141,0.02830573171377182,0.10638517141342163,0.9881798624992371,-0.9863283038139343,-1.8521801233291626,-2.4776158332824707,1.6984570026397705,4.404081344604492,0.31559303402900696,0.16838766634464264,-0.11891975998878479,1.0928146839141846
152,21152,21151,0.01909935288131237,0.04267054423689842,0.9873262047767639,-1.0623801946640015,-2.950209617614746,-2.1962337493896484,1.6998566389083862,4.404116153717041,0.31609129905700684,0.15662303566932678,-0.1452949494123459,1.0720453262329102
153,21162,21161,-0.008612212724983692,-0.015166908502578735,0.9852592945098877,0.4347352385520935,-3.8601043224334717,-2.2303192615509033,1.6995066404342651,4.404246807098389,0.31673383712768555,0.3114492893218994,-0.16960662603378296,1.0475577116012573
154,21172,21171,-0.04660966247320175,-0.04216153919696808,0.9840332865715027,1.5452145338058472,-3.6516921520233154,-2.0829851627349854,1.7023005485534668,4.404277324676514,0.315342515707016,0.17741400003433228,-0.16625924408435822,1.0319344997406006
155,21182,21181,-0.021703682839870453,-0.022080296650528908,0.9804627299308777,1.7295323610305786,-2.832195997238159,-1.7456939220428467,1.7020468711853027,4.40412712097168,0.31583723425865173,0.33912229537963867,-0.1433822512626648,1.0075892210006714
156,21192,21191,-0.10512946546077728,0.0022091506980359554,0.9872419238090515,1.988133430480957,-2.09798264503479,-1.6578789949417114,1.7016966342926025,4.403995513916016,0.3162853419780731,0.49912336468696594,-0.12229625135660172,0.9843971133232117
157,21202,21201,0.02476825937628746,-0.07689954340457916,0.9635576605796814,1.0810503959655762,2.0098443031311035,-1.8064789772033691,1.7044233083724976,4.404374599456787,0.3165349066257477,0.2904145419597626,-0.10369786620140076,0.9761924743652344
158,21212,21211,-0.05755191668868065,0.047129224985837936,0.9672520160675049,1.0918408632278442,2.010451316833496,-1.7821226119995117,1.7052183151245117,4.40489387512207,0.3159116506576538,0.2511218786239624,-0.08819397538900375,0.9578847885131836
159,21222,21221,-0.0843701884150505,0.1365751475095749,0.9741926193237305,0.2014550268650055,2.5884318351745605,-1.9800941944122314,1.7052221298217773,4.4047956466674805,0.3162272274494171,0.339541494846344,-0.07904419302940369,0.9342836737632751
160,21232,21231,-0.04537877440452576,0.15236519277095795,0.9757966995239258,-0.26975980401039124,2.2357587814331055,-2.0434858798980713,1.7054040431976318,4.405161380767822,0.3165011405944824,0.4064341187477112,-0.08569380640983582,0.9133511781692505
161,21242,21241,-0.008758606389164925,0.1348099410533905,0.9823735356330872,-0.32843413949012756,2.0203440189361572,-1.5915130376815796,1.705445408821106,4.405159950256348,0.31619927287101746,0.4657440185546875,-0.09333070367574692,0.8933319449424744
162,21252,21251,0.0068461354821920395,0.10746254026889801,0.9985101222991943,-0.5660114884376526,2.518791437149048,-1.856834053993225,1.7051341533660889,4.404354572296143,0.31638264656066895,0.5096815228462219,-0.10346332937479019,0.8761089444160461
163,21262,21261,0.001964639173820615,-0.0038156085647642612,0.9817832112312317,0.5384334325790405,3.719773530960083,-2.2118217945098877,1.7070977687835693,4.4033331871032715,0.3164864480495453,0.31230393052101135,-0.1088012233376503,0.8637402057647705
164,21272,21271,-0.032871685922145844,0.0058586569502949715,0.9993189573287964,2.3846428394317627,4.541482925415039,-1.8838872909545898,1.708120346069336,4.403292655944824,0.3140404522418976,0.2526121735572815,-0.09717649966478348,0.8420155644416809
165,21282,21281,-0.007698097266256809,-0.009644128382205963,0.9749258160591125,2.601976156234741,5.128105163574219,-2.2033133506774902,1.7073915004730225,4.402431011199951,0.3140771985054016,0.2639830708503723,-0.0542641319334507,0.816375195980072
166,21292,21291,-0.06524189561605453,0.027750425040721893,0.9840279221534729,2.055101156234741,4.7920308113098145,-2.4667134284973145,1.7077155113220215,4.402244567871094,0.3140746057033539,0.26335039734840393,-0.016292957589030266,0.7871679663658142
167,21302,21301,-0.10298492014408112,0.07374253123998642,0.9733604788780212,2.2185492515563965,4.2373738288879395,-2.239133596420288,1.7072546482086182,4.4067230224609375,0.3140363097190857,0.20071689784526825,-0.05608628690242767,0.7716772556304932
168,21312,21311,-0.07044795900583267,0.09541808813810349,0.9646168947219849,2.4223296642303467,3.6334500312805176,-2.00894832611084,1.708258867263794,4.40569543838501,0.3131853938102722,0.1425527185201645,0.049298133701086044,0.7350867390632629
169,21322,21321,-0.05880330130457878,0.10968878865242004,1.0256359577178955,-0.9023182988166809,4.50733757019043,-2.3744406700134277,1.709197759628296,4.405540466308594,0.3130250573158264,0.10292286425828934,0.07079548388719559,0.7109242081642151
170,21332,21331,-0.043637268245220184,0.0593300424516201,1.050897479057312,-0.8341740965843201,4.488589286804199,-1.5839309692382812,1.7102091312408447,4.406473636627197,0.31287845969200134,0.047907132655382156,-0.03200926631689072,0.7094519138336182
171,21342,21341,-0.0021813479252159595,-0.0043346211314201355,1.054166316986084,0.03140024468302727,3.279374599456787,-1.9571048021316528,1.711161494255066,4.40645694732666,0.31495118141174316,0.021505527198314667,-0.032437585294246674,0.6949201822280884
172,21352,21351,-0.024028733372688293,-0.01298175286501646,1.0770978927612305,0.7039756178855896,2.032296895980835,-2.218900442123413,1.7122166156768799,4.405412673950195,0.31503844261169434,0.011767501011490822,0.043256837874650955,0.6655973792076111
173,21362,21361,-0.007388387341052294,-0.05633406341075897,1.0044317245483398,1.4368224143981934,1.4670902490615845,-2.0266551971435547,1.7116174697875977,4.404281139373779,0.31526920199394226,0.08654952794313431,0.049613308161497116,0.635898232460022
174,21372,21371,-0.0011979632545262575,-0.04858478531241417,0.954825758934021,1.905800223350525,1.5859333276748657,-1.6061569452285767,1.7122446298599243,4.403585910797119,0.3167669177055359,0.146952286362648,0.07210997492074966,0.6130837798118591
175,21382,21381,-0.004038538318127394,-0.0143032381311059,0.9969052076339722,1.3671743869781494,1.5978142023086548,-1.4217660427093506,1.7129700183868408,4.402927875518799,0.3169878423213959,0.10886289924383163,0.08926188200712204,0.5934538841247559
176,21392,21391,0.010285262949764729,-0.014484208077192307,1.0061434507369995,0.07596851140260696,3.916165590286255,-2.1221697330474854,1.7143073081970215,4.403421401977539,0.31719842553138733,0.05420970171689987,0.012964020483195782,0.5892443656921387
177,21402,21401,0.005076052621006966,0.0018259637290611863,1.0104299783706665,2.0560758113861084,3.4923553466796875,-2.561993360519409,1.7162529230117798,4.401266574859619,0.31733012199401855,-0.09160551428794861,0.02028493583202362,0.5626440048217773
178,21412,21411,0.044574521481990814,-0.16434720158576965,1.0129811763763428,0.8940481543540955,3.7037153244018555,-1.3554874658584595,1.7158474922180176,4.400224208831787,0.3130013048648834,-0.06779707968235016,0.04197847843170166,0.5342715978622437
179,21422,21421,0.038617730140686035,-0.2172642946243286,1.04160475730896,0.6217279434204102,5.104403018951416,-1.8163636922836304,1.7164103984832764,4.400200366973877,0.3130190670490265,-0.05619235709309578,0.11178361624479294,0.512913703918457
180,21432,21431,0.026233062148094177,-0.1535700261592865,1.0117673873901367,2.2075517177581787,4.882181167602539,-2.118373155593872,1.7179036140441895,4.399580955505371,0.3129660189151764,-0.18874141573905945,0.12499948590993881,0.4943484663963318
181,21442,21441,0.01873687282204628,0.07336816936731339,0.9308514595031738,1.3394595384597778,5.198336124420166,-2.8768632411956787,1.7188371419906616,4.399728298187256,0.3141377866268158,-0.18254899978637695,0.057772137224674225,0.48023736476898193
182,21452,21451,0.0064439550042152405,0.21188487112522125,0.9244096875190735,-0.07771144062280655,3.7585105895996094,-3.077988624572754,1.721484661102295,4.397854328155518,0.31405961513519287,-0.3706981837749481,0.1369904726743698,0.4500521719455719
183,21462,21461,0.059469159692525864,0.14701056480407715,0.8447579741477966,-2.713641405105591,-1.1136378049850464,-2.164642810821533,1.721083402633667,4.3970746994018555,0.31413641571998596,-0.32601168751716614,0.1176406741142273,0.41552335023880005
184,21472,21471,-0.013706346973776817,-0.020644066855311394,1.0193116664886475,-3.851590394973755,-7.407598495483398,-1.2971704006195068,1.7217140197753906,4.398001670837402,0.30978891253471375,-0.2748342454433441,0.06210532411932945,0.3950585722923279
185,21482,21481,-0.0005886203143745661,-0.005880976561456919,1.0477274656295776,-2.955068588256836,-3.2126176357269287,-1.699059247970581,1.7237130403518677,4.396869659423828,0.3092842996120453,-0.37628310918807983,0.07637350261211395,0.37588557600975037
186,21492,21491,0.05235578492283821,0.00046489512897096574,1.008008360862732,-2.8714241981506348,-1.7354873418807983,-1.3744863271713257,1.7231489419937134,4.397597312927246,0.3090459406375885,-0.27263733744621277,0.013588137924671173,0.360893577337265
187,21502,21501,-0.003949505276978016,-0.02629939652979374,1.0491678714752197,-3.076408624649048,-1.7285206317901611,-1.1129100322723389,1.723594307899475,4.39651346206665,0.3084715008735657,-0.2390066683292389,0.03292899578809738,0.3437937796115875
188,21512,21511,-0.07253315299749374,-0.021283436566591263,1.083530306816101,-1.987178087234497,-1.1234259605407715,-1.0379645824432373,1.7236593961715698,4.395900249481201,0.30820590257644653,-0.178139328956604,-0.017714528366923332,0.32755154371261597
189,21522,21521,-0.08556420356035233,0.03450072556734085,1.0536038875579834,-1.2867414951324463,0.7592102289199829,-0.6058531403541565,1.7240188121795654,4.394618034362793,0.3080369532108307,-0.046482935547828674,0.02198938839137554,0.31494140625
190,21532,21531,-0.02348994091153145,-0.0027526714839041233,1.0334230661392212,-0.5361574292182922,3.7923755645751953,0.19023603200912476,1.7248051166534424,4.394069671630859,0.30788442492485046,0.00243227556347847,-0.011162805370986462,0.3114660084247589
191,21542,21541,0.023375455290079117,0.06052529066801071,0.9872053861618042,-0.11470036953687668,5.540865421295166,0.16872179508209229,1.7281885147094727,4.394094467163086,0.30913981795310974,-0.28475502133369446,-0.02666032873094082,0.316882461309433
192,21552,21551,0.05546380579471588,0.010308071970939636,1.0190054178237915,0.3879426419734955,5.682497978210449,0.3117489814758301,1.7281553745269775,4.394524574279785,0.30914124846458435,-0.2955631613731384,-0.04285184293985367,0.3207985758781433
193,21562,21561,0.08508587628602982,-0.104908287525177,1.01115882396698,-0.43289715051651,4.024323463439941,0.6342016458511353,1.7287898063659668,4.395120143890381,0.3090754449367523,-0.3808249831199646,-0.0677003487944603,0.32693246006965637
194,21572,21571,0.029223473742604256,-0.18113581836223602,1.0143667459487915,0.5664465427398682,-0.37916433811187744,0.34831300377845764,1.7290370464324951,4.396141052246094,0.30902162194252014,-0.40888795256614685,-0.004243194125592709,0.33640167117118835
195,21582,21581,-0.032720282673835754,-0.10425131022930145,0.9992780685424805,0.16218429803848267,-3.6346113681793213,0.6332134008407593,1.728913426399231,4.396109580993652,0.3091028332710266,-0.2978275716304779,-0.012488959357142448,0.3371211886405945
196,21592,21591,-0.017406072467565536,-0.05814739316701889,0.9424177408218384,-0.6215623617172241,-5.356937885284424,0.7439209818840027,1.7310081720352173,4.3960957527160645,0.3089728057384491,-0.383205384016037,-0.01789342425763607,0.3430253863334656
197,21602,21601,-0.00015230664575938135,0.018101461231708527,1.0034674406051636,-0.6044840216636658,-4.679646015167236,1.039979100227356,1.731000304222107,4.39543342590332,0.3090059757232666,-0.2753632962703705,-0.04608044773340225,0.3441021144390106
198,21612,21611,0.028628772124648094,-0.020347246900200844,0.9849633574485779,-1.5474039316177368,-4.839327335357666,1.3612613677978516,1.731070876121521,4.395064830780029,0.30898913741111755,-0.17851276695728302,-0.07821262627840042,0.35541868209838867
199,21622,21621,-0.015586658380925655,-0.020190637558698654,1.0217901468276978,-0.8286449909210205,-3.607210636138916,1.0884827375411987,1.7337793111801147,4.394535064697266,0.308827668428421,-0.24183934926986694,-0.10941343009471893,0.3693765699863434
200,21632,21631,-0.05289103090763092,0.050945769995450974,1.01375412940979,-0.270076721906662,-1.6190129518508911,1.105891227722168,1.7346738576889038,4.394166469573975,0.3087669610977173,-0.22824199497699738,-0.1198209747672081,0.37858691811561584
201,21642,21641,-0.08900486677885056,0.13122257590293884,1.0012683868408203,-0.30987536907196045,0.7962266802787781,1.157211184501648,1.734572172164917,4.39411735534668,0.30816495418548584,-0.11661441624164581,-0.1306932121515274,0.38509801030158997
202,21652,21651,-0.04679816961288452,0.08701270818710327,0.9581642746925354,0.4290997385978699,1.047904372215271,1.1148569583892822,1.7344709634780884,4.393588542938232,0.3081458806991577,-0.04382900893688202,-0.13333861529827118,0.39306968450546265
203,21662,21661,-0.028096746653318405,0.05428273230791092,1.0463565587997437,1.962733507156372,2.0673322677612305,1.1198357343673706,1.7364678382873535,4.393245697021484,0.30800876021385193,-0.1408499926328659,-0.1272166222333908,0.4055837392807007
204,21672,21671,0.04421035572886467,-0.09940246492624283,0.9900815486907959,2.413161039352417,3.052638292312622,0.7076298594474792,1.736289381980896,4.391427516937256,0.30514857172966003,-0.08586139231920242,-0.08642864972352982,0.39779362082481384
205,21682,21681,-0.026525333523750305,-0.041499800980091095,1.0420811176300049,1.167792797088623,4.065324306488037,1.054900050163269,1.7373292446136475,4.39132833480835,0.3049217760562897,-0.1458478569984436,-0.06185877323150635,0.40708857774734497
206,21692,21691,0.017069188877940178,-0.032615624368190765,1.0068457126617432,0.7975651025772095,4.276109218597412,0.6278067231178284,1.7385077476501465,4.391139507293701,0.3047093451023102,-0.2040223777294159,-0.050568319857120514,0.4166434705257416
207,21702,21701,0.004280474968254566,-0.02766546979546547,0.9647278189659119,0.9037463068962097,4.038665294647217,0.12980268895626068,1.7413880825042725,4.3914794921875,0.3041095733642578,-0.4886881709098816,-0.04699567332863808,0.4264119863510132
208,21712,21711,0.003524024737998843,-0.037602171301841736,0.9996095895767212,0.8285068869590759,-0.20925720036029816,0.6220763921737671,1.7427690029144287,4.3908281326293945,0.30392494797706604,-0.4726494252681732,-0.036095209419727325,0.4293461740016937
209,21722,21721,0.01019519753754139,-0.023169536143541336,0.998898446559906,0.44539880752563477,-3.5983519554138184,1.2157615423202515,1.7433536052703857,4.391537666320801,0.3037593960762024,-0.4043258726596832,-0.10551727563142776,0.43733420968055725
210,21732,21731,-0.0033035739324986935,-0.006698565557599068,1.0523347854614258,0.277923583984375,-7.325009346008301,0.9318888187408447,1.7444814443588257,4.391502380371094,0.30353090167045593,-0.362418532371521,-0.09274650365114212,0.44903644919395447
211,21742,21741,0.0312659926712513,-0.02617194689810276,1.0026991367340088,0.7810665369033813,-8.664772987365723,1.6665585041046143,1.7448256015777588,4.3906683921813965,0.3058115541934967,-0.20153966546058655,-0.004491112194955349,0.46019411087036133
212,21752,21751,-0.029432810842990875,-0.01869499869644642,1.0413087606430054,0.900551438331604,-7.714101314544678,1.8835114240646362,1.7446975708007812,4.389971733093262,0.305864155292511,-0.033884547650814056,0.0020727470982819796,0.46916112303733826
213,21762,21761,0.029552070423960686,-0.024115994572639465,1.0027912855148315,0.841791033744812,-5.2265543937683105,1.9933412075042725,1.7442139387130737,4.390652179718018,0.30598533153533936,0.18090860545635223,-0.06626413017511368,0.4867091178894043
214,21772,21771,-0.023481231182813644,0.020718974992632866,1.0617212057113647,0.41582363843917847,-1.424257516860962,1.8025344610214233,1.746313214302063,4.390638828277588,0.30917584896087646,0.0960470587015152,-0.05687832459807396,0.5085567235946655
215,21782,21781,0.010943622328341007,-0.009734450839459896,1.0304385423660278,0.7274242043495178,2.4001011848449707,1.739946722984314,1.7494926452636719,4.38991117477417,0.30929186940193176,-0.1470843255519867,0.02681230939924717,0.5515722632408142
216,21792,21791,-0.02178487926721573,0.038602765649557114,1.082227110862732,1.337326169013977,4.663102149963379,1.3665348291397095,1.747981071472168,4.394640922546387,0.30970871448516846,-0.10660931468009949,0.04562938213348389,0.5670395493507385
217,21802,21801,0.034886281937360764,-0.04445187374949455,1.0116870403289795,0.3077966272830963,6.908345699310303,0.5640361905097961,1.748762845993042,4.395298957824707,0.30770576000213623,-0.24997258186340332,0.05452477186918259,0.5788515210151672
218,21812,21811,-0.04674672707915306,0.01769799366593361,1.0528441667556763,-0.4092739224433899,1.98642897605896,0.973468542098999,1.7470704317092896,4.397012233734131,0.3080827295780182,-0.18624065816402435,0.048593029379844666,0.5844005346298218
219,21822,21821,0.02230171300470829,-0.08944827318191528,1.0038472414016724,-1.6216074228286743,0.04053076356649399,0.923468828201294,1.7475287914276123,4.392911434173584,0.30830708146095276,-0.24958494305610657,0.1082858219742775,0.5601171255111694
220,21832,21831,0.052434198558330536,-0.08411319553852081,1.0705703496932983,-1.9831169843673706,-6.24472713470459,1.46448814868927,1.7469367980957031,4.392333507537842,0.30647513270378113,-0.09371328353881836,0.07200869917869568,0.5616325736045837
221,21842,21841,0.04531879350543022,-0.04683016240596771,1.0018854141235352,-0.8361145257949829,-6.791934490203857,0.8039997220039368,1.7483009099960327,4.393145561218262,0.3066866397857666,-0.050245191901922226,0.03308016434311867,0.5794131755828857
222,21852,21851,0.0032502044923603535,-0.012753917835652828,1.007949948310852,-2.1688177585601807,-3.5220444202423096,0.9639608263969421,1.7487934827804565,4.39323091506958,0.3069669008255005,0.012273377738893032,-0.07276589423418045,0.5810719728469849
223,21862,21861,0.029210800305008888,-0.04772421717643738,0.9279849529266357,-0.08733317255973816,-4.577066898345947,1.5659408569335938,1.7510251998901367,4.39238977432251,0.30716782808303833,0.03560102730989456,-0.09814682602882385,0.5957559943199158
224,21872,21871,0.019194195047020912,-0.04180413857102394,0.9683042168617249,0.8078280091285706,-3.0189945697784424,2.3102777004241943,1.7515509128570557,4.394079208374023,0.30449870228767395,0.04647139459848404,-0.02920987643301487,0.6220303773880005
225,21882,21881,0.06386446207761765,-0.11745297908782959,1.0083324909210205,1.6656818389892578,-0.14930032193660736,2.605431079864502,1.7518569231033325,4.393317699432373,0.3045300245285034,0.10095550119876862,-0.01785915531218052,0.6382067799568176
226,21892,21891,0.006470450200140476,-0.05687562748789787,1.0238584280014038,2.2871851921081543,1.7575773000717163,2.3418402671813965,1.7530792951583862,4.392129421234131,0.3045455515384674,0.11555002629756927,0.0025867929216474295,0.6621471047401428
227,21902,21901,-0.00809468887746334,0.023648034781217575,1.017622709274292,0.8371889591217041,2.9161159992218018,2.9552807807922363,1.7539665699005127,4.391138553619385,0.3064345121383667,0.09614070504903793,0.104985810816288,0.6845818758010864
228,21912,21911,0.037577759474515915,-0.08467996120452881,0.9713360667228699,0.6360634565353394,5.091920852661133,2.6448628902435303,1.754954218864441,4.391077041625977,0.3065735101699829,0.05866499990224838,0.10598526149988174,0.7145640850067139
229,21922,21921,0.028995996341109276,-0.03810810670256615,0.9357004165649414,-0.11864329874515533,5.460353374481201,2.260491132736206,1.7557653188705444,4.3899946212768555,0.30674514174461365,0.06072259321808815,0.10063669830560684,0.7381675839424133
230,21932,21931,0.03033466823399067,-0.03676503896713257,0.9545527100563049,-2.0797486305236816,3.5779974460601807,2.5762147903442383,1.7575528621673584,4.389869689941406,0.30613189935684204,-0.07041069865226746,0.06633514165878296,0.7646798491477966
231,21942,21941,0.057264477014541626,-0.09453975409269333,0.9963887333869934,-3.8964996337890625,2.5971240997314453,2.4817516803741455,1.759401798248291,4.390100955963135,0.30606764554977417,-0.20037688314914703,0.004683497827500105,0.7937123775482178
232,21952,21951,0.029681626707315445,-0.15104220807552338,1.0797021389007568,-5.911494255065918,0.5525398850440979,2.7903852462768555,1.7605674266815186,4.391228675842285,0.3061011731624603,-0.20579032599925995,-0.09131515026092529,0.8302248120307922
233,21962,21961,0.03632039204239845,-0.17539873719215393,1.0631389617919922,-1.6977002620697021,-4.240927219390869,3.0999927520751953,1.7605359554290771,4.390010356903076,0.30631664395332336,-0.09134221076965332,-0.01909988932311535,0.8526667356491089
234,21972,21971,-0.02527395263314247,-0.03217712417244911,1.043623447418213,-0.11896786093711853,-3.721268653869629,2.7509660720825195,1.7589771747589111,4.393575191497803,0.3060547113418579,0.002383262850344181,-0.056139107793569565,0.8976064324378967
235,21982,21981,0.030858632177114487,0.07129006087779999,0.9109739065170288,2.075427770614624,-3.482093572616577,3.3095102310180664,1.761015772819519,4.394313812255859,0.30610138177871704,-0.07841330766677856,-0.13482894003391266,0.9299357533454895
236,21992,21991,-0.022907909005880356,0.07849308848381042,1.043765902519226,2.085486650466919,-2.961491346359253,3.2598531246185303,1.763227105140686,4.393283843994141,0.30616751313209534,-0.06157468631863594,-0.10790795087814331,0.9641037583351135
237,22002,22001,0.0718580111861229,-0.05526674538850784,0.9875465035438538,1.654535174369812,1.345001459121704,3.3299100399017334,1.7644658088684082,4.3897199630737305,0.30594485998153687,0.08529023081064224,-0.0037911804392933846,0.9832220077514648
238,22012,22011,0.020698368549346924,-0.03156653791666031,1.0698760747909546,0.18034739792346954,-0.5616406798362732,3.1580159664154053,1.7662135362625122,4.389479160308838,0.3059924244880676,0.017321685329079628,0.0023094466887414455,1.0156151056289673
239,22022,22021,-0.046006735414266586,0.019158970564603806,1.022242546081543,-0.07425114512443542,0.7554302215576172,3.395925283432007,1.7675100564956665,4.386945724487305,0.30608275532722473,-0.044728245586156845,-0.012643933296203613,1.0256649255752563
