,timestamp_start,timestamp_end,acc.x,acc.y,acc.z,gyro.x,gyro.y,gyro.z,stateEstimate.x,stateEstimate.y,stateEstimate.z,stabilizer.pitch,stabilizer.roll,stabilizer.yaw
0,30130,30126,0.027436640113592148,-0.05825069174170494,0.9927692413330078,5.244578838348389,-9.762456893920898,5.163732528686523,1.970428228378296,3.8965935707092285,0.17378315329551697,-0.06951858103275299,0.2684144973754883,1.862676978111267
1,30140,30136,-0.016484195366501808,0.06256752461194992,0.9997676610946655,2.565002679824829,-8.762577056884766,5.831430435180664,1.969739556312561,3.895348310470581,0.17578434944152832,0.07646819204092026,0.28889936208724976,1.9176416397094727
2,30150,30146,0.004991345107555389,0.05035412311553955,1.0301461219787598,-0.27262237668037415,-6.916057109832764,5.544528484344482,1.9691578149795532,3.8993537425994873,0.17595437169075012,0.057716891169548035,0.2534410357475281,1.9641817808151245
3,30160,30156,0.01907242275774479,-0.002925253938883543,1.0974087715148926,-0.4635184705257416,-5.371733665466309,5.166393756866455,1.9703352451324463,3.9018778800964355,0.17765702307224274,0.18003827333450317,0.19261853396892548,2.020815372467041
4,30170,30166,0.0010475097224116325,-0.11614694446325302,1.0565327405929565,1.7547881603240967,-2.0755655765533447,5.020185947418213,1.9704276323318481,3.9047837257385254,0.17936308681964874,0.19411268830299377,0.29200056195259094,2.0703625679016113
5,30180,30176,0.0008791970903985202,-0.11253707855939865,1.0150686502456665,5.072781562805176,2.5301263332366943,5.922032356262207,1.9714852571487427,3.9044768810272217,0.1814018338918686,0.22640138864517212,0.41699400544166565,2.121039867401123
6,30190,30186,0.04781031236052513,-0.04347012937068939,1.0213358402252197,7.167520046234131,2.794071674346924,6.556428909301758,1.971222996711731,3.9064342975616455,0.18426157534122467,0.12468788772821426,0.5750271081924438,2.1709659099578857
7,30200,30196,0.07593800127506256,-0.07293100655078888,1.0493155717849731,7.177093029022217,2.172473192214966,5.868856906890869,1.9716688394546509,3.9059271812438965,0.18621614575386047,0.17209453880786896,0.7499796152114868,2.2398905754089355
8,30210,30206,0.06347215175628662,-0.14677980542182922,0.9885091781616211,6.921519756317139,2.1622109413146973,4.973019123077393,1.9717622995376587,3.9061062335968018,0.18839141726493835,0.13793104887008667,0.5437077283859253,2.301771879196167
9,30220,30216,-0.03491085767745972,0.008302644826471806,0.9806506633758545,1.8265832662582397,-0.552780270576477,5.892971515655518,1.97173273563385,3.90899395942688,0.19213958084583282,0.055974870920181274,0.7765907049179077,2.352498769760132
10,30230,30226,-0.008816132321953773,0.019876183941960335,1.00120210647583,-1.0831528902053833,-4.144678592681885,6.297967910766602,1.9724619388580322,3.908348560333252,0.1942853480577469,0.11043158173561096,0.8325687050819397,2.417776107788086
11,30240,30236,0.021976878866553307,0.002481230068951845,1.036422610282898,-3.7784788608551025,-5.256933212280273,6.292627811431885,1.9724777936935425,3.9088480472564697,0.19639228284358978,0.19773726165294647,1.2105553150177002,2.488295078277588
12,30250,30246,-0.013526767492294312,0.045616514980793,1.0457801818847656,-4.302709102630615,-3.352802276611328,6.263063907623291,1.9728108644485474,3.906533718109131,0.19888946413993835,0.5794262290000916,1.0580419301986694,2.5994338989257812
13,30260,30256,-0.03810372203588486,0.10532546043395996,0.945777177810669,-7.768521308898926,-0.35141515731811523,5.806637763977051,1.9701274633407593,3.907641887664795,0.20122577250003815,2.213130474090576,0.21221700310707092,2.9397196769714355
14,30270,30266,-0.02366897650063038,0.10661889612674713,0.9869745373725891,-9.500350952148438,2.7225537300109863,4.531895160675049,1.9573390483856201,3.9129273891448975,0.20137736201286316,1.9282782077789307,0.1781618893146515,2.949206829071045
15,30280,30276,0.0019697186071425676,0.0237959586083889,1.1019197702407837,-5.294802188873291,15.008872985839844,4.011472225189209,1.9578067064285278,3.913256883621216,0.2065257728099823,1.6758614778518677,0.12371783703565598,2.9592671394348145
16,30290,30286,-0.004371923860162497,0.006229506805539131,0.9534135460853577,1.4371461868286133,26.644638061523438,4.505631446838379,1.9576330184936523,3.913996458053589,0.2079997956752777,1.2405775785446167,0.22936828434467316,2.942596912384033
17,30300,30296,-0.0720687210559845,0.07548172771930695,0.9545455574989319,5.287380695343018,42.90183639526367,4.8657684326171875,1.9587090015411377,3.9141077995300293,0.2117146998643875,0.6491256952285767,0.33476704359054565,2.943441390991211
18,30310,30306,-0.0707678347826004,0.1122923195362091,0.9524161219596863,7.981053352355957,47.236934661865234,5.411690711975098,1.9597219228744507,3.91426944732666,0.2148464173078537,-0.09130445867776871,0.4956594407558441,2.947906970977783
19,30320,30316,-0.0024056178517639637,0.10373037308454514,1.0406951904296875,9.369307518005371,39.82417297363281,5.409240245819092,1.9613533020019531,3.9141385555267334,0.21522212028503418,-0.34049251675605774,0.5303781032562256,3.033201217651367
20,30330,30326,0.048251617699861526,0.03546543046832085,1.0576622486114502,8.678786277770996,25.45331382751465,4.3467631340026855,1.9595814943313599,3.914076805114746,0.21753856539726257,-0.9077476859092712,0.6506149768829346,3.0689377784729004
21,30340,30336,-0.008031548000872135,0.02839510329067707,1.0236825942993164,5.931969165802002,13.286603927612305,3.4240024089813232,1.9600571393966675,3.9142205715179443,0.2197132557630539,-1.1406517028808594,0.8165141344070435,3.114752769470215
22,30350,30346,-0.043644994497299194,0.10540230572223663,0.9009445309638977,0.9929343461990356,1.8895766735076904,3.3094611167907715,1.959537148475647,3.9132144451141357,0.2191053032875061,-1.321423888206482,0.9129704236984253,3.14505934715271
23,30360,30356,-0.03106348216533661,0.11639430373907089,0.9439831376075745,-2.8567206859588623,-9.06436824798584,2.8845629692077637,1.9591163396835327,3.912787437438965,0.22101569175720215,-1.3498387336730957,0.8430449366569519,3.1710124015808105
24,30370,30366,0.014440257102251053,0.06191813573241234,0.974776566028595,-6.228149890899658,-19.36282730102539,2.686255693435669,1.9589117765426636,3.9142918586730957,0.22294865548610687,-1.4417529106140137,0.7967568635940552,3.17146635055542
25,30380,30376,-0.0678710862994194,0.06833600252866745,0.9789626598358154,-7.153079032897949,-24.15816307067871,2.0725834369659424,1.959867000579834,3.914062738418579,0.22468087077140808,-1.2913429737091064,0.7106544375419617,3.1867868900299072
26,30390,30386,-0.1381368786096573,0.18835970759391785,0.9674938321113586,-9.69886302947998,-15.52486801147461,2.7457399368286133,1.9597160816192627,3.9141666889190674,0.2272893339395523,-1.2913426160812378,0.8933095335960388,3.2116291522979736
27,30400,30396,-0.01817125640809536,0.029118528589606285,0.9893239736557007,-8.9013090133667,-12.341547966003418,2.0912275314331055,1.9607794284820557,3.9120330810546875,0.22903913259506226,-1.0613950490951538,0.7250646948814392,3.2367374897003174
28,30410,30406,-0.007768714334815741,-0.041529666632413864,0.9821597933769226,-8.835537910461426,-5.555810928344727,2.2515034675598145,1.9592512845993042,3.912442207336426,0.23106621205806732,-0.98964524269104,0.725026547908783,3.264737367630005
29,30420,30416,0.025384824723005295,-0.01689034141600132,0.999437689781189,-7.4944748878479,-3.841679811477661,1.3261568546295166,1.9595609903335571,3.9116365909576416,0.23316174745559692,-0.9889490008354187,0.5725168585777283,3.2669925689697266
30,30430,30426,0.031015997752547264,-0.0282282717525959,0.9415838122367859,-7.530941009521484,-1.2869261503219604,0.8043009042739868,1.9595589637756348,3.9122211933135986,0.23498287796974182,-1.0126972198486328,0.5109608173370361,3.27469801902771
31,30440,30436,0.022233260795474052,-0.09130562841892242,0.9535168409347534,-7.842952728271484,-2.638164758682251,0.8207570910453796,1.9601259231567383,3.91202974319458,0.23673869669437408,-1.0550768375396729,0.3690432906150818,3.263054370880127
32,30450,30446,0.019008278846740723,-0.040903132408857346,0.9426816701889038,-7.579543590545654,-5.9047932624816895,0.27456220984458923,1.9610011577606201,3.9119701385498047,0.23649704456329346,-1.512742042541504,1.0027185678482056,3.3325557708740234
33,30460,30456,-0.028023019433021545,-0.035121213644742966,0.9497589468955994,-6.531835556030273,-8.749920845031738,-0.22878099977970123,1.9661697149276733,3.9060018062591553,0.23775720596313477,-1.3937435150146484,0.8626548647880554,3.3287124633789062
34,30470,30466,0.05784469097852707,-0.0705229640007019,0.9653100371360779,-10.71567440032959,-14.93681812286377,-1.1590054035186768,1.966060996055603,3.905318260192871,0.23959733545780182,-1.1941750049591064,0.7099930047988892,3.320648431777954
35,30480,30476,0.027677174657583237,-0.057827018201351166,1.0189763307571411,-14.506072998046875,-20.507450103759766,-1.0167959928512573,1.9665801525115967,3.906216621398926,0.2410193681716919,-1.1354542970657349,0.576668918132782,3.292069435119629
36,30490,30486,0.035592544823884964,-0.04782448709011078,0.93861323595047,-17.188716888427734,-20.984066009521484,-0.9853455424308777,1.968117356300354,3.9059174060821533,0.24243633449077606,-0.9176350235939026,0.2363327294588089,3.2452633380889893
37,30500,30496,0.01946033537387848,-0.07420632243156433,0.8845528960227966,-19.174997329711914,-24.942218780517578,0.19643910229206085,1.968923807144165,3.906891345977783,0.24408942461013794,-0.6635265946388245,-0.05275030434131622,3.21962833404541
38,30510,30506,0.006794376764446497,-0.014563282020390034,0.9544368982315063,-17.669897079467773,-23.782182693481445,0.6571687459945679,1.9695971012115479,3.907850503921509,0.24555592238903046,-0.6306749582290649,-0.18596984446048737,3.2095963954925537
39,30520,30516,0.0327623076736927,-0.09341632574796677,1.0243620872497559,-10.4263277053833,-21.892314910888672,0.2869654595851898,1.9720027446746826,3.9072012901306152,0.24762007594108582,-0.20314902067184448,-0.41172829270362854,3.2224621772766113
40,30530,30526,0.04342513531446457,-0.068330779671669,0.9544888138771057,-4.4765191078186035,-20.077356338500977,0.8385736346244812,1.971694827079773,3.9073550701141357,0.2492194026708603,0.026075538247823715,-0.5202915668487549,3.228088617324829
41,30540,30536,0.026819588616490364,-0.10714045912027359,1.0093860626220703,0.4876864552497864,-13.592005729675293,-0.021324142813682556,1.972054123878479,3.9073612689971924,0.25059962272644043,0.2591899633407593,-0.4583774507045746,3.2507989406585693
42,30550,30546,0.0035464526154100895,-0.03744645044207573,0.9548923373222351,3.128659963607788,-8.682467460632324,-0.4552624225616455,1.9723464250564575,3.905442476272583,0.25364017486572266,0.339071124792099,-0.4831903874874115,3.24605131149292
43,30560,30556,-0.026221752166748047,-0.07463737577199936,0.9151455163955688,3.38301682472229,-6.529451370239258,0.2900490462779999,1.97270929813385,3.9056458473205566,0.25363871455192566,0.5019281506538391,-0.47108784317970276,3.244420289993286
44,30570,30566,0.004349543713033199,-0.08324024826288223,0.8842417001724243,1.8214242458343506,-7.001859664916992,0.9706448912620544,1.9732592105865479,3.9054253101348877,0.2551878094673157,0.5358219146728516,-0.46852758526802063,3.2455456256866455
45,30580,30576,0.07060744613409042,-0.1369822472333908,1.0135622024536133,-1.9045394659042358,-5.1239728927612305,-0.00461888313293457,1.9746249914169312,3.9055747985839844,0.25534868240356445,0.6509208679199219,-0.4358728229999542,3.2552618980407715
46,30590,30586,0.04564711079001427,-0.01701987348496914,0.9880942702293396,-4.403915882110596,-5.640890121459961,0.22274594008922577,1.9756485223770142,3.905283212661743,0.2576305568218231,0.657462477684021,-0.5307485461235046,3.256848096847534
47,30600,30596,0.011454358696937561,0.0146707808598876,0.9900966882705688,-5.159766674041748,-8.209013938903809,-0.4633554220199585,1.9762481451034546,3.9058282375335693,0.25765031576156616,0.7639467716217041,-0.5697910189628601,3.2549338340759277
48,30610,30606,-0.027904095128178596,0.0019824861083179712,0.97532719373703,-4.8963303565979,-7.710943698883057,-0.5182300209999084,1.9764636754989624,3.9054582118988037,0.2587796151638031,0.9621404409408569,-0.6878329515457153,3.2524664402008057
49,30620,30616,-0.06998567283153534,0.08018449693918228,0.9447317719459534,-3.7145700454711914,-7.570779800415039,-0.8061744570732117,1.976098895072937,3.9074530601501465,0.2612948715686798,0.9206158518791199,-0.7802509665489197,3.2531509399414062
50,30630,30626,-0.031043950468301773,0.07678847759962082,0.889829158782959,-1.3775266408920288,-8.207719802856445,-0.1776483803987503,1.9779726266860962,3.9078853130340576,0.2624788284301758,1.1134871244430542,-0.837840735912323,3.2420454025268555
51,30640,30636,-0.026422912254929543,0.06366191804409027,0.9895448088645935,1.390450119972229,-7.933834075927734,-0.06821280717849731,1.9779666662216187,3.9083597660064697,0.26356011629104614,1.0555161237716675,-0.8513345718383789,3.2470009326934814
52,30650,30646,-0.011896618641912937,0.04586467891931534,1.0372146368026733,4.81973934173584,-3.7236545085906982,-0.8943989276885986,1.9803416728973389,3.9085159301757812,0.265385240316391,0.9774749279022217,-0.8049749135971069,3.25201678276062
53,30660,30656,-0.019266299903392792,-0.0038274740800261497,0.9902435541152954,8.194472312927246,-5.3328857421875,-1.5638923645019531,1.9814139604568481,3.908839702606201,0.26538681983947754,1.142137885093689,-0.7040349245071411,3.227569818496704
54,30670,30666,-0.0701209083199501,0.016384480521082878,0.9502997398376465,8.393036842346191,-2.0353190898895264,-1.8166292905807495,1.9813250303268433,3.9085867404937744,0.2664940059185028,1.1110323667526245,-0.5770028233528137,3.215550184249878
55,30680,30676,-0.09507386386394501,0.0808258205652237,0.9435184597969055,6.367214679718018,-1.0669152736663818,-1.8275344371795654,1.9825117588043213,3.908667802810669,0.2666817605495453,1.1973713636398315,-0.4728718400001526,3.190974235534668
56,30690,30686,-0.04366389662027359,0.08798158913850784,0.8972822427749634,2.2443413734436035,-2.9458096027374268,-1.571378231048584,1.982496976852417,3.9091708660125732,0.26763108372688293,1.2718334197998047,-0.4922325015068054,3.1778767108917236
57,30700,30696,-0.02827918715775013,0.0846889466047287,0.9848996996879578,-1.1096457242965698,-2.202759027481079,-1.6875312328338623,1.9824084043502808,3.909637689590454,0.2685111165046692,1.2788928747177124,-0.4932110905647278,3.1656224727630615
58,30710,30706,0.01057535968720913,0.00725983502343297,0.9963767528533936,-2.6005914211273193,-5.881446838378906,-1.8597899675369263,1.9827555418014526,3.9097704887390137,0.26931220293045044,1.2306357622146606,-0.6043631434440613,3.1683592796325684
59,30720,30716,-0.07166846096515656,0.11638841778039932,1.0352566242218018,-2.1185848712921143,-3.0388221740722656,-2.68861722946167,1.9842278957366943,3.910841226577759,0.2700246274471283,1.3600667715072632,-0.6320146918296814,3.1399080753326416
60,30730,30726,-0.06816796958446503,0.11681881546974182,0.9830175638198853,-0.20329001545906067,1.1216381788253784,-3.396897077560425,1.9836928844451904,3.911250352859497,0.270817369222641,1.4146724939346313,-0.649444043636322,3.1104025840759277
61,30740,30736,-0.08025074005126953,0.13456842303276062,0.9511380195617676,1.4573323726654053,3.756823778152466,-3.1287848949432373,1.9835809469223022,3.9116127490997314,0.27161526679992676,1.4135411977767944,-0.6355758309364319,3.0763330459594727
62,30750,30746,-0.015903055667877197,0.09221881628036499,0.9177917242050171,4.539599418640137,4.775416374206543,-2.9106833934783936,1.9841585159301758,3.911358118057251,0.2729029357433319,1.3081789016723633,-0.5699267983436584,3.043806314468384
63,30760,30756,0.018540874123573303,0.05998740345239639,1.006705641746521,6.846461296081543,1.5982539653778076,-2.311699867248535,1.9846880435943604,3.911121129989624,0.2736654281616211,1.3724459409713745,-0.6129410862922668,3.025958299636841
64,30770,30766,0.03828445449471474,0.023865826427936554,1.0729939937591553,7.226627826690674,0.49526768922805786,-3.115176200866699,1.984209418296814,3.912086009979248,0.2743571698665619,1.363973617553711,-0.47871309518814087,2.98384952545166
65,30780,30776,0.030044812709093094,-0.02956557460129261,1.0616461038589478,7.750888824462891,2.188018560409546,-3.5847723484039307,1.9843132495880127,3.9116721153259277,0.2769934833049774,1.3361716270446777,-0.35367271304130554,2.9401869773864746
66,30790,30786,-0.023753957822918892,0.029168423265218735,0.9641786217689514,5.856672763824463,4.406410217285156,-3.371628999710083,1.984102725982666,3.9118473529815674,0.27790749073028564,1.2194182872772217,-0.23946842551231384,2.9040164947509766
67,30800,30796,-0.06978058815002441,0.11302251368761063,0.921631395816803,2.887023687362671,4.878399848937988,-3.0121026039123535,1.9849251508712769,3.9111328125,0.2788509130477905,1.231140375137329,-0.1610177904367447,2.8630940914154053
68,30810,30806,-0.02878756634891033,0.10642542690038681,0.9371009469032288,1.085658073425293,4.298131465911865,-2.4110915660858154,1.9836300611495972,3.9112250804901123,0.2798338532447815,1.2407492399215698,-0.20362183451652527,2.845024824142456
69,30820,30816,-0.002756355796009302,0.03535330295562744,0.9496479630470276,-1.1083179712295532,0.6552295088768005,-1.88392174243927,1.983139991760254,3.9118330478668213,0.279013067483902,1.2670345306396484,-0.34469109773635864,2.84789776802063
70,30830,30826,-0.0007128918659873307,-0.028483638539910316,1.0474228858947754,-1.3036460876464844,3.4193286895751953,-2.2742531299591064,1.982417345046997,3.913231134414673,0.2796778082847595,1.143107295036316,-0.4905432462692261,2.8599953651428223
71,30840,30836,0.005551900714635849,-0.03389766439795494,0.9849281311035156,1.3212167024612427,1.6536566019058228,-2.284053325653076,1.9831359386444092,3.915619373321533,0.2803580164909363,1.3320361375808716,-0.23329833149909973,2.771679162979126
72,30850,30846,-0.05146453157067299,0.05441813915967941,0.9773992300033569,5.183675289154053,5.717321395874023,-2.3314995765686035,1.980930209159851,3.913395404815674,0.2828439772129059,1.32244074344635,-0.2502743899822235,2.755483865737915
73,30860,30856,-0.049534477293491364,0.1231345534324646,0.9113145470619202,8.192861557006836,8.252836227416992,-1.8118054866790771,1.9803146123886108,3.9142181873321533,0.2836490273475647,1.1800843477249146,-0.201983243227005,2.7424259185791016
74,30870,30866,-0.011563019827008247,0.11930359154939651,0.9362540245056152,8.371574401855469,8.909408569335938,-1.9192992448806763,1.980780005455017,3.914464235305786,0.28446415066719055,1.0955758094787598,-0.19458742439746857,2.738191843032837
75,30880,30876,0.008944191969931126,0.004827268421649933,0.9648771286010742,8.972043991088867,4.679438591003418,-2.120861053466797,1.980421781539917,3.915114402770996,0.28605297207832336,0.9322279095649719,-0.025822127237915993,2.7052717208862305
76,30890,30886,0.0011218463769182563,-0.08784452080726624,0.998750627040863,7.292654514312744,7.085617542266846,-2.153566837310791,1.9807519912719727,3.91426682472229,0.2867686450481415,0.7827485203742981,-0.16733811795711517,2.7243900299072266
77,30900,30896,-0.033985838294029236,-0.041089605540037155,1.0507234334945679,5.92942476272583,6.251083850860596,-2.962726354598999,1.9815009832382202,3.9162492752075195,0.28746405243873596,0.7888634204864502,-0.09124653041362762,2.695101022720337
78,30910,30906,-0.05692552402615547,-0.0024724819231778383,1.006956934928894,3.9982972145080566,8.829585075378418,-2.8571112155914307,1.9802579879760742,3.9168479442596436,0.2877935767173767,0.7079251408576965,-0.04225167632102966,2.6663100719451904
79,30920,30916,-0.0043461378663778305,-0.11350114643573761,1.0289857387542725,3.0314550399780273,6.783875942230225,-2.372389554977417,1.9797890186309814,3.9173667430877686,0.2884993553161621,0.7099476456642151,-0.004866320174187422,2.636859178543091
80,30930,30926,0.054511625319719315,-0.19430650770664215,1.0167032480239868,5.329645156860352,4.805188179016113,-2.8337371349334717,1.9787501096725464,3.9172513484954834,0.2892323434352875,0.6509348154067993,0.03800280764698982,2.610529899597168
81,30940,30936,0.002042637439444661,0.05357735976576805,1.0187032222747803,5.416064739227295,4.180362224578857,-2.8049261569976807,1.9782867431640625,3.9176535606384277,0.29000601172447205,0.5458019971847534,0.16800761222839355,2.572509527206421
82,30950,30946,-0.004302946850657463,0.045959457755088806,1.03513765335083,5.156531810760498,1.0458447933197021,-2.911174774169922,1.9784659147262573,3.91752552986145,0.2933644950389862,0.45937609672546387,0.2222992479801178,2.5435099601745605
83,30960,30956,-0.05758918821811676,-0.0424453467130661,1.0912067890167236,5.0108771324157715,6.787711143493652,-3.4091570377349854,1.978381633758545,3.917391300201416,0.2943469285964966,0.6384433507919312,0.2674108147621155,2.514220952987671
84,30970,30966,0.008558017201721668,-0.016490386798977852,0.9776629209518433,4.981668949127197,5.436471462249756,-3.379755735397339,1.9754605293273926,3.917841672897339,0.29534393548965454,0.4845990538597107,0.3819772005081177,2.4722330570220947
85,30980,30976,-0.039448563009500504,0.058541957288980484,0.9603770971298218,4.244874954223633,9.713272094726562,-3.315887212753296,1.9755018949508667,3.917330026626587,0.2976788282394409,0.3135334849357605,0.3387535512447357,2.444096088409424
86,30990,30986,-0.029677048325538635,0.12048006802797318,0.9375682473182678,2.420633316040039,10.943700790405273,-3.206474781036377,1.9761744737625122,3.918297290802002,0.29889675974845886,0.32835203409194946,0.42849934101104736,2.4089348316192627
87,31000,30996,0.012725433334708214,0.1138501688838005,0.9296295642852783,1.1258046627044678,10.208553314208984,-3.36447811126709,1.974992036819458,3.918351650238037,0.30002954602241516,0.25559642910957336,0.33419376611709595,2.38446044921875
88,31010,31006,0.009167746640741825,-0.009823758155107498,0.9474601149559021,0.6233341097831726,7.865738868713379,-3.449246644973755,1.9741604328155518,3.9195775985717773,0.2983805537223816,0.20107311010360718,0.3200267255306244,2.3536057472229004
89,31020,31016,-0.001315269386395812,-0.004586108960211277,0.9826029539108276,0.8936379551887512,6.048335552215576,-4.109610080718994,1.9737364053726196,3.9200680255889893,0.29919764399528503,0.17117899656295776,0.3764665722846985,2.3178935050964355
90,31030,31026,-0.058488454669713974,-0.05966752767562866,0.9668793082237244,2.3733584880828857,5.999086380004883,-4.159690856933594,1.9724704027175903,3.9196927547454834,0.29998958110809326,0.08663669228553772,0.3663482666015625,2.2771129608154297
91,31040,31036,-0.06900101155042648,-0.030630094930529594,0.9414976835250854,3.1199209690093994,8.007771492004395,-4.156949520111084,1.972313404083252,3.919872999191284,0.3007960319519043,-0.020485514774918556,0.44948768615722656,2.233182191848755
92,31050,31046,-0.007651912979781628,-0.000829891359899193,0.9572998285293579,3.9312756061553955,7.9390459060668945,-4.75797176361084,1.972528338432312,3.919497013092041,0.2988918125629425,-0.21527810394763947,0.5390369296073914,2.185879707336426
93,31060,31056,-0.05823337286710739,0.09663421660661697,0.9428998231887817,4.711896896362305,7.459658145904541,-3.9022011756896973,1.972788691520691,3.9191296100616455,0.2994828522205353,-0.17237380146980286,0.5598926544189453,2.150184392929077
94,31070,31066,-0.027176041156053543,0.09688292443752289,0.9122421145439148,3.3109030723571777,7.335031509399414,-3.484699249267578,1.9717810153961182,3.9197139739990234,0.3000011742115021,-0.21622537076473236,0.5746633410453796,2.114686965942383
95,31080,31076,-0.02383221872150898,0.09585016220808029,1.005629301071167,1.9463191032409668,6.890326976776123,-3.1388556957244873,1.9707958698272705,3.920598268508911,0.3012971878051758,-0.30666157603263855,0.6490826606750488,2.078965902328491
96,31090,31086,-0.031995050609111786,0.08252321928739548,1.0611858367919922,-0.5668889880180359,13.134278297424316,-3.217747211456299,1.9709556102752686,3.9209909439086914,0.3018263578414917,-0.5508941411972046,0.6017470359802246,2.0334436893463135
97,31100,31096,-0.047021523118019104,0.07860519737005234,1.0781949758529663,-2.4336533546447754,19.987363815307617,-3.328582763671875,1.972298264503479,3.9217305183410645,0.30234968662261963,-0.5153152942657471,0.5984846353530884,2.015209197998047
98,31110,31106,-0.028029154986143112,0.046323299407958984,1.0428415536880493,-2.9019052982330322,25.89656639099121,-3.6935648918151855,1.9693870544433594,3.9217917919158936,0.3006318211555481,-0.8373516798019409,0.49615007638931274,1.9705390930175781
99,31120,31116,-0.03452117741107941,0.04243384674191475,1.0052287578582764,-3.4639055728912354,28.8721866607666,-3.4723825454711914,1.9696629047393799,3.9225709438323975,0.3011033833026886,-1.2685643434524536,0.474905788898468,1.9245860576629639
100,31130,31126,0.010660148225724697,-0.03612137585878372,0.9492743611335754,-1.4370596408843994,28.12618064880371,-4.035099506378174,1.9705555438995361,3.923206090927124,0.3016352951526642,-1.3948447704315186,0.4562656879425049,1.9080909490585327
101,31140,31136,-0.03148685023188591,0.06404241919517517,0.9435917139053345,-0.2561030685901642,22.0288028717041,-3.1828513145446777,1.9688092470169067,3.9232170581817627,0.3038311302661896,-1.6260284185409546,0.4685421884059906,1.8798229694366455
102,31150,31146,0.0034348294138908386,0.021432876586914062,0.9832714200019836,2.830742835998535,16.72984504699707,-3.0246198177337646,1.9684261083602905,3.923189401626587,0.30442386865615845,-1.9853196144104004,0.4417025148868561,1.8294769525527954
103,31160,31156,0.024053500965237617,0.05288555473089218,0.9624014496803284,1.7287880182266235,9.18771743774414,-2.576993942260742,1.9694629907608032,3.9236080646514893,0.3048344552516937,-2.059471368789673,0.5062669515609741,1.8126612901687622
104,31170,31166,0.022052420303225517,0.011357924900949001,0.9854094982147217,2.530832290649414,2.598771810531616,-2.10499906539917,1.9686875343322754,3.9252517223358154,0.3053511381149292,-2.104494333267212,0.49636849761009216,1.7799394130706787
105,31180,31176,0.041705746203660965,-0.22780431807041168,1.0499224662780762,2.149906635284424,-2.3021767139434814,-2.1372859477996826,1.968198299407959,3.926694869995117,0.30438926815986633,-2.125784397125244,0.5637012124061584,1.7653489112854004
106,31190,31186,0.005838642828166485,-0.21123377978801727,1.0873948335647583,0.45066261291503906,-2.8927621841430664,-2.026092529296875,1.9683188199996948,3.926439046859741,0.3047696650028229,-2.0516977310180664,0.5284693241119385,1.732527256011963
107,31200,31196,-0.028904885053634644,-0.12141624838113785,1.063836932182312,0.9324575662612915,-2.259821653366089,-2.3284647464752197,1.967069387435913,3.9268643856048584,0.3053279519081116,-1.9792863130569458,0.5687860250473022,1.7215156555175781
108,31210,31206,-0.003701206296682358,-0.1198638528585434,0.9758456349372864,-0.1032671332359314,2.9144608974456787,-2.4103219509124756,1.9660444259643555,3.9258334636688232,0.3027708828449249,-2.1262946128845215,0.5937151312828064,1.689975380897522
109,31220,31216,-0.0006285629351623356,-0.08037248253822327,0.9379268884658813,-0.48712095618247986,7.503631591796875,-2.8132877349853516,1.9663136005401611,3.9250738620758057,0.30307483673095703,-2.1551756858825684,0.6079702973365784,1.6700406074523926
110,31230,31226,0.00443961750715971,-0.0044770678505301476,0.9152008891105652,-1.4606741666793823,11.431883811950684,-2.492023468017578,1.9656810760498047,3.9252521991729736,0.30346059799194336,-2.245816707611084,0.5902207493782043,1.6431127786636353
111,31240,31236,0.06385819613933563,-0.005609480664134026,0.8975935578346252,-3.2647764682769775,11.489100456237793,-2.580284833908081,1.9659254550933838,3.9252731800079346,0.3017614185810089,-2.4258780479431152,0.5580454468727112,1.6088100671768188
112,31250,31246,0.10392992198467255,-0.02613709680736065,0.9518327116966248,-3.534773349761963,6.569345951080322,-2.464871883392334,1.9661808013916016,3.9253907203674316,0.3017981946468353,-2.4812498092651367,0.513597309589386,1.5819063186645508
113,31260,31256,0.10262493789196014,-0.07892169058322906,0.9702730774879456,-3.5231494903564453,6.566160678863525,-2.786363363265991,1.9657262563705444,3.924550771713257,0.30175286531448364,-2.591691732406616,0.457776814699173,1.5522396564483643
114,31270,31266,-0.0015223833033815026,-0.11099571734666824,0.9669454097747803,-1.7051186561584473,-0.7008863091468811,-2.480633020401001,1.966532588005066,3.924798011779785,0.30164605379104614,-2.6026597023010254,0.4419592022895813,1.5264406204223633
115,31280,31276,-0.02682209573686123,-0.02647857367992401,0.9986379742622375,-1.3335232734680176,-4.013304710388184,-2.4336273670196533,1.9665263891220093,3.9247729778289795,0.30123549699783325,-2.530550479888916,0.4204725921154022,1.506770133972168
116,31290,31286,-0.007546483539044857,0.09229795634746552,1.0063525438308716,-1.3648196458816528,-5.3530778884887695,-2.4467403888702393,1.966514229774475,3.924426555633545,0.3011283874511719,-2.5756478309631348,0.4112096428871155,1.4758687019348145
117,31300,31296,0.011880366131663322,-0.05005444213747978,0.9986797571182251,-0.7106080055236816,-6.746083736419678,-1.614483118057251,1.967263102531433,3.9249494075775146,0.3008855879306793,-2.6825268268585205,0.397382915019989,1.4423542022705078
118,31310,31306,-0.01221782062202692,0.022107724100351334,1.0407737493515015,-1.1051701307296753,-8.09927749633789,-1.1546196937561035,1.9691696166992188,3.9248125553131104,0.29754745960235596,-2.586425542831421,0.3866622745990753,1.4272514581680298
119,31320,31316,0.03928089514374733,0.014514314010739326,1.0524979829788208,-1.4344208240509033,-9.076155662536621,-1.7786580324172974,1.9689335823059082,3.9252769947052,0.2972298860549927,-2.3919827938079834,0.4614086151123047,1.4501479864120483
120,31330,31326,-0.002632053103297949,0.008017935790121555,1.091651439666748,-1.4659970998764038,-7.219032287597656,-2.651207685470581,1.9683259725570679,3.9244515895843506,0.29707714915275574,-2.372852087020874,0.43872976303100586,1.4194118976593018
121,31340,31336,0.018588043749332428,-0.05981820821762085,0.9789714813232422,-2.039187431335449,-7.391788482666016,-2.4185779094696045,1.9693886041641235,3.9237256050109863,0.29616257548332214,-2.2660300731658936,0.40509581565856934,1.3868167400360107
122,31350,31346,-0.003303561359643936,0.024290816858410835,1.0564810037612915,-3.452338933944702,-5.732537746429443,-2.401245594024658,1.9696874618530273,3.9244842529296875,0.29597052931785583,-2.1008028984069824,0.35446032881736755,1.3608425855636597
123,31360,31356,0.009661721996963024,-0.04636627063155174,0.9909128546714783,-3.7882180213928223,-5.031455039978027,-2.1842355728149414,1.968925952911377,3.924612522125244,0.2958846092224121,-2.4097065925598145,0.37062159180641174,1.3351753950119019
124,31370,31366,0.009216462261974812,0.01336656603962183,1.0524425506591797,-4.362391471862793,-3.739171266555786,-2.441681385040283,1.9727522134780884,3.924100160598755,0.2954915761947632,-2.220972776412964,0.2918829619884491,1.3038437366485596
125,31380,31376,0.013506921008229256,-0.06826255470514297,0.9946175217628479,-4.052026271820068,-8.233674049377441,-3.105454444885254,1.9722766876220703,3.9244189262390137,0.2921525239944458,-2.192006826400757,0.21372824907302856,1.2612589597702026
126,31390,31386,0.01923256367444992,-0.0003637887421064079,1.0459061861038208,-2.9896583557128906,-10.063773155212402,-2.7504987716674805,1.9732506275177002,3.924773693084717,0.291803240776062,-2.0836267471313477,0.2374058961868286,1.2551289796829224
127,31400,31396,-0.011870329268276691,-0.01231563650071621,0.9710329174995422,-4.332617282867432,-6.823784351348877,-2.3865880966186523,1.974085807800293,3.92397403717041,0.29151424765586853,-1.9851561784744263,0.24793772399425507,1.250725269317627
128,31410,31406,0.01695321686565876,-0.04718352109193802,0.9930245876312256,-0.40675088763237,-16.45305061340332,-1.6702264547348022,1.9748519659042358,3.923517942428589,0.2910647392272949,-1.825518250465393,0.20342476665973663,1.2269704341888428
129,31420,31416,-0.01789669133722782,0.06590536236763,1.028935194015503,0.43126407265663147,-13.605120658874512,-1.572492003440857,1.975172519683838,3.9237794876098633,0.2907840609550476,-1.8650223016738892,0.12578508257865906,1.1705750226974487
130,31430,31426,-0.009107764810323715,0.009321614168584347,1.0190684795379639,0.9501712918281555,-15.960612297058105,-0.8266633749008179,1.977935552597046,3.9254887104034424,0.2903132140636444,-1.5015122890472412,0.2047203779220581,1.1957696676254272
131,31440,31436,-0.019585898146033287,0.0988733321428299,1.0632696151733398,-0.40864720940589905,-10.494001388549805,-1.4742106199264526,1.977150321006775,3.9246370792388916,0.2902206480503082,-1.5114542245864868,0.2648026943206787,1.2012909650802612
132,31450,31446,-0.01766761764883995,0.0337008573114872,0.9805387258529663,-4.4180097579956055,-5.64475679397583,-0.782124400138855,1.979158639907837,3.923668146133423,0.2898796498775482,-1.566951036453247,0.20440736413002014,1.1736916303634644
133,31460,31456,0.02278483472764492,-0.06413821876049042,1.041054606437683,-4.977296829223633,-8.120702743530273,-0.9501572847366333,1.9818601608276367,3.9234981536865234,0.2895108163356781,-1.5247273445129395,0.16623470187187195,1.1632047891616821
134,31470,31466,0.042050402611494064,-0.2760728597640991,1.1801869869232178,-3.521043539047241,-10.4918794631958,-1.8654682636260986,1.9827990531921387,3.923884391784668,0.289194256067276,-1.4538010358810425,0.09722242504358292,1.1446362733840942
135,31480,31476,0.0341145358979702,-0.23806293308734894,1.1395940780639648,0.5322843194007874,-14.212408065795898,-1.6994047164916992,1.9843997955322266,3.9246716499328613,0.28904253244400024,-1.4346641302108765,0.10829836875200272,1.1439205408096313
136,31490,31486,0.012918909080326557,0.08390398323535919,1.001903772354126,-1.7632895708084106,-12.6576509475708,-1.1596015691757202,1.986525058746338,3.9240949153900146,0.28894466161727905,-1.070875644683838,0.058441463857889175,1.1254551410675049
137,31500,31496,-0.013271759264171124,0.0747213214635849,1.0167717933654785,-3.664900302886963,-14.250039100646973,-0.8736514449119568,1.985576868057251,3.92374849319458,0.28937217593193054,-1.1683882474899292,0.022960061207413673,1.1065278053283691
138,31510,31506,0.015236173756420612,-0.13519564270973206,1.118641972541809,-1.568934440612793,-17.687570571899414,-0.828678548336029,1.9889391660690308,3.9236607551574707,0.2912108302116394,-1.0605424642562866,-0.007189563941210508,1.089905023574829
139,31520,31516,0.0393638014793396,-0.16054819524288177,1.0777482986450195,2.302229166030884,-16.961828231811523,-0.9192636013031006,1.9905955791473389,3.923736810684204,0.29142826795578003,-0.7797284126281738,0.053386300802230835,1.096257209777832
140,31530,31526,-0.04380117356777191,0.06164863705635071,1.0273234844207764,-0.6208994388580322,-13.608428955078125,-0.04221804440021515,1.9906622171401978,3.923029661178589,0.29198235273361206,-0.7568774819374084,0.03997231647372246,1.0852270126342773
141,31540,31536,0.022514574229717255,-0.04130004346370697,1.0821936130523682,-2.7072484493255615,-11.496367454528809,-0.5150166153907776,1.9933449029922485,3.922971248626709,0.29146066308021545,-0.5928318500518799,0.008327229879796505,1.077997088432312
142,31550,31546,0.019517095759510994,-0.05290106683969498,1.028465986251831,-5.273331642150879,-12.564220428466797,-0.23364363610744476,1.9943287372589111,3.922933578491211,0.2919017970561981,-0.3113769292831421,-0.053418368101119995,1.067652702331543
143,31560,31556,0.00033060566056519747,-0.12495513260364532,1.1409082412719727,-2.7238128185272217,-14.14456558227539,-0.8390597701072693,1.9942641258239746,3.9232065677642822,0.2925683557987213,-0.34833595156669617,-0.10792411863803864,1.0629091262817383
144,31570,31566,0.031084097921848297,-0.18907609581947327,1.0476155281066895,-1.3160793781280518,-9.099884986877441,-0.8292214274406433,1.9961206912994385,3.923801898956299,0.29335618019104004,-0.15714131295681,-0.0620906725525856,1.0619516372680664
145,31580,31576,-0.0121932877227664,-0.14628054201602936,1.1427587270736694,0.7347010374069214,-7.251291275024414,-0.9016192555427551,1.9970815181732178,3.923661231994629,0.29413142800331116,-0.077289879322052,-0.08653886616230011,1.0517771244049072
146,31590,31586,0.032849058508872986,-0.07955852150917053,0.9875469207763672,2.162799119949341,-4.0125041007995605,-1.3229855298995972,1.9987590312957764,3.923574924468994,0.2949152886867523,-0.022848404943943024,-0.09032788127660751,1.0454590320587158
147,31600,31596,-0.004820211790502071,0.1216384693980217,1.0339041948318481,0.7481462359428406,-8.477617263793945,-0.9317662715911865,2.000215768814087,3.9230785369873047,0.29572972655296326,-0.052707917988300323,-0.07581913471221924,1.036710262298584
148,31610,31606,0.03393466770648956,-0.03215523064136505,1.0201928615570068,-0.16079577803611755,-11.80979061126709,-0.9780967831611633,2.0030646324157715,3.922929525375366,0.2959245443344116,0.2595972418785095,-0.06817557662725449,1.021340012550354
149,31620,31616,-0.018271932378411293,-0.11611619591712952,1.1017144918441772,0.5435599684715271,-7.113927841186523,-1.2990357875823975,2.002014398574829,3.92288875579834,0.29711636900901794,0.17994634807109833,0.005748142953962088,1.0141607522964478
150,31630,31626,0.037327177822589874,0.010950975120067596,0.9185698628425598,-0.19892726838588715,-9.233518600463867,-1.405657410621643,2.0051820278167725,3.9218320846557617,0.2979249060153961,0.3438057005405426,-0.007901709526777267,1.0015029907226562
151,31640,31636,-0.02364916168153286,-0.005076584871858358,1.0337117910385132,-1.486043095588684,-5.689251899719238,-1.493671178817749,2.0063698291778564,3.9218673706054688,0.29864439368247986,0.4834839403629303,-0.028938356786966324,0.9878799915313721
152,31650,31646,0.053908929228782654,0.03689887374639511,0.9579500555992126,-3.245358943939209,-6.5666117668151855,-1.614472508430481,2.0075833797454834,3.922344207763672,0.29968705773353577,0.5400453209877014,-0.07070811092853546,0.9762510657310486
153,31660,31656,0.028349995613098145,-0.007113611325621605,0.9543349742889404,-3.5206992626190186,-2.7179129123687744,-1.86058509349823,2.0096914768218994,3.9224674701690674,0.3005716800689697,0.6166424751281738,-0.12805385887622833,0.9618475437164307
154,31670,31666,0.038649920374155045,0.017508530989289284,0.9975425601005554,-3.3359763622283936,-2.894775390625,-2.1915059089660645,2.010962724685669,3.922614097595215,0.30197376012802124,0.4626174867153168,-0.1933785080909729,0.9556816220283508
155,31680,31676,0.02556595765054226,0.028154432773590088,1.013088345527649,-2.6117396354675293,-3.2323694229125977,-2.5353426933288574,2.014446973800659,3.92273211479187,0.3027263879776001,0.5423111319541931,-0.17335505783557892,0.9274699687957764
156,31690,31686,-0.016505718231201172,0.012965301983058453,0.9889730215072632,-1.3609100580215454,-5.84844970703125,-2.450638771057129,2.0160462856292725,3.9220945835113525,0.30366915464401245,0.6196359992027283,-0.29501956701278687,0.9173180460929871
157,31700,31696,-0.05281537398695946,0.014187220484018326,0.9799546599388123,0.2599777281284332,-7.417004585266113,-2.1770524978637695,2.017096757888794,3.9223766326904297,0.3045712113380432,0.7847069501876831,-0.23088937997817993,0.8725964426994324
158,31710,31706,-0.06558844447135925,0.016661381348967552,0.98512864112854,1.393000602722168,-4.946662425994873,-1.7445049285888672,2.017652750015259,3.9215216636657715,0.3039665222167969,0.7163377404212952,-0.2286090850830078,0.8607416749000549
159,31720,31716,-0.0046406155452132225,-0.01821710541844368,0.9738042950630188,2.845773220062256,-4.312686920166016,-1.7781271934509277,2.0200250148773193,3.9213390350341797,0.30463409423828125,0.7978443503379822,-0.20141030848026276,0.8389295339584351
160,31730,31726,0.007916239090263844,-0.02401651442050934,0.9678218364715576,2.4344334602355957,-5.327531814575195,-1.1833420991897583,2.020886182785034,3.9207751750946045,0.30540668964385986,0.8622267842292786,-0.16202819347381592,0.8186521530151367
161,31740,31736,0.015919208526611328,-0.026852114126086235,0.965152382850647,1.0039706230163574,-3.9426076412200928,-0.9713888168334961,2.0221970081329346,3.920232057571411,0.3042603135108948,0.9226852655410767,-0.2083442509174347,0.8095642924308777
162,31750,31746,0.0505090095102787,-0.04618796706199646,0.9649182558059692,0.17222735285758972,-1.7117018699645996,-1.3484456539154053,2.0230820178985596,3.9205780029296875,0.30484357476234436,1.040062665939331,-0.18701688945293427,0.7989708185195923
163,31760,31756,0.076360784471035,-0.08008107542991638,0.9626714587211609,0.7393749356269836,-1.5874134302139282,-2.1993861198425293,2.0227460861206055,3.9207921028137207,0.30537548661231995,0.971453070640564,-0.17579902708530426,0.7865175604820251
164,31770,31766,-0.0005181477754376829,-0.019993938505649567,0.980648934841156,-0.14331045746803284,-0.42563310265541077,-1.850616216659546,2.0248687267303467,3.9200994968414307,0.30584999918937683,0.9742003679275513,-0.1689257025718689,0.7794791460037231
165,31780,31776,-0.013307573273777962,0.004831517115235329,0.9840728044509888,1.1945122480392456,2.355468273162842,-2.5066680908203125,2.0262508392333984,3.921131134033203,0.30630508065223694,1.1109999418258667,-0.15793223679065704,0.7535516023635864
166,31790,31786,-0.008126961998641491,-0.021748218685388565,0.9612597227096558,1.558531641960144,1.790383219718933,-2.580954074859619,2.0263516902923584,3.920938491821289,0.30690374970436096,1.065550446510315,-0.21940596401691437,0.738766610622406
167,31800,31796,-0.01860021986067295,0.01652596704661846,0.9532787203788757,1.5831948518753052,1.914472222328186,-2.0869104862213135,2.0276007652282715,3.921684503555298,0.30731287598609924,1.018527626991272,-0.19327878952026367,0.7164260149002075
168,31810,31806,-0.04485812038183212,0.08467356115579605,0.9634115099906921,1.2969602346420288,1.6808321475982666,-1.7182555198669434,2.029291868209839,3.9212090969085693,0.3104100525379181,1.1212823390960693,-0.16940371692180634,0.6800040602684021
169,31820,31816,-0.040842704474925995,0.1070578545331955,0.9618545770645142,1.596344232559204,1.639601469039917,-0.7576469779014587,2.0290727615356445,3.9203028678894043,0.31099823117256165,1.0514689683914185,-0.14284035563468933,0.6514351963996887
170,31830,31826,-0.024731487035751343,0.06620745360851288,0.9664894938468933,2.566653251647949,5.751275062561035,-0.9512249827384949,2.03088116645813,3.919275999069214,0.3114252984523773,0.9663602113723755,-0.11265820264816284,0.6415121555328369
171,31840,31836,-0.026950780302286148,0.02786906622350216,0.9551141858100891,2.4052999019622803,3.1230556964874268,0.00040394498500972986,2.032499313354492,3.9184954166412354,0.3120517134666443,0.9298743605613708,-0.1448555290699005,0.6355714797973633
172,31850,31846,0.029421987012028694,-0.08720438182353973,1.0119304656982422,1.3500155210494995,1.4230191707611084,-0.11323512345552444,2.0334105491638184,3.9199562072753906,0.31248778104782104,0.9022993445396423,-0.09416230022907257,0.6305215954780579
173,31860,31856,0.07404591888189316,-0.14713838696479797,1.0120024681091309,1.8391194343566895,1.3536295890808105,-0.4092239737510681,2.0346248149871826,3.9197397232055664,0.3129294812679291,0.9740985631942749,-0.05454055219888687,0.61653733253479
174,31870,31866,0.07070578634738922,-0.21290570497512817,1.0680267810821533,1.8584496974945068,2.207611083984375,-0.8876383900642395,2.034707546234131,3.919647455215454,0.31328973174095154,0.8207685351371765,-0.1706700474023819,0.6469823122024536
175,31880,31876,0.02151639573276043,-0.1370728760957718,1.0234884023666382,2.690718412399292,1.73887038230896,-1.2763079404830933,2.037431001663208,3.9205291271209717,0.31370705366134644,0.9043024778366089,-0.1131075918674469,0.618452787399292
176,31890,31886,0.024898579344153404,-0.056117814034223557,0.9454978704452515,3.1527888774871826,4.004509449005127,-1.6563482284545898,2.0379436016082764,3.9202721118927,0.31433677673339844,0.9699392914772034,-0.12482783943414688,0.6130934953689575
177,31900,31896,0.005731962155550718,-0.013060447759926319,0.9201387763023376,4.209090232849121,0.7743825316429138,-0.7375198006629944,2.0379490852355957,3.9206604957580566,0.31321144104003906,0.9597170948982239,-0.04811592027544975,0.588745653629303
178,31910,31906,-0.014245333150029182,0.027552122250199318,1.0018986463546753,4.2005462646484375,4.022680759429932,-1.4087904691696167,2.038844108581543,3.9201366901397705,0.3135493993759155,0.9475862383842468,0.03323207423090935,0.5680577158927917
179,31920,31916,0.0015048045897856355,0.08935444802045822,0.9472841024398804,3.5692458152770996,1.883650541305542,-0.4368595480918884,2.039782762527466,3.919602632522583,0.31381839513778687,0.9238051176071167,0.03152419626712799,0.5649339556694031
180,31930,31926,0.018373241648077965,-0.03874259442090988,1.0094876289367676,2.7577221393585205,5.924483299255371,-0.44140714406967163,2.0407066345214844,3.9196667671203613,0.3140884339809418,0.873738706111908,0.10020798444747925,0.5525845885276794
181,31940,31936,-0.010607767850160599,0.030944470316171646,1.0330990552902222,2.5876624584198,6.632811546325684,-0.237257182598114,2.041792154312134,3.919614553451538,0.312498539686203,0.8679894804954529,0.15976350009441376,0.5299115777015686
182,31950,31946,-0.009491835720837116,0.04715847223997116,1.0427172183990479,1.7674951553344727,6.0018696784973145,0.18789991736412048,2.041449785232544,3.9177684783935547,0.31266719102859497,0.8231483101844788,0.2051546275615692,0.5353674292564392
183,31960,31956,0.027564767748117447,-0.0166779812425375,1.0247682332992554,0.39652490615844727,9.87523078918457,-0.9366230964660645,2.042673349380493,3.9190456867218018,0.3129217028617859,0.7576266527175903,0.23255164921283722,0.5298340320587158
184,31970,31966,-0.0050087920390069485,-0.009791161864995956,1.0141104459762573,-0.3796999156475067,6.508489608764648,-1.1535485982894897,2.0428364276885986,3.9187934398651123,0.3102492392063141,0.6850977540016174,0.24314270913600922,0.5044376850128174
185,31980,31976,-0.010913432575762272,-0.12162356823682785,1.0308325290679932,-1.6766412258148193,7.111359596252441,-1.4582407474517822,2.0431132316589355,3.9173567295074463,0.3103518784046173,0.6319878697395325,0.23536129295825958,0.48370933532714844
186,31990,31986,-0.006411535665392876,-0.17897865176200867,0.9657580852508545,-2.219672679901123,10.429574012756348,-2.4127156734466553,2.0434279441833496,3.917430877685547,0.3104636073112488,0.5815437436103821,0.20614419877529144,0.4744042158126831
187,32000,31996,-0.017771081998944283,-0.0637807622551918,0.9443545937538147,-2.4366812705993652,10.152527809143066,-2.260554075241089,2.043975591659546,3.9171650409698486,0.3117643892765045,0.5033613443374634,0.16918160021305084,0.45980021357536316
188,32010,32006,-0.01123935915529728,0.07848730683326721,0.9329685568809509,-1.4638906717300415,8.848382949829102,-2.216324806213379,2.0448408126831055,3.917248249053955,0.31190258264541626,0.3453739583492279,0.13783837854862213,0.44266971945762634
189,32020,32016,0.019541656598448753,0.08583638072013855,0.9315455555915833,-1.4636666774749756,6.276699542999268,-1.7269396781921387,2.0457749366760254,3.9172990322113037,0.3119308352470398,0.2966774106025696,0.11580991744995117,0.4454582929611206
190,32030,32026,-0.020210066810250282,0.01637430302798748,1.0350252389907837,-0.9635670185089111,3.794440269470215,-1.2395524978637695,2.0459816455841064,3.9185707569122314,0.3119395673274994,0.2684215009212494,0.10082479566335678,0.42414870858192444
191,32040,32036,0.02473694086074829,-0.0223190076649189,1.0858346223831177,-1.3764222860336304,-0.3510016202926636,-0.4886241853237152,2.0461618900299072,3.917860507965088,0.3094635307788849,0.27761995792388916,0.0898653119802475,0.4024568498134613
192,32050,32046,0.05419354885816574,-0.1717803180217743,1.114382028579712,-1.3364830017089844,5.140017509460449,-1.0995341539382935,2.0458152294158936,3.9173645973205566,0.30943959951400757,0.19580145180225372,0.07976678758859634,0.38366878032684326
193,32060,32056,-0.005683847703039646,-0.11015543341636658,1.0892199277877808,-0.03473445400595665,9.089361190795898,-1.9284213781356812,2.0469369888305664,3.917463541030884,0.3094448745250702,0.14039267599582672,0.07741256803274155,0.3683190643787384
194,32070,32066,0.023130537942051888,-0.0924946591258049,0.9550138115882874,1.1876912117004395,11.887605667114258,-3.023077964782715,2.0474610328674316,3.9177205562591553,0.3090890049934387,0.041706763207912445,0.08698651939630508,0.3566761016845703
195,32080,32076,-0.030627373605966568,0.01693861559033394,0.9511377215385437,0.32257917523384094,7.392124176025391,-2.0240256786346436,2.0485877990722656,3.917548656463623,0.309219092130661,-0.06101521849632263,0.10066869109869003,0.3307083547115326
196,32090,32086,0.017160315066576004,-0.0011045463616028428,0.9842864871025085,0.368302583694458,8.018959999084473,-2.0853569507598877,2.0490832328796387,3.917388677597046,0.30928754806518555,-0.13815459609031677,0.10583537817001343,0.3304916024208069
197,32100,32096,0.020725242793560028,0.03301853686571121,0.9932538866996765,-0.3069222569465637,2.6377882957458496,-1.1879686117172241,2.049372911453247,3.918092727661133,0.312063068151474,-0.25502467155456543,0.11109502613544464,0.3035909831523895
198,32110,32106,0.011785886250436306,-0.009435552172362804,1.094314694404602,-2.457947015762329,0.8146378397941589,-0.3109032213687897,2.0505599975585938,3.917583703994751,0.31224215030670166,-0.2434430569410324,0.09875818341970444,0.27102038264274597
199,32120,32116,0.07260610163211823,-0.2607841193675995,1.1615859270095825,-1.009389042854309,2.4004766941070557,-1.3538763523101807,2.050278425216675,3.9168546199798584,0.3125426173210144,-0.3710675835609436,0.07610661536455154,0.25246647000312805
200,32130,32126,-0.0030820374377071857,-0.05998150259256363,1.0944886207580566,-0.12588754296302795,3.1135711669921875,-1.4038054943084717,2.051957130432129,3.9169108867645264,0.3128247559070587,-0.3256552517414093,0.0592784620821476,0.25367072224617004
201,32140,32136,-0.002773650223389268,-0.06650004535913467,0.9905524253845215,1.0498305559158325,3.506283760070801,-1.6570402383804321,2.0522265434265137,3.9178457260131836,0.31379252672195435,-0.38003188371658325,0.061439141631126404,0.23887845873832703
202,32150,32146,-0.019310832023620605,0.016961170360445976,0.9428545832633972,1.0309890508651733,3.102541923522949,-1.5699388980865479,2.0530335903167725,3.917283773422241,0.31430649757385254,-0.432698130607605,0.07123824954032898,0.2216324359178543
203,32160,32156,-0.026028292253613472,0.23688746988773346,0.8944687247276306,1.3448832035064697,1.8610987663269043,-0.9776183366775513,2.0539255142211914,3.9187331199645996,0.3147880733013153,-0.46428182721138,0.012352454476058483,0.2327793389558792
204,32170,32166,0.020171983167529106,0.10663150250911713,0.9025744199752808,2.079427480697632,0.26480886340141296,-0.7536885738372803,2.0543212890625,3.9191975593566895,0.307857483625412,-0.6525354981422424,0.04881482571363449,0.21965645253658295
205,32180,32176,0.013237585313618183,0.0008259767782874405,0.9979462027549744,3.2356109619140625,-0.3375932276248932,-0.7065978050231934,2.0573110580444336,3.9188685417175293,0.30763816833496094,-0.5586588978767395,0.012009706348180771,0.1976022571325302
206,32190,32186,0.004028738476336002,-0.039227694272994995,1.0091348886489868,3.4535651206970215,-1.3805068731307983,-0.15742790699005127,2.056947708129883,3.9187605381011963,0.3076179623603821,-0.5339784622192383,0.15639445185661316,0.21614082157611847
207,32200,32196,0.029923943802714348,-0.1598174124956131,1.0469071865081787,4.847634792327881,-2.0772576332092285,-0.20494548976421356,2.0576040744781494,3.918323040008545,0.308411180973053,-0.42859041690826416,0.14062859117984772,0.21267816424369812
208,32210,32206,-0.008156681433320045,0.03058663196861744,1.0253249406814575,3.3712165355682373,-0.6343664526939392,0.05764031782746315,2.0576324462890625,3.918867349624634,0.3084792196750641,-0.32735657691955566,0.2159336805343628,0.2010694295167923
209,32220,32216,-0.0031853800173848867,-0.001173557247966528,0.9815619587898254,1.3093976974487305,0.06459503620862961,0.05692844092845917,2.0572142601013184,3.9183900356292725,0.3085527718067169,-0.4775724709033966,0.19393005967140198,0.1970507800579071
210,32230,32226,0.01356080174446106,-0.008362805470824242,1.02003014087677,0.1072365865111351,2.1652724742889404,-0.234629288315773,2.0594661235809326,3.918375253677368,0.3096655011177063,-0.4822515547275543,0.22186614573001862,0.18522033095359802
211,32240,32236,-0.01909838244318962,-0.04264736920595169,1.0661170482635498,-1.1376503705978394,1.8625649213790894,-0.38397103548049927,2.0602238178253174,3.918519973754883,0.3097541928291321,-0.582330584526062,0.22146068513393402,0.17492862045764923
212,32250,32246,0.014834670349955559,-0.019542764872312546,1.029035210609436,-0.9376566410064697,3.29256010055542,-0.32760927081108093,2.0618648529052734,3.9178519248962402,0.30979928374290466,-0.5232505798339844,0.20963560044765472,0.17244607210159302
213,32260,32256,-0.014720759354531765,-0.04191228747367859,1.068642497062683,-0.5905193090438843,1.560489535331726,-0.2782588303089142,2.061760902404785,3.918782949447632,0.3100634813308716,-0.39430516958236694,0.19580292701721191,0.19297027587890625
214,32270,32266,-0.016768919304013252,-0.020374350249767303,1.0859390497207642,2.1724679470062256,-2.0815141201019287,-0.2124575525522232,2.0612688064575195,3.9188857078552246,0.3110903799533844,-0.7264608144760132,0.20848052203655243,0.18610234558582306
215,32280,32276,0.024314848706126213,-0.017050812020897865,0.9707216024398804,3.462951898574829,-2.190001964569092,0.0001946707343449816,2.0652031898498535,3.91829252243042,0.3112465441226959,-0.6047043204307556,0.25425317883491516,0.168981671333313
216,32290,32286,-0.017815018072724342,0.006453643087297678,0.9884516596794128,3.9705452919006348,-2.7065422534942627,-0.1484481394290924,2.064889430999756,3.917715311050415,0.3117399215698242,-0.4705655872821808,0.31626105308532715,0.1724342703819275
217,32300,32296,0.028263093903660774,-0.0114717623218894,0.9891398549079895,3.400740623474121,-3.586061716079712,-0.09976184368133545,2.0648558139801025,3.9171319007873535,0.31157979369163513,-0.48101723194122314,0.37715697288513184,0.1797492355108261
218,32310,32306,-0.0017277675215154886,-0.024706639349460602,1.039586067199707,1.1157711744308472,-4.7003021240234375,0.08878758549690247,2.0660738945007324,3.9162070751190186,0.31185081601142883,-0.48221004009246826,0.41529443860054016,0.15662868320941925
219,32320,32316,-0.009397663176059723,-0.003852652385830879,1.0465892553329468,-1.3535072803497314,-3.721902847290039,0.13425621390342712,2.06701397895813,3.91567325592041,0.31214678287506104,-0.3959939777851105,0.4146439731121063,0.15165205299854279
220,32330,32326,-0.04029569774866104,-0.03681004047393799,1.0050781965255737,-3.448193311691284,-0.12045738101005554,0.18963401019573212,2.067523241043091,3.9151134490966797,0.3126966655254364,-0.3216123878955841,0.3748129904270172,0.12790481746196747
221,32340,32336,0.061088431626558304,-0.019407812505960464,1.0069888830184937,-4.431797027587891,0.3327091634273529,-0.6324660181999207,2.0681209564208984,3.915151596069336,0.3131144940853119,-0.3672468960285187,0.30584660172462463,0.12534013390541077
222,32350,32346,0.05085430294275284,0.0037316668312996626,1.0240213871002197,-5.365230560302734,-2.5967421531677246,-0.21426771581172943,2.0693955421447754,3.9150283336639404,0.31347036361694336,-0.4176565110683441,0.22176721692085266,0.10741477459669113
223,32360,32356,-0.014820961281657219,-0.022870978340506554,0.9943065643310547,-4.153059482574463,-2.9579899311065674,0.08400005847215652,2.070492744445801,3.914602041244507,0.31380411982536316,-0.43040066957473755,0.30015483498573303,0.11274212598800659
224,32370,32366,0.009882940910756588,-0.05677885189652443,0.9872115254402161,-0.30335983633995056,-2.476581573486328,0.057212475687265396,2.0717530250549316,3.9129116535186768,0.3124821186065674,-0.3549029529094696,0.23785993456840515,0.11959034949541092
225,32380,32376,0.014125115238130093,-0.029723864048719406,1.0099194049835205,2.1527774333953857,-2.6299827098846436,0.3340495526790619,2.0723304748535156,3.9132001399993896,0.31285718083381653,-0.2056555449962616,0.22919878363609314,0.16012261807918549
226,32390,32386,0.04176843911409378,-0.027914606034755707,1.024606704711914,2.2871243953704834,-3.6229920387268066,0.23840749263763428,2.073359727859497,3.9158833026885986,0.31332269310951233,-0.3770209848880768,0.2551495432853699,0.19540567696094513
227,32400,32396,0.04339027777314186,-0.07124119997024536,0.9978821873664856,1.0835572481155396,-2.559263229370117,0.037422679364681244,2.07708477973938,3.9166738986968994,0.3141760230064392,-0.2893237769603729,0.27665022015571594,0.21793504059314728
228,32410,32406,0.032162513583898544,-0.09801624715328217,0.9953364133834839,0.9329341650009155,-3.976449728012085,-0.0223498847335577,2.0775911808013916,3.916821241378784,0.3146122097969055,-0.2851702868938446,0.2864927351474762,0.1962665319442749
229,32420,32416,0.028655769303441048,-0.07800693809986115,1.0240952968597412,-0.4400941729545593,-3.845369577407837,0.1581173986196518,2.0784432888031006,3.916642427444458,0.3150021731853485,-0.1860831379890442,0.285117506980896,0.19579504430294037
230,32430,32426,0.006266102194786072,-0.0007991382735781372,1.0117238759994507,-3.1450068950653076,-3.595346212387085,-0.17128001153469086,2.078909158706665,3.916590690612793,0.31100186705589294,-0.0908849835395813,0.3283234238624573,0.19984722137451172
231,32440,32436,0.040383752435445786,-0.11724264919757843,0.9961544275283813,-4.5035247802734375,-4.042823314666748,-0.25151532888412476,2.079322099685669,3.9160029888153076,0.31117069721221924,-0.17014697194099426,0.24001413583755493,0.17980116605758667
232,32450,32446,-0.022326398640871048,0.029094206169247627,0.9893418550491333,-3.79310941696167,-2.817596435546875,0.2202969342470169,2.0815136432647705,3.9158005714416504,0.3112448751926422,-0.1643621176481247,0.22798538208007812,0.1717853993177414
233,32460,32456,-0.02287588082253933,0.12379739433526993,0.97386634349823,-3.9373228549957275,-1.6621378660202026,0.7125519514083862,2.0826032161712646,3.9148974418640137,0.31157517433166504,-0.0992792397737503,0.1384476125240326,0.17385929822921753
234,32470,32466,0.03333420306444168,-0.0725388452410698,0.9707977771759033,-3.8931655883789062,-0.36653098464012146,1.038517951965332,2.083378553390503,3.9149107933044434,0.31175243854522705,-0.05866597220301628,0.20992179214954376,0.18651823699474335
235,32480,32476,0.03145463392138481,-0.1631201207637787,1.040672779083252,-2.8968422412872314,-0.6109848022460938,0.7066199779510498,2.084049940109253,3.914708137512207,0.31187108159065247,-0.08891059458255768,0.13137902319431305,0.22717200219631195
236,32490,32486,0.05804881453514099,-0.11450330913066864,1.0053902864456177,-1.6115769147872925,-1.4817867279052734,0.5355849266052246,2.085361957550049,3.9145545959472656,0.3119715452194214,-0.02591685578227043,0.0799267590045929,0.2545104920864105
237,32500,32496,0.04812842607498169,-0.1349116861820221,1.0033233165740967,0.660280168056488,-4.074228763580322,0.471733421087265,2.0881338119506836,3.918039560317993,0.3129081130027771,-0.10155583918094635,0.13091397285461426,0.3044140338897705
238,32510,32506,0.0024117291904985905,-0.010372444055974483,1.0177963972091675,0.30201879143714905,-5.01977014541626,0.07386999577283859,2.0901081562042236,3.9174273014068604,0.3130112588405609,0.07564522325992584,0.11213056743144989,0.31707221269607544
239,32520,32516,-0.02892535924911499,-0.023851213976740837,1.032623291015625,-0.36703652143478394,-2.7126288414001465,0.126669779419899,2.089543581008911,3.9170711040496826,0.3133772611618042,0.16456899046897888,0.09244079142808914,0.31678450107574463
