,timestamp_start,timestamp_end,acc.x,acc.y,acc.z,gyro.x,gyro.y,gyro.z,stateEstimate.x,stateEstimate.y,stateEstimate.z,stabilizer.pitch,stabilizer.roll,stabilizer.yaw
0,49366,49365,0.04305819794535637,-0.033264048397541046,0.9806479811668396,-5.888272762298584,0.6631839275360107,1.7936429977416992,1.5924429893493652,3.871222496032715,0.17805823683738708,-0.5293564796447754,0.2553282380104065,2.878779888153076
1,49376,49375,-0.06275922805070877,0.009408319368958473,1.0904790163040161,-4.218926429748535,-3.7835772037506104,2.6115386486053467,1.5939518213272095,3.8707172870635986,0.18000729382038116,-0.5527722835540771,0.26135972142219543,2.902583122253418
2,49386,49385,-0.0060075921937823296,0.021677291020751,1.0714176893234253,-1.1657518148422241,-3.812417984008789,2.4665420055389404,1.595272183418274,3.8693532943725586,0.18225742876529694,-0.3005681037902832,0.5156063437461853,2.9818856716156006
3,49396,49395,0.005952196661382914,0.018888194113969803,1.0621435642242432,0.18249209225177765,-2.283336639404297,1.7635356187820435,1.594877004623413,3.8667564392089844,0.18439516425132751,-0.29819631576538086,0.47444552183151245,2.994802474975586
4,49406,49405,-0.009335861541330814,-0.06339052319526672,1.033673644065857,-0.6928268671035767,-2.7825961112976074,1.9611961841583252,1.597847580909729,3.869173049926758,0.18465517461299896,-0.4530201256275177,0.5231519341468811,3.0014331340789795
5,49416,49415,0.053615666925907135,-0.08688914030790329,1.049940586090088,-5.463826656341553,-1.8389981985092163,1.5631264448165894,1.5927609205245972,3.8751392364501953,0.18725621700286865,0.22696736454963684,0.31516680121421814,3.0707662105560303
6,49426,49425,-0.013346548192203045,0.043660689145326614,1.04719877243042,-8.704080581665039,1.2560492753982544,1.231783151626587,1.5936740636825562,3.8750815391540527,0.18956096470355988,0.18442438542842865,0.1989976316690445,3.07401180267334
7,49436,49435,0.01834815740585327,0.0013184003764763474,1.0025736093521118,-8.902435302734375,5.849705696105957,0.9704294800758362,1.5958257913589478,3.8773810863494873,0.19208605587482452,0.02493654564023018,0.050914689898490906,3.0665502548217773
8,49446,49445,-0.07018451392650604,0.015555989928543568,1.0531338453292847,-6.192502498626709,12.145096778869629,1.1001867055892944,1.595837950706482,3.877178430557251,0.1933450698852539,-0.1157473772764206,-0.005576064810156822,3.072939395904541
9,49456,49455,-0.019983619451522827,-0.03582245483994484,1.009722352027893,-4.270082473754883,14.952775955200195,0.8426452279090881,1.5968825817108154,3.8785247802734375,0.1955696940422058,-0.25815266370773315,-0.014030730351805687,3.084773063659668
10,49466,49465,0.007986827753484249,0.04175085574388504,0.9730707406997681,-1.5403146743774414,15.593890190124512,1.1769381761550903,1.5991674661636353,3.8781137466430664,0.19796346127986908,-0.5832825899124146,-0.002431366592645645,3.0870001316070557
11,49476,49475,0.05283272638916969,0.018072139471769333,0.9751695394515991,2.1427409648895264,11.103714942932129,1.2073650360107422,1.6009324789047241,3.879804849624634,0.19948847591876984,-0.804413378238678,-0.020324144512414932,3.094439744949341
12,49486,49485,-0.010810965672135353,-0.15824328362941742,1.036060094833374,1.5994529724121094,5.097020149230957,1.2130968570709229,1.6023101806640625,3.880625009536743,0.20162951946258545,-0.9344933032989502,0.011463056318461895,3.108004331588745
13,49496,49495,0.05897505208849907,-0.16133180260658264,0.9268473982810974,1.4676878452301025,-1.473590612411499,0.9888813495635986,1.6028106212615967,3.880361557006836,0.2037687599658966,-1.0096336603164673,0.028058458119630814,3.116024971008301
14,49506,49505,-0.020300690084695816,0.05266681686043739,1.0316134691238403,2.655322551727295,-7.937655448913574,0.6004202961921692,1.601148247718811,3.8803653717041016,0.2046692967414856,-0.8241835236549377,0.04893629252910614,3.130829095840454
15,49516,49515,-0.052124954760074615,-0.11303798854351044,0.9647053480148315,1.3211979866027832,-12.307174682617188,-0.1841791570186615,1.6035363674163818,3.880901336669922,0.20675066113471985,-0.8216568827629089,0.014494068920612335,3.122637987136841
16,49526,49525,-0.010437453165650368,-0.016472727060317993,0.9906729459762573,-0.49916592240333557,-13.02802562713623,-0.20987267792224884,1.6034148931503296,3.884321689605713,0.20884843170642853,-0.6298713684082031,-0.26994672417640686,3.0795576572418213
17,49536,49535,0.01975388638675213,-0.050902917981147766,0.9621948599815369,-0.2881033718585968,-11.399785995483398,-0.2090664952993393,1.6010440587997437,3.8849942684173584,0.2107444405555725,-0.21715986728668213,-0.3863809108734131,3.0666885375976562
18,49546,49545,-0.04365358501672745,0.0013252232456579804,1.024774193763733,1.4992878437042236,-6.205467700958252,0.03237943723797798,1.5987118482589722,3.884557008743286,0.20977771282196045,0.19014519453048706,-0.3193660378456116,3.077371835708618
19,49556,49555,0.017963120713829994,-0.03097725473344326,0.953025221824646,5.535240650177002,2.346658229827881,-0.533490777015686,1.5998570919036865,3.8853297233581543,0.21175625920295715,0.15055318176746368,-0.2990809977054596,3.0755443572998047
20,49566,49565,0.04975489154458046,-0.010474625043570995,0.9541268348693848,8.478654861450195,12.420272827148438,-0.4847677946090698,1.5999161005020142,3.8847250938415527,0.21396404504776,-0.022707931697368622,-0.1352955400943756,3.082212209701538
21,49576,49575,0.010837403126060963,0.02122357487678528,0.9946110844612122,9.76628303527832,18.58685874938965,-0.21712563931941986,1.601963996887207,3.8856444358825684,0.21466057002544403,-0.34239065647125244,0.05416363850235939,3.0912694931030273
22,49586,49585,0.0031725901644676924,-0.022931883111596107,0.9730336666107178,9.16179370880127,18.498464584350586,-1.008224606513977,1.6041313409805298,3.886075019836426,0.2164623886346817,-0.6354016065597534,0.1655472368001938,3.0896313190460205
23,49596,49595,0.05400104820728302,-0.1104687824845314,1.0002427101135254,5.094754695892334,17.035036087036133,-0.9205676913261414,1.6048177480697632,3.886178731918335,0.21824197471141815,-0.8179823160171509,0.1733817458152771,3.0730085372924805
24,49606,49605,0.0645628571510315,-0.16420768201351166,0.9795497059822083,2.2188546657562256,6.638576507568359,-0.8936196565628052,1.606317400932312,3.8874292373657227,0.21882924437522888,-1.0640391111373901,0.21058717370033264,3.066066026687622
25,49616,49615,0.03426871448755264,-0.016913192346692085,1.0019773244857788,0.7112330794334412,-2.518805503845215,-1.0137566328048706,1.6070687770843506,3.886669874191284,0.2205396294593811,-1.0656934976577759,0.27567461133003235,3.062429189682007
26,49626,49625,0.01039264164865017,0.050813574343919754,0.9750970005989075,-0.06516361236572266,-10.661688804626465,-0.9030370116233826,1.607616662979126,3.8869941234588623,0.2222084105014801,-0.9625045657157898,0.3188033401966095,3.057490587234497
27,49636,49635,-0.03618781268596649,-0.002977316966280341,1.0218781232833862,-2.2043840885162354,-14.912456512451172,-0.5548286437988281,1.6086552143096924,3.8871750831604004,0.22661086916923523,-0.8614881634712219,0.3377852439880371,3.0520055294036865
28,49646,49645,-0.01293735671788454,0.011727400124073029,0.9936435222625732,-1.7240887880325317,-16.181310653686523,-0.5645073652267456,1.6084177494049072,3.8868634700775146,0.22843338549137115,-0.6976139545440674,0.3115561902523041,3.0459790229797363
29,49656,49655,0.055660758167505264,-0.048206500709056854,0.9239063858985901,-2.0809128284454346,-13.840093612670898,-0.6813348531723022,1.6120072603225708,3.8855481147766113,0.23018398880958557,-0.8216637372970581,0.45086950063705444,3.056889533996582
30,49666,49665,-0.038035981357097626,0.06778686493635178,1.0676534175872803,-1.8610376119613647,-9.835663795471191,-0.7407866716384888,1.6116971969604492,3.885457754135132,0.23216864466667175,-0.586719274520874,0.4063677489757538,3.0494582653045654
31,49676,49675,0.026201525703072548,-0.06652318686246872,0.9076623916625977,-2.58084774017334,-7.058986663818359,-0.6205578446388245,1.611860990524292,3.885777711868286,0.2352997064590454,-0.49968647956848145,0.37129083275794983,3.0378482341766357
32,49686,49685,0.00047154806088656187,0.018872041255235672,1.016675353050232,-3.3686485290527344,-3.7118887901306152,0.19251413643360138,1.616581916809082,3.885775089263916,0.23705244064331055,-0.7615587115287781,0.39558136463165283,3.0320920944213867
33,49696,49695,0.051445163786411285,0.010020490735769272,0.9156140089035034,-3.681117296218872,-2.982924699783325,-0.10358797758817673,1.619396686553955,3.8872640132904053,0.23857153952121735,-0.9877471327781677,0.1823776662349701,2.996086597442627
34,49706,49705,0.06672694534063339,-0.11643867194652557,0.9733639359474182,-4.811466693878174,-3.3933537006378174,-0.11834483593702316,1.6202969551086426,3.8882052898406982,0.23779739439487457,-0.9345605373382568,0.13305149972438812,2.9949707984924316
35,49716,49715,0.02972458116710186,-0.08043860644102097,0.9860559105873108,-4.191783428192139,-11.292722702026367,-0.08927194774150848,1.620187520980835,3.8880128860473633,0.2396167814731598,-0.7449923753738403,0.06964582949876785,2.99601674079895
36,49726,49725,0.005697881802916527,0.010861339047551155,0.9615810513496399,-0.942308783531189,-17.50480842590332,-0.18458230793476105,1.6208268404006958,3.8872110843658447,0.24126143753528595,-0.5971805453300476,0.1015806570649147,3.0048365592956543
37,49736,49735,0.007130900397896767,-0.12446635216474533,0.9520338773727417,3.0283002853393555,-21.626401901245117,-0.25026071071624756,1.6218135356903076,3.886314630508423,0.23884481191635132,-0.347079336643219,0.1891016960144043,3.014586925506592
38,49746,49745,-0.028472503647208214,-0.016215292736887932,0.9918167591094971,4.511970520019531,-22.77207374572754,-0.8665278553962708,1.6245784759521484,3.8861849308013916,0.24002930521965027,-0.28550422191619873,0.2456732988357544,3.0061607360839844
39,49756,49755,0.04672280326485634,-0.042125917971134186,0.9449599385261536,2.285371780395508,-21.113815307617188,-0.5142896175384521,1.6253564357757568,3.8861148357391357,0.24126112461090088,-0.04148391634225845,0.302592396736145,3.0038657188415527
40,49766,49765,0.024652479216456413,-0.004810856655240059,0.9605544209480286,-0.023607300594449043,-21.169572830200195,-0.416621595621109,1.6254663467407227,3.886324405670166,0.24267525970935822,0.3840079605579376,0.31718313694000244,3.0036215782165527
41,49776,49775,-0.045670803636312485,0.026217015460133553,1.0391957759857178,-3.998774290084839,-12.947710990905762,-0.9467644691467285,1.6264015436172485,3.8857171535491943,0.24394291639328003,0.5166522860527039,0.3544500768184662,2.9983904361724854
42,49786,49785,-0.013462881557643414,-0.048289477825164795,0.941887617111206,-6.2314772605896,-6.0834784507751465,-0.6651178598403931,1.6248682737350464,3.88616681098938,0.2450832575559616,0.7538256049156189,0.25457945466041565,2.990355968475342
43,49796,49795,0.0001345373020740226,-0.037220217287540436,0.9596961140632629,-7.9105916023254395,-1.0951894521713257,-1.0379376411437988,1.6256104707717896,3.885974884033203,0.24620936810970306,0.7942060232162476,0.20062339305877686,2.982611656188965
44,49806,49805,-0.03573056310415268,-0.014518864452838898,0.9902880191802979,-9.079474449157715,4.112290382385254,-0.8293121457099915,1.6285765171051025,3.8857288360595703,0.2490548938512802,0.6049723029136658,0.11897154897451401,2.9667341709136963
45,49816,49815,-0.12312936782836914,0.08801072090864182,0.9882006049156189,-7.766517162322998,4.734419822692871,-0.9650468826293945,1.6274703741073608,3.8871512413024902,0.2502652406692505,0.6146787405014038,-0.02178044244647026,2.9551985263824463
46,49826,49825,0.022311558946967125,-0.028227848932147026,0.9509926438331604,-6.878243923187256,3.3653016090393066,-0.6547218561172485,1.6289209127426147,3.8870487213134766,0.25144416093826294,0.5898948311805725,-0.01233134139329195,2.946958541870117
47,49836,49835,-0.03018707036972046,0.017746370285749435,1.0190107822418213,-3.71331524848938,-0.5508698225021362,-0.7567377090454102,1.6297723054885864,3.8866446018218994,0.25311005115509033,0.606736421585083,-0.05330154672265053,2.939241409301758
48,49846,49845,0.03184966370463371,-0.04234069213271141,0.9631813764572144,-0.84637051820755,-4.310237407684326,-0.9124760627746582,1.6297773122787476,3.8860816955566406,0.25430580973625183,0.6797619462013245,-0.04342146962881088,2.930377721786499
49,49856,49855,-0.0021851302590221167,0.03920311480760574,1.0058119297027588,-0.0007984841358847916,-6.590744972229004,-0.8307256102561951,1.6325434446334839,3.885603666305542,0.25553619861602783,0.6236295104026794,-0.0756765827536583,2.919874906539917
50,49866,49865,0.037105850875377655,-0.0019006460206583142,0.984989583492279,0.8344595432281494,-7.671142578125,-0.4881957471370697,1.6318225860595703,3.8855652809143066,0.25674527883529663,0.7857475876808167,-0.09515979886054993,2.914691686630249
51,49876,49875,0.004951071459800005,0.003338432405143976,0.9895221590995789,1.6149013042449951,-8.419100761413574,-0.8584614396095276,1.6310758590698242,3.8857972621917725,0.2600861191749573,0.9573037624359131,-0.08361037075519562,2.909183979034424
52,49886,49885,0.009605614468455315,-0.018900590017437935,0.9771478772163391,0.08384913206100464,-5.5660223960876465,-0.707808256149292,1.632738471031189,3.8862361907958984,0.26139509677886963,0.9484216570854187,-0.09148593991994858,2.9025886058807373
53,49896,49895,0.05532534047961235,-0.03814131021499634,0.9449300169944763,-1.7431484460830688,-2.4056167602539062,-0.4969136714935303,1.6327768564224243,3.8871309757232666,0.2626822590827942,1.0573121309280396,-0.11814036220312119,2.897270917892456
54,49906,49905,0.06404173374176025,0.12739022076129913,0.9895299673080444,-3.577808380126953,5.101515293121338,-0.8472641110420227,1.6341315507888794,3.8885395526885986,0.26638415455818176,0.951749861240387,-0.17286600172519684,2.8960325717926025
55,49916,49915,0.02343755029141903,-0.0367029644548893,0.9382768273353577,-1.8812470436096191,4.380167007446289,-0.05750584602355957,1.6338458061218262,3.8886678218841553,0.2677503228187561,1.0549676418304443,-0.20374126732349396,2.8930039405822754
56,49926,49925,0.007430638186633587,0.03666004166007042,1.021377682685852,-1.839417576789856,6.184189319610596,-0.20696090161800385,1.6352497339248657,3.8897452354431152,0.2690277695655823,0.9816553592681885,-0.24040639400482178,2.893317222595215
57,49936,49935,-0.015490416437387466,-0.03960610181093216,0.9700793623924255,-0.8954018354415894,7.5821027755737305,0.43138429522514343,1.634509563446045,3.890096664428711,0.26839154958724976,1.0916882753372192,-0.27837619185447693,2.893984317779541
58,49946,49945,-0.003289249027147889,0.11474774032831192,0.9753586053848267,-1.3902742862701416,7.620103359222412,0.45756739377975464,1.635109543800354,3.8907458782196045,0.2695024609565735,1.0396183729171753,-0.29742950201034546,2.897952079772949
59,49956,49955,0.07078255712985992,-0.11279750615358353,0.8776507377624512,-0.2028847187757492,11.847058296203613,0.5668318867683411,1.6364989280700684,3.8904635906219482,0.27064037322998047,0.876818835735321,-0.23289044201374054,2.892862319946289
60,49966,49965,-0.04680151492357254,0.1913253664970398,1.0043065547943115,1.0576082468032837,17.56890106201172,-0.19705022871494293,1.6385972499847412,3.890723943710327,0.2732173204421997,0.5420660972595215,-0.24735166132450104,2.899197816848755
61,49976,49975,-0.011857201345264912,0.03399323672056198,0.9143268465995789,1.3309746980667114,18.701841354370117,0.03777965158224106,1.6417139768600464,3.8901474475860596,0.27424219250679016,0.26226338744163513,-0.24053072929382324,2.9022064208984375
62,49986,49985,0.14269210398197174,0.01739257015287876,0.9319754838943481,1.9168500900268555,21.4130859375,-0.06592276692390442,1.6411900520324707,3.890793561935425,0.27535104751586914,0.15451174974441528,-0.29937416315078735,2.909148931503296
63,49996,49995,0.1388632357120514,-0.0026591287460178137,0.9425778985023499,1.1951013803482056,20.96825408935547,0.19670282304286957,1.6450031995773315,3.892456531524658,0.27623251080513,-0.3546987473964691,-0.34130197763442993,2.9257068634033203
64,50006,50005,0.010800938121974468,0.14375223219394684,0.9657406210899353,1.836077094078064,15.990762710571289,-0.16237923502922058,1.6453537940979004,3.8919425010681152,0.2772218883037567,-0.48295775055885315,-0.24109245836734772,2.914210557937622
65,50016,50015,0.017686819657683372,-0.10863643884658813,0.9533021450042725,1.9200655221939087,10.608531951904297,-0.3443264663219452,1.6461399793624878,3.891789436340332,0.2790738642215729,-0.615355372428894,-0.20875386893749237,2.9094676971435547
66,50026,50025,-0.011406834237277508,-0.14177276194095612,0.986144483089447,2.698927402496338,3.8771843910217285,-0.8025640249252319,1.6506657600402832,3.8938426971435547,0.27851369976997375,-1.1285754442214966,-0.37417900562286377,2.931466817855835
67,50036,50035,0.03578266501426697,-0.022761402651667595,0.9526681900024414,4.6346869468688965,-3.178030014038086,-0.6551502346992493,1.6512022018432617,3.8927643299102783,0.27954235672950745,-0.9992045164108276,-0.22926005721092224,2.9152514934539795
68,50046,50045,0.03902866318821907,0.009883588179945946,0.9636877775192261,3.9365062713623047,-9.138750076293945,-0.7265622615814209,1.6504007577896118,3.8902220726013184,0.2806442379951477,-0.7672613859176636,0.07397748529911041,2.8986775875091553
69,50056,50055,-0.004935006611049175,0.03578006103634834,0.9988315105438232,2.9953773021698,-9.561541557312012,-1.0680559873580933,1.6506805419921875,3.894602060317993,0.2817826271057129,-0.5546889305114746,-0.3089728355407715,2.875991106033325
70,50066,50065,-0.05047446861863136,-0.017117170616984367,0.9490388631820679,3.0496537685394287,-9.524162292480469,-0.9444922208786011,1.6499123573303223,3.898386240005493,0.28294071555137634,-0.44818568229675293,-0.6982328295707703,2.8602778911590576
71,50076,50075,-0.018335076048970222,-0.003624888602644205,0.9943851232528687,6.611976146697998,-3.117525100708008,-1.246254563331604,1.6508756875991821,3.896348237991333,0.28415927290916443,-0.26878005266189575,-0.36073896288871765,2.8591196537017822
72,50086,50085,-0.025190148502588272,0.00701189273968339,1.0018208026885986,11.393512725830078,5.411839008331299,-1.2118935585021973,1.650810718536377,3.8938305377960205,0.28507375717163086,-0.18884532153606415,-0.07906835526227951,2.8541619777679443
73,50096,50095,-0.013370503671467304,-0.010404550470411777,0.9804070591926575,10.948943138122559,12.778402328491211,-1.4042643308639526,1.6553922891616821,3.893287420272827,0.2857922911643982,-0.603807806968689,0.1118256002664566,2.865894317626953
74,50106,50105,0.05054201930761337,-0.12895570695400238,0.923572838306427,7.23948335647583,15.82730484008789,-1.5499759912490845,1.654734492301941,3.8950204849243164,0.28638365864753723,-0.4462946355342865,0.09592609852552414,2.8332440853118896
75,50116,50115,-0.01487026084214449,-0.07065229117870331,1.0279558897018433,2.131659507751465,13.845778465270996,-1.3786197900772095,1.6559232473373413,3.892843008041382,0.2870377004146576,-0.6676617860794067,0.3861653208732605,2.835332155227661
76,50126,50125,-0.012144889682531357,-0.03407905995845795,0.9763854146003723,-3.1845223903656006,13.323380470275879,-2.100931406021118,1.6568909883499146,3.891691207885742,0.2876203954219818,-0.7884669899940491,0.5679373741149902,2.832159996032715
77,50136,50135,-0.024877656251192093,-0.04812978208065033,1.0116140842437744,-8.171785354614258,11.20441722869873,-2.257913589477539,1.657493233680725,3.8928604125976562,0.285288542509079,-0.895611047744751,0.42162269353866577,2.802969217300415
78,50146,50145,-0.042008038610219955,-0.05055928975343704,0.9982628226280212,-10.577774047851562,4.364497661590576,-2.5510141849517822,1.6563936471939087,3.8927974700927734,0.2858732044696808,-0.8896660804748535,0.3552127182483673,2.7818996906280518
79,50156,50155,-0.07715417444705963,0.1269766390323639,0.9876201152801514,-11.365833282470703,-0.5314630270004272,-2.3503775596618652,1.6584047079086304,3.892936944961548,0.2863585948944092,-0.9932109713554382,0.24577449262142181,2.757565975189209
80,50166,50165,0.01462599914520979,-0.006029302719980478,0.970952570438385,-9.206865310668945,-1.6525869369506836,-1.914421796798706,1.6576405763626099,3.892503261566162,0.28694939613342285,-0.8756842017173767,0.19438181817531586,2.7418975830078125
81,50176,50175,-0.054537251591682434,-0.08268864452838898,1.0253868103027344,-4.232794761657715,-2.5046820640563965,-1.6714636087417603,1.6583706140518188,3.892756223678589,0.28746384382247925,-0.821286141872406,0.028310418128967285,2.7145845890045166
82,50186,50185,0.04477226734161377,-0.12937752902507782,0.9147370457649231,-1.3022657632827759,0.930661141872406,-1.323801040649414,1.6591572761535645,3.8919661045074463,0.28798907995224,-0.7615390419960022,0.014085705392062664,2.701464891433716
83,50196,50195,-0.045417871326208115,0.013590196147561073,1.0332099199295044,1.6150034666061401,4.477173805236816,-1.8595250844955444,1.6595721244812012,3.892425775527954,0.2884541451931,-0.7579636573791504,-0.025449370965361595,2.683948040008545
84,50206,50205,-0.021946119144558907,-0.051236800849437714,0.963381826877594,2.307727813720703,7.257531642913818,-1.9586645364761353,1.6608397960662842,3.8921425342559814,0.28869956731796265,-0.9609937071800232,0.05505600571632385,2.6736321449279785
85,50216,50215,0.007945260033011436,-0.0027643716894090176,0.9794883131980896,0.587784469127655,10.045104026794434,-1.7835755348205566,1.6602270603179932,3.8934884071350098,0.28927499055862427,-0.9028938412666321,-0.07309914380311966,2.6365437507629395
86,50226,50225,-0.0181149672716856,0.021109813824295998,1.0182567834854126,-0.7794748544692993,10.447722434997559,-1.808426856994629,1.6629918813705444,3.8943870067596436,0.28964999318122864,-1.104830026626587,-0.1329147070646286,2.607104778289795
87,50236,50235,-0.0037506285589188337,0.036981482058763504,1.0200186967849731,-2.700319766998291,7.575356483459473,-1.743901252746582,1.6642229557037354,3.8936474323272705,0.29212459921836853,-1.2256964445114136,-0.073490671813488,2.5978262424468994
88,50246,50245,-0.018380744382739067,-0.055927012115716934,0.9985877871513367,-0.43407461047172546,2.495340585708618,-2.05351185798645,1.66455078125,3.8933932781219482,0.29274728894233704,-1.2388888597488403,-0.04326936975121498,2.5881295204162598
89,50256,50255,-0.040077608078718185,-0.093663290143013,0.9978328347206116,-1.3625741004943848,-0.0921272337436676,-2.068519115447998,1.6639665365219116,3.8938968181610107,0.2934081256389618,-1.1814000606536865,-0.06040562316775322,2.567065954208374
90,50266,50265,-0.040741391479969025,0.0059514353051781654,0.9896239638328552,0.5290760397911072,-4.563618183135986,-2.631533622741699,1.6663854122161865,3.8940212726593018,0.29286399483680725,-1.3727754354476929,-0.08236583322286606,2.5447304248809814
91,50276,50275,-0.013147471472620964,-0.005712119862437248,1.0039520263671875,-1.4895802736282349,-2.7782177925109863,-2.4741709232330322,1.6664985418319702,3.894016981124878,0.2934204638004303,-1.2691044807434082,-0.0872437059879303,2.5154030323028564
92,50286,50285,0.042617183178663254,-0.05416819453239441,0.9412410855293274,-0.10406988114118576,-6.086954593658447,-2.2631540298461914,1.6667001247406006,3.893002986907959,0.2940022349357605,-1.1772812604904175,-0.04086107015609741,2.502701759338379
93,50296,50295,-0.058272585272789,0.09496361017227173,1.0262545347213745,-1.3544920682907104,-4.9833292961120605,-2.1648504734039307,1.666993260383606,3.893860101699829,0.2945370674133301,-1.047511100769043,-0.0592401884496212,2.478419780731201
94,50306,50305,-0.0026043534744530916,-0.08245807141065598,0.9569785594940186,-1.5146970748901367,-1.7583478689193726,-1.96021568775177,1.6668068170547485,3.8936362266540527,0.29412516951560974,-0.925250768661499,-0.0859876349568367,2.4529731273651123
95,50316,50315,0.04627365246415138,-0.1091381385922432,0.9561646580696106,-2.7661824226379395,3.5927846431732178,-1.923475980758667,1.6681586503982544,3.8939616680145264,0.29453739523887634,-0.9219189286231995,-0.11404406279325485,2.4302752017974854
96,50326,50325,0.06434495002031326,-0.10067406296730042,0.9722795486450195,-2.6529581546783447,6.614264965057373,-2.300227165222168,1.6675400733947754,3.88028883934021,0.2950352728366852,-0.7191876173019409,1.2070534229278564,2.62683367729187
97,50336,50335,0.03507663309574127,-0.007964000105857849,0.9750899076461792,-6.245726108551025,8.989584922790527,-3.2072949409484863,1.668270468711853,3.8806004524230957,0.30078959465026855,-0.7603127360343933,1.0017181634902954,2.579923629760742
98,50346,50345,-0.016740182414650917,-0.007302651181817055,1.0108407735824585,-16.733009338378906,11.497943878173828,-3.5248680114746094,1.6690486669540405,3.8810667991638184,0.30200424790382385,-0.9045200943946838,0.7548581957817078,2.5187721252441406
99,50356,50355,0.01568293385207653,-0.03936973586678505,0.9559924006462097,-27.88174057006836,12.358627319335938,-3.7986602783203125,1.670439600944519,3.8809545040130615,0.3029651939868927,-1.0803391933441162,0.5172981023788452,2.471768379211426
100,50366,50365,0.04315020516514778,-0.05551236867904663,0.9534858465194702,-34.08864974975586,12.435696601867676,-3.304032325744629,1.6712020635604858,3.880448341369629,0.3044986128807068,-1.1940007209777832,0.2499019056558609,2.4330666065216064
101,50376,50375,0.02833605371415615,0.06739751249551773,0.9565786719322205,-36.123207092285156,9.818431854248047,-2.710409164428711,1.6713067293167114,3.88128662109375,0.3054337799549103,-1.2981575727462769,-0.274635374546051,2.3708250522613525
102,50386,50385,0.001388123957440257,0.02831795997917652,0.979751467704773,-30.508167266845703,5.321020603179932,-2.2224090099334717,1.6726313829421997,3.882526397705078,0.30619513988494873,-1.502250075340271,-0.8730792999267578,2.297447443008423
103,50396,50395,0.010539338923990726,0.0010386761277914047,0.9985517263412476,-21.862993240356445,1.7494103908538818,-1.546698808670044,1.6727814674377441,3.8794145584106445,0.3073907196521759,-1.4830642938613892,-0.9212684631347656,2.3223342895507812
104,50406,50405,0.0003783979918807745,-0.0039041812997311354,1.0013412237167358,-10.536459922790527,-1.8793972730636597,-1.6247204542160034,1.674971580505371,3.879693031311035,0.30811581015586853,-1.5511378049850464,-1.2879301309585571,2.2805817127227783
105,50416,50415,-0.016561733558773994,-0.008543903939425945,0.9748547077178955,0.5436418056488037,-4.46125602722168,-1.5833673477172852,1.6761507987976074,3.8791942596435547,0.30873823165893555,-1.6252795457839966,-1.4474849700927734,2.2594194412231445
106,50426,50425,0.021461237221956253,-0.02039012685418129,0.9629939794540405,7.176968097686768,-5.328272819519043,-1.832945704460144,1.6765923500061035,3.878861427307129,0.3094041645526886,-1.5733165740966797,-1.512658953666687,2.234447479248047
107,50436,50435,-0.01281800027936697,0.016663197427988052,1.0043973922729492,11.439652442932129,-6.322500705718994,-1.8193485736846924,1.677025318145752,3.8792243003845215,0.31019312143325806,-1.5030910968780518,-1.5273852348327637,2.203280210494995
108,50446,50445,-0.005715822335332632,0.0011830164585262537,0.9669731259346008,11.75073528289795,-4.175702095031738,-1.9829609394073486,1.6776361465454102,3.8786213397979736,0.31086382269859314,-1.4313328266143799,-1.3901827335357666,2.191312074661255
109,50456,50455,0.018003089353442192,-0.042236585170030594,0.9487076997756958,8.832310676574707,2.4322779178619385,-1.9520905017852783,1.6786047220230103,3.87961483001709,0.311491996049881,-1.3738160133361816,-1.3962721824645996,2.1499454975128174
110,50466,50465,-0.0022050959523767233,-0.05580476298928261,0.9622162580490112,5.732265949249268,-1.949414610862732,-1.9691202640533447,1.6799112558364868,3.880037784576416,0.30949169397354126,-1.3746029138565063,-1.2747591733932495,2.135974168777466
111,50476,50475,-0.060526639223098755,0.11145507544279099,0.977326512336731,1.577544927597046,-4.006083965301514,-2.0326056480407715,1.6821266412734985,3.8805439472198486,0.30987784266471863,-1.356939435005188,-1.2875678539276123,2.1037817001342773
112,50486,50485,0.009299512952566147,-0.04046854004263878,0.9654906392097473,-2.51119065284729,0.030216073617339134,-1.3000032901763916,1.681892991065979,3.880336046218872,0.31025874614715576,-1.2464394569396973,-1.2914360761642456,2.069887161254883
113,50496,50495,0.05226850137114525,-0.11565417051315308,0.8877630233764648,-2.645052671432495,0.8510631918907166,-1.335983157157898,1.6850180625915527,3.8803884983062744,0.311271607875824,-1.4155131578445435,-1.3434520959854126,2.071559190750122
114,50506,50505,0.02320678159594536,-0.04480458050966263,0.9494017362594604,-2.1022746562957764,0.1806160807609558,-1.4467865228652954,1.6853969097137451,3.88026762008667,0.3116104304790497,-1.3494402170181274,-1.4004827737808228,2.0425939559936523
115,50516,50515,-0.046265579760074615,0.059518348425626755,1.054470181465149,2.5963246822357178,-1.7427464723587036,-1.441453456878662,1.6883550882339478,3.880448818206787,0.31163260340690613,-1.5844846963882446,-1.43294095993042,2.0597026348114014
116,50526,50525,0.017393367365002632,-0.002791445469483733,0.962590754032135,8.170323371887207,-5.3221964836120605,-1.5642503499984741,1.6893928050994873,3.881772041320801,0.31185421347618103,-1.5299311876296997,-1.558223009109497,2.011458158493042
117,50536,50535,0.004614966455847025,-0.024772465229034424,0.9774419665336609,11.366558074951172,-7.680875301361084,-0.7559314966201782,1.6893335580825806,3.8812196254730225,0.31185582280158997,-1.3455548286437988,-1.4202786684036255,1.9884638786315918
118,50546,50545,-0.027680110186338425,-0.013648000545799732,0.9888405799865723,15.350550651550293,-10.866848945617676,-0.15724852681159973,1.6926262378692627,3.8805723190307617,0.3119426965713501,-1.4341578483581543,-1.2167896032333374,2.025940179824829
119,50556,50555,-0.02488497830927372,-0.03572120890021324,0.9643245935440063,16.055835723876953,-12.937154769897461,-0.95368891954422,1.6930761337280273,3.8816938400268555,0.31212013959884644,-1.3015302419662476,-1.1892235279083252,1.997594952583313
120,50566,50565,0.032129645347595215,0.001244168495759368,0.9647839665412903,13.196195602416992,-12.782854080200195,-1.100450873374939,1.693947672843933,3.882251739501953,0.3121315836906433,-1.1389166116714478,-1.0644264221191406,1.9788862466812134
121,50576,50575,-0.022491812705993652,0.013657225295901299,1.0145074129104614,9.672053337097168,-10.853816986083984,-0.6538302302360535,1.6961610317230225,3.882859230041504,0.3121926486492157,-1.0588306188583374,-0.9839668273925781,1.9697983264923096
122,50586,50585,0.008363227359950542,-0.023534514009952545,0.9579220414161682,5.029007434844971,-10.00861644744873,-0.8605127930641174,1.69758939743042,3.8846328258514404,0.3121621012687683,-0.9918992519378662,-1.028513789176941,1.950262188911438
123,50596,50595,0.004652790725231171,-0.016111867502331734,0.9812433123588562,4.226974964141846,-9.73471450805664,-1.3840044736862183,1.698496699333191,3.8851821422576904,0.3100651502609253,-0.8451244235038757,-0.9616385102272034,1.9367685317993164
124,50606,50605,-0.026216229423880577,-0.028955435380339622,0.9914999604225159,4.998099327087402,-9.137393951416016,-1.6378389596939087,1.6999262571334839,3.884469509124756,0.310030996799469,-0.7236979603767395,-0.8381587862968445,1.9403785467147827
125,50616,50615,-0.07314664870500565,0.0833287164568901,1.009093999862671,6.115267753601074,-4.287396430969238,-2.6532225608825684,1.7002137899398804,3.8858492374420166,0.3098812997341156,-0.6196919679641724,-0.7813911437988281,1.9241448640823364
126,50626,50625,-0.044743988662958145,0.028889890760183334,0.960482120513916,11.68664264678955,-8.422403335571289,-1.3539624214172363,1.7019340991973877,3.8882620334625244,0.3128008246421814,-0.6379560828208923,-0.8267205357551575,1.8941428661346436
127,50636,50635,-0.022182626649737358,-0.00840885378420353,1.0176007747650146,12.802491188049316,-4.061557292938232,-1.238498330116272,1.7023531198501587,3.887885093688965,0.31305381655693054,-0.43591493368148804,-0.5891399383544922,1.8726874589920044
128,50646,50645,-0.0234232060611248,0.04801437258720398,0.9973788261413574,13.10035228729248,-5.444169521331787,-1.0130677223205566,1.7050038576126099,3.8875746726989746,0.313079833984375,-0.48473963141441345,-0.49244555830955505,1.8616091012954712
129,50656,50655,-0.0015537398867309093,-0.027289563789963722,1.0087831020355225,13.216272354125977,-3.9438042640686035,-1.099888563156128,1.7069997787475586,3.8882763385772705,0.313100129365921,-0.5124010443687439,-0.3716048002243042,1.859609842300415
130,50666,50665,0.0029752154368907213,0.03561641275882721,1.0280356407165527,10.24092960357666,-4.28831148147583,-1.2461731433868408,1.7074733972549438,3.888404130935669,0.31322070956230164,-0.3937336802482605,-0.18777337670326233,1.8434638977050781
131,50676,50675,-0.043114982545375824,0.03892206773161888,1.005707025527954,10.653887748718262,-6.90474796295166,-1.7697488069534302,1.71076238155365,3.889019727706909,0.31329771876335144,-0.40715837478637695,-0.11264494061470032,1.834140658378601
132,50686,50685,-0.02464127354323864,0.02717689611017704,0.9976780414581299,9.658979415893555,-5.926164150238037,-2.7681198120117188,1.7113498449325562,3.890760898590088,0.31348660588264465,-0.23806942999362946,-0.11456800997257233,1.80117666721344
133,50696,50695,-0.11142054200172424,0.12042035162448883,0.9897032976150513,7.570388317108154,-5.206236362457275,-2.9014463424682617,1.714011549949646,3.889981746673584,0.31267493963241577,-0.24008935689926147,0.10311951488256454,1.7794456481933594
134,50706,50705,-0.00952653307467699,0.01751633733510971,0.9345292448997498,5.524214744567871,-4.004952430725098,-3.0963215827941895,1.7147657871246338,3.890679359436035,0.3127358853816986,-0.1701052039861679,0.11759676039218903,1.7414464950561523
135,50716,50715,-0.04733314365148544,0.09091238677501678,1.0081900358200073,5.928795337677002,-1.599808692932129,-3.238074541091919,1.7166640758514404,3.891525983810425,0.31272754073143005,-0.14002156257629395,0.1897461861371994,1.7174623012542725
136,50726,50725,-0.009004459716379642,-0.0071172211319208145,0.953092098236084,6.689911365509033,-0.5773422718048096,-3.6736743450164795,1.7183656692504883,3.891993284225464,0.31076574325561523,-0.12218935787677765,0.2697661817073822,1.6835600137710571
137,50736,50735,-0.07478119432926178,-0.007533822674304247,1.0370213985443115,8.93084716796875,-1.1703273057937622,-3.6743357181549072,1.7205668687820435,3.892432928085327,0.31054800748825073,-0.16792598366737366,0.36837896704673767,1.6500836610794067
138,50746,50745,0.02401619590818882,-0.01923266239464283,0.9891824722290039,8.544285774230957,-1.1401071548461914,-3.668246030807495,1.7224737405776978,3.8924336433410645,0.3105098009109497,-0.08422907441854477,0.48666930198669434,1.6131609678268433
139,50756,50755,0.09769408404827118,-0.07619750499725342,0.9689162969589233,8.302899360656738,-2.5304510593414307,-3.841620445251465,1.7240610122680664,3.8923158645629883,0.3103320598602295,-0.11353226751089096,0.5862916111946106,1.568238377571106
140,50766,50765,-0.0496695451438427,-0.06422441452741623,1.0320745706558228,6.322804927825928,-6.063665866851807,-4.191154479980469,1.7244893312454224,3.8922863006591797,0.3130124509334564,0.06437332183122635,0.6835929751396179,1.530961275100708
141,50776,50775,-0.0599968247115612,0.09683574736118317,1.0065357685089111,3.8692686557769775,-6.711092948913574,-3.8468871116638184,1.7273257970809937,3.8933825492858887,0.3130236864089966,0.04789843410253525,0.657066822052002,1.4899193048477173
142,50786,50785,-0.03007049858570099,-0.08194408565759659,1.0144699811935425,1.7021465301513672,-6.299355983734131,-3.321859359741211,1.7281396389007568,3.8940672874450684,0.3130967915058136,0.1400483101606369,0.6946559548377991,1.4518635272979736
143,50796,50795,0.01744730770587921,-0.02187117375433445,0.9861019253730774,1.8732703924179077,-6.043264865875244,-3.9399049282073975,1.7307770252227783,3.8943848609924316,0.31298208236694336,0.06356436759233475,0.6998082995414734,1.402159333229065
144,50806,50805,-0.03888324275612831,-0.06698638200759888,1.0111204385757446,4.488374710083008,-8.472206115722656,-3.920456886291504,1.731488823890686,3.8943982124328613,0.3131224811077118,0.21906955540180206,0.7796854376792908,1.3665072917938232
145,50816,50815,0.002502848394215107,-0.10581489652395248,0.9861825108528137,2.951831340789795,-2.45926570892334,-3.4837656021118164,1.7310874462127686,3.8946266174316406,0.3132838010787964,0.4596952795982361,0.8119296431541443,1.3355872631072998
146,50826,50825,-0.08390139788389206,-0.046348687261343,0.9801720380783081,2.306015729904175,-1.7684909105300903,-3.4813177585601807,1.7336076498031616,3.8961591720581055,0.31417733430862427,0.35480713844299316,0.7434525489807129,1.301335334777832
147,50836,50835,-0.08688781410455704,-0.00632628146559,0.9813417196273804,0.616234540939331,3.946956157684326,-2.6037416458129883,1.7337253093719482,3.896066188812256,0.31433653831481934,0.4631976783275604,0.8240130543708801,1.272414207458496
148,50846,50845,0.002355855656787753,-0.06538078188896179,0.970632791519165,2.8056702613830566,4.278327941894531,-2.2373244762420654,1.736198902130127,3.8957161903381348,0.31437209248542786,0.3560856878757477,0.8804579377174377,1.2242393493652344
149,50856,50855,0.0030145985074341297,0.03574061021208763,1.0129157304763794,4.175870418548584,4.887227535247803,-2.3549108505249023,1.7385708093643188,3.8963608741760254,0.31436797976493835,0.21197214722633362,0.9617631435394287,1.1954256296157837
150,50866,50865,-0.04045102745294571,-0.02350761741399765,0.9673219919204712,1.0125235319137573,2.366079807281494,-2.943749189376831,1.7397736310958862,3.896259307861328,0.3128497302532196,0.1912863403558731,1.049096703529358,1.175591230392456
151,50876,50875,0.0006836787797510624,0.047539085149765015,1.0140351057052612,2.667222499847412,5.625399589538574,-3.7558460235595703,1.7400671243667603,3.896026611328125,0.31288331747055054,0.2850348949432373,1.0985970497131348,1.149757981300354
152,50886,50885,0.019734105095267296,-0.018983444198966026,0.926182746887207,1.2814475297927856,1.3501474857330322,-2.534891366958618,1.7413907051086426,3.8960139751434326,0.3127623200416565,0.18989290297031403,1.166756272315979,1.1038978099822998
153,50896,50895,-0.04839615151286125,0.009112875908613205,1.0264464616775513,0.07561834156513214,-0.8852688670158386,-2.4275214672088623,1.742682933807373,3.8964593410491943,0.3135372996330261,0.30265599489212036,1.114512324333191,1.0929754972457886
154,50906,50905,0.03516990318894386,-0.024877239018678665,0.9993510246276855,-0.9148578643798828,-4.324323654174805,-3.0467262268066406,1.7447017431259155,3.89731764793396,0.31339728832244873,0.162003293633461,1.0440577268600464,1.0423654317855835
155,50916,50915,-0.06923475861549377,-0.08471357077360153,1.0208513736724854,-1.9057713747024536,-6.224722862243652,-3.302677869796753,1.7451961040496826,3.8980867862701416,0.3133038282394409,0.1827380508184433,1.0417546033859253,1.0409241914749146
156,50926,50925,0.0001946154807228595,-0.012385930866003036,0.9738057255744934,-3.8237662315368652,-6.48244047164917,-3.177948236465454,1.7464710474014282,3.8980865478515625,0.31350016593933105,0.24907727539539337,1.019025444984436,1.0008070468902588
157,50936,50935,-0.038545913994312286,-0.027837567031383514,1.0216739177703857,-4.3343634605407715,-6.3371052742004395,-2.9573330879211426,1.7479979991912842,3.8985302448272705,0.31345805525779724,0.31624677777290344,0.9665310382843018,0.9726750254631042
158,50946,50945,0.059039123356342316,-0.18634310364723206,0.9797254204750061,-5.24066162109375,-5.131824970245361,-2.532407760620117,1.7483302354812622,3.8992905616760254,0.31357958912849426,0.5388534665107727,0.9055570960044861,0.9772587418556213
159,50956,50955,0.009892730973660946,-0.047815293073654175,1.0351663827896118,-5.891665458679199,2.0914816856384277,-3.6373939514160156,1.7503674030303955,3.8997695446014404,0.3156470060348511,0.4355054497718811,0.8201460242271423,0.9301009774208069
160,50966,50965,0.014598894864320755,-0.018251582980155945,0.9642754793167114,-3.708357572555542,4.936966896057129,-4.199322700500488,1.7507684230804443,3.899242639541626,0.3158126771450043,0.5039845108985901,0.8273801207542419,0.8987542390823364
161,50976,50975,-0.0008655223064124584,-0.047866951674222946,0.9782820343971252,-3.2618234157562256,5.133459091186523,-4.317686557769775,1.7513731718063354,3.89904522895813,0.31592512130737305,0.48495540022850037,0.7721441388130188,0.8540728688240051
162,50986,50985,0.017952559515833855,-0.020132986828684807,0.9873350262641907,-2.5731568336486816,0.9844895005226135,-4.41802453994751,1.7525125741958618,3.89920711517334,0.315987229347229,0.4309080243110657,0.7319320440292358,0.8115581274032593
163,50996,50995,0.027147652581334114,0.008210224099457264,0.9854717254638672,-3.26218318939209,-2.944303035736084,-3.6509523391723633,1.7523678541183472,3.8982865810394287,0.317383736371994,0.4517541825771332,0.8541921973228455,0.7694066762924194
164,51006,51005,-0.03598078712821007,-0.042224738746881485,0.9953234791755676,-5.324706554412842,-7.347610950469971,-2.9655911922454834,1.7534096240997314,3.8977863788604736,0.3174769878387451,0.45975878834724426,0.8667399883270264,0.7221144437789917
165,51016,51015,-0.002713324734941125,-0.0034379386343061924,0.9894299507141113,-7.052004337310791,-7.753443717956543,-1.4070683717727661,1.753596544265747,3.897861957550049,0.3177335858345032,0.6865254640579224,0.7504814863204956,0.712517261505127
166,51026,51025,-0.030022714287042618,0.15401265025138855,1.0018151998519897,-7.214987277984619,-6.41696310043335,-0.04291711002588272,1.7554073333740234,3.897235631942749,0.3150832951068878,0.6574609875679016,0.698222815990448,0.6987241506576538
167,51036,51035,-0.049128208309412,0.2697818875312805,1.0385205745697021,-6.042858123779297,-3.493744134902954,0.9939570426940918,1.755799651145935,3.899388551712036,0.31500521302223206,0.6898626089096069,0.5670996308326721,0.7146134376525879
168,51046,51045,0.012552113272249699,0.013271002098917961,0.9435437321662903,-4.82485294342041,-3.1560959815979004,1.588897943496704,1.7558588981628418,3.8995745182037354,0.31501656770706177,0.8436121344566345,0.4637165665626526,0.7402828335762024
169,51056,51055,0.004731015767902136,-0.03617105260491371,1.0024631023406982,-2.9037036895751953,-3.2866103649139404,2.605832815170288,1.7569957971572876,3.89829158782959,0.3146331012248993,0.8206052184104919,0.5418779253959656,0.7300251126289368
170,51066,51065,-0.03542381897568703,0.06061633676290512,1.0637657642364502,1.1830450296401978,-1.7716041803359985,3.2298901081085205,1.7592869997024536,3.898531198501587,0.31456467509269714,0.8082989454269409,0.49701058864593506,0.7558306455612183
171,51076,51075,0.016812533140182495,-0.0743786171078682,0.9374507069587708,2.476653575897217,-0.016615180298686028,3.2409801483154297,1.7591466903686523,3.898078680038452,0.3145342171192169,0.9340524077415466,0.5066654086112976,0.7907755374908447
172,51086,51085,0.0008085991721600294,0.024088412523269653,1.0382592678070068,-0.07215704768896103,2.9616076946258545,3.999427080154419,1.7600057125091553,3.8972091674804688,0.3144758641719818,0.9232233762741089,0.5976549386978149,0.8109161257743835
173,51096,51095,-0.11440292000770569,-0.02204018458724022,1.0163837671279907,-1.3156682252883911,9.16494083404541,5.9389238357543945,1.7612055540084839,3.896970272064209,0.3160055875778198,0.9567107558250427,0.5774732232093811,0.8536791801452637
174,51106,51105,-0.049305908381938934,0.024514343589544296,1.0199295282363892,-1.4028425216674805,15.622200012207031,7.024734973907471,1.7619787454605103,3.897021770477295,0.3160604238510132,0.8411423563957214,0.5311713814735413,0.9140761494636536
175,51116,51115,0.060234684497117996,0.0032792678102850914,0.9346301555633545,-3.296813488006592,21.55759048461914,8.384147644042969,1.7633421421051025,3.8961338996887207,0.3160940110683441,0.6288546323776245,0.5605349540710449,0.963432788848877
176,51126,51125,-0.04132494702935219,0.10687143355607986,1.0535547733306885,-2.350599765777588,21.37403106689453,9.250506401062012,1.7632256746292114,3.8953583240509033,0.31577566266059875,0.5053027272224426,0.5636417865753174,1.043256163597107
177,51136,51135,0.05618681386113167,-0.010064159519970417,0.9610939621925354,-2.7435429096221924,18.43305206298828,9.727734565734863,1.764978051185608,3.8958961963653564,0.3157632052898407,0.21105049550533295,0.48779964447021484,1.1473444700241089
178,51146,51145,-0.04296498000621796,0.014457786455750465,1.0283303260803223,-3.065798759460449,10.215593338012695,9.971083641052246,1.764843225479126,3.895009994506836,0.31586122512817383,0.13653282821178436,0.49033936858177185,1.2369575500488281
179,51156,51155,0.03515562415122986,-0.04869488999247551,0.9803787469863892,-3.0853121280670166,5.6297478675842285,9.578655242919922,1.7654320001602173,3.8954548835754395,0.31560370326042175,0.034965354949235916,0.40135088562965393,1.3509564399719238
180,51166,51165,-0.0030147344805300236,0.013777397572994232,0.9927664995193481,-3.268134593963623,0.3005523085594177,10.512789726257324,1.7665908336639404,3.8951468467712402,0.3156339228153229,0.010480509139597416,0.40177175402641296,1.456607699394226
181,51176,51175,-0.06352592259645462,0.17846758663654327,0.9558130502700806,-3.1658473014831543,-2.0339126586914062,11.329936981201172,1.766492486000061,3.8954806327819824,0.31573235988616943,0.0912632942199707,0.3317737281322479,1.5580241680145264
182,51186,51185,-0.14923149347305298,0.2830030918121338,1.0445157289505005,-3.5503406524658203,-0.6739572882652283,13.394023895263672,1.7681244611740112,3.895606517791748,0.3157102167606354,0.08417872339487076,0.24341163039207458,1.6784974336624146
183,51196,51195,-0.02400076761841774,0.056274205446243286,1.0097999572753906,-0.9788073897361755,2.250136137008667,14.002191543579102,1.768372654914856,3.894462823867798,0.3144353926181793,0.11540114879608154,0.25249624252319336,1.799792766571045
184,51206,51205,-0.12249542027711868,0.08685708791017532,1.0011869668960571,-2.5383567810058594,2.5210471153259277,14.1468505859375,1.7695457935333252,3.895481586456299,0.31436866521835327,0.04163142293691635,0.20654501020908356,1.9532077312469482
185,51216,51215,-0.0407395139336586,0.05137638747692108,0.9811359643936157,-7.033448696136475,5.703368186950684,14.203741073608398,1.77154541015625,3.8949337005615234,0.31433722376823425,0.0224226675927639,0.19265307486057281,2.08845853805542
186,51226,51225,-0.10147497802972794,0.09448418766260147,1.0365064144134521,-11.085284233093262,4.49746036529541,13.470102310180664,1.7718368768692017,3.8939738273620605,0.3107890188694,-0.0029079404193907976,0.1964435875415802,2.2237019538879395
187,51236,51235,0.003462370252236724,-0.02715824916958809,0.942585289478302,-21.235551834106445,5.190819263458252,12.081344604492188,1.7726287841796875,3.893113613128662,0.31048086285591125,-0.06134793534874916,0.14449532330036163,2.363008737564087
188,51246,51245,-0.04468729719519615,0.008481582626700401,1.0229021310806274,-27.93565559387207,6.860530376434326,10.050454139709473,1.7736862897872925,3.894280195236206,0.3101944029331207,-0.18551824986934662,-0.23500753939151764,2.5013134479522705
189,51256,51255,-0.0075795711018145084,-0.03735583275556564,0.973426103591919,-29.45813751220703,-1.0035274028778076,9.187797546386719,1.7736717462539673,3.893115758895874,0.3112187087535858,-0.194760262966156,-0.4279710054397583,2.595335006713867
190,51266,51265,-0.017827559262514114,0.06968539953231812,1.0714912414550781,-26.79520034790039,-7.5167436599731445,8.926830291748047,1.7742359638214111,3.894073963165283,0.3110693097114563,-0.08924457430839539,-0.8742407560348511,2.689594268798828
191,51276,51275,0.00396012281998992,-0.005943371914327145,0.9959328174591064,-18.71517562866211,-10.955345153808594,8.549049377441406,1.7746708393096924,3.8913803100585938,0.3110879063606262,0.0312688834965229,-0.8400029540061951,2.76350736618042
192,51286,51285,-0.03691907599568367,-0.04775439575314522,1.0002899169921875,-8.004515647888184,-9.009336471557617,8.283617973327637,1.7740817070007324,3.891390085220337,0.30993473529815674,0.25660842657089233,-1.0661245584487915,2.8629512786865234
193,51296,51295,-0.060157716274261475,0.1858525425195694,1.0538303852081299,-0.05902685597538948,-3.1685187816619873,6.930783748626709,1.7750855684280396,3.8916819095611572,0.3097195327281952,0.25327029824256897,-1.2017451524734497,2.941018581390381
194,51306,51305,-0.05884433537721634,0.10477795451879501,1.0355634689331055,9.002803802490234,3.893866777420044,5.593019485473633,1.775907278060913,3.8916404247283936,0.3095231056213379,0.22851522266864777,-1.1970751285552979,3.006169319152832
195,51316,51315,-0.06261768937110901,0.1123417466878891,1.0644010305404663,13.628658294677734,13.172000885009766,5.05409049987793,1.776931643486023,3.8917465209960938,0.3094141185283661,0.16351917386054993,-1.1147314310073853,3.0597493648529053
196,51326,51325,-0.05160576477646828,0.03305459022521973,1.0235470533370972,14.249967575073242,20.98495101928711,5.727472305297852,1.7785111665725708,3.8912856578826904,0.3123369514942169,-0.07433807849884033,-0.9067915678024292,3.1216118335723877
197,51336,51335,-0.010033158585429192,-0.034555479884147644,1.0087871551513672,8.416807174682617,22.269102096557617,6.70318603515625,1.7782602310180664,3.891507148742676,0.3125104606151581,-0.2696593701839447,-0.7792084217071533,3.193836212158203
198,51346,51345,0.11862525343894958,-0.1083463728427887,0.9916079640388489,-6.020571231842041,10.797667503356934,6.178491592407227,1.7784372568130493,3.891981601715088,0.31269219517707825,-0.431467741727829,-0.838775098323822,3.2461843490600586
199,51356,51355,0.013529285788536072,-0.014226878993213177,1.025168776512146,-18.028305053710938,-1.875968337059021,5.127561092376709,1.7788208723068237,3.8931851387023926,0.31188490986824036,-0.5037868022918701,-1.034906268119812,3.3161754608154297
200,51366,51365,-0.0559573769569397,0.04727664962410927,0.9987052083015442,-22.867403030395508,-12.066162109375,3.091590166091919,1.7793385982513428,3.8934743404388428,0.31196945905685425,-0.4550352990627289,-1.3066328763961792,3.345353364944458
201,51376,51375,-0.015202587470412254,0.03721487149596214,0.9986142516136169,-21.46210289001465,-18.13595962524414,3.35481858253479,1.7778401374816895,3.893096685409546,0.3122830390930176,-0.16970959305763245,-1.46226167678833,3.3778772354125977
202,51386,51385,-0.023718686774373055,0.047617461532354355,1.0565975904464722,-11.11038875579834,-16.855566024780273,2.445322275161743,1.7778264284133911,3.893435478210449,0.31294941902160645,0.08921503275632858,-1.6862382888793945,3.4029343128204346
203,51396,51395,-0.045822110027074814,0.018490692600607872,1.041326642036438,3.1636593341827393,-9.729081153869629,2.365999698638916,1.7793028354644775,3.892019748687744,0.31324002146720886,0.12584632635116577,-1.6167994737625122,3.4386656284332275
204,51406,51405,-0.03640389069914818,-0.016339877620339394,1.017375111579895,13.935595512390137,1.6905419826507568,1.2418092489242554,1.7803610563278198,3.892019271850586,0.3134888708591461,0.10680686682462692,-1.4990376234054565,3.4844794273376465
205,51416,51415,0.014100372791290283,-0.05348305031657219,0.9700470566749573,22.285078048706055,14.914860725402832,-0.26035818457603455,1.7810418605804443,3.891859769821167,0.3137672543525696,0.049398671835660934,-1.289550542831421,3.496786594390869
206,51426,51425,0.037119004875421524,-0.15268544852733612,1.0245734453201294,26.583438873291016,22.075969696044922,-0.38560235500335693,1.780799150466919,3.8930466175079346,0.31158268451690674,-0.059459127485752106,-1.1796798706054688,3.4788007736206055
207,51436,51435,-0.05792432278394699,-0.08506365120410919,1.0631136894226074,20.63390350341797,35.312652587890625,-0.5399687886238098,1.7818409204483032,3.89239239692688,0.31173112988471985,-0.3280627131462097,-0.8308374285697937,3.4758236408233643
208,51446,51445,0.06950239092111588,-0.16480280458927155,0.9293081164360046,14.637325286865234,26.61964225769043,0.7896480560302734,1.7836251258850098,3.8917784690856934,0.31184151768684387,-0.7811948657035828,-0.5984053611755371,3.4887051582336426
209,51456,51455,0.04506491497159004,-0.09122517704963684,0.885033369064331,6.564509391784668,17.67112159729004,2.045942544937134,1.783168911933899,3.8931398391723633,0.31278735399246216,-0.9138728380203247,-0.5530070066452026,3.49322509765625
210,51466,51465,-0.0344427153468132,0.015578245744109154,1.000835657119751,0.8358443379402161,3.8834750652313232,2.1548328399658203,1.7846980094909668,3.894265651702881,0.31288275122642517,-1.082473635673523,-0.6254596710205078,3.5120317935943604
211,51476,51475,0.046155769377946854,0.06527309119701385,1.0477253198623657,-4.8268327713012695,-4.649346351623535,1.8685734272003174,1.783486008644104,3.8950984477996826,0.3131149113178253,-0.9427196383476257,-0.6986510157585144,3.506791830062866
212,51486,51485,-0.010416790843009949,-0.0899711325764656,0.9867998957633972,-2.5010247230529785,-10.535106658935547,0.773834228515625,1.7830806970596313,3.8952698707580566,0.31765803694725037,-0.7561719417572021,-0.7497290968894958,3.5240132808685303
213,51496,51495,-0.05674353241920471,-0.07084441184997559,0.9802349805831909,8.740095138549805,-11.835163116455078,-0.07132410258054733,1.7824130058288574,3.8955471515655518,0.31812578439712524,-0.5437625050544739,-0.7078763842582703,3.498061180114746
214,51506,51505,0.06344437599182129,-0.13395200669765472,0.9896480441093445,26.628662109375,-7.572412014007568,-1.1833621263504028,1.7847084999084473,3.8967394828796387,0.31844961643218994,-0.5050915479660034,-0.7194027900695801,3.4599874019622803
215,51516,51515,0.03870019316673279,-0.09407110512256622,0.992184042930603,37.02666091918945,2.038414478302002,-1.1567437648773193,1.7863022089004517,3.8957905769348145,0.31891492009162903,-0.48227834701538086,-0.30469122529029846,3.450502634048462
216,51526,51525,-0.07211188226938248,-0.16183798015117645,0.9527655243873596,45.02622604370117,11.545146942138672,-1.1618365049362183,1.7869611978530884,3.8951845169067383,0.31639957427978516,-0.6151177287101746,0.1847793459892273,3.4605038166046143
217,51536,51535,-0.08958825469017029,-0.058603156358003616,0.97295743227005,39.34939193725586,15.485191345214844,-1.416465163230896,1.7874784469604492,3.8977296352386475,0.316647469997406,-0.767774760723114,0.4154644310474396,3.4300661087036133
218,51546,51545,-0.00954769179224968,0.00905757024884224,1.016186237335205,23.510421752929688,27.892242431640625,-2.4338464736938477,1.788282871246338,3.897998094558716,0.31678158044815063,-1.0303843021392822,0.7757772207260132,3.4130165576934814
219,51556,51555,-0.020299335941672325,-0.056262969970703125,0.9575295448303223,7.2536821365356445,27.31951904296875,-3.4311420917510986,1.7878743410110474,3.8984696865081787,0.31341201066970825,-1.3237894773483276,1.0111366510391235,3.4401705265045166
220,51566,51565,0.007885653525590897,0.011153914034366608,0.9599576592445374,-8.53740406036377,19.91632080078125,-4.295942783355713,1.7864915132522583,3.898850917816162,0.31349605321884155,-1.4216954708099365,0.9927746653556824,3.3779830932617188
221,51576,51575,0.0006092204712331295,-0.03869732469320297,0.9588438272476196,-19.394556045532227,9.674579620361328,-5.512828350067139,1.7875696420669556,3.900557518005371,0.3133879005908966,-1.686618447303772,0.7489966154098511,3.3237907886505127
222,51586,51585,0.000995124806649983,-0.008515249006450176,0.9736551642417908,-25.158252716064453,1.3005802631378174,-6.389083385467529,1.7874809503555298,3.900792121887207,0.3120685815811157,-1.692516565322876,0.516844630241394,3.2484023571014404
223,51596,51595,-0.013582153245806694,-0.024864206090569496,0.9491426348686218,-24.271484375,-5.828720569610596,-7.45327615737915,1.787530541419983,3.899946928024292,0.31185808777809143,-1.6237276792526245,0.36660903692245483,3.1843888759613037
224,51606,51605,-0.01699146069586277,-0.020989734679460526,0.9999341368675232,-15.013760566711426,-9.100784301757812,-8.738811492919922,1.7868043184280396,3.900075912475586,0.3116703927516937,-1.4712719917297363,0.20372337102890015,3.1214733123779297
225,51616,51615,-0.04165560379624367,-0.03450949490070343,0.9774864912033081,-3.367793560028076,-8.224640846252441,-8.55479621887207,1.7876383066177368,3.899446725845337,0.31141871213912964,-1.3697521686553955,0.128658264875412,3.0154898166656494
226,51626,51625,-0.041724011301994324,-0.0031956247985363007,1.0061509609222412,12.074458122253418,-5.01919412612915,-8.164636611938477,1.7881255149841309,3.8995351791381836,0.3131699860095978,-1.3009902238845825,0.21061599254608154,2.953423500061035
227,51636,51635,0.004458731040358543,-0.03740127384662628,0.968654215335846,19.086322784423828,-0.9594298005104065,-7.630863666534424,1.7881346940994263,3.8990111351013184,0.31302589178085327,-1.2221994400024414,0.48174843192100525,2.9144933223724365
228,51646,51645,-0.07375798374414444,0.02763504534959793,1.0718066692352295,19.77313232421875,3.0774271488189697,-8.104520797729492,1.7897099256515503,3.899395227432251,0.3128240704536438,-1.335196614265442,0.6827030777931213,2.8192026615142822
229,51656,51655,-0.03513256460428238,-0.01696375012397766,0.9984513521194458,14.684285163879395,3.829040288925171,-8.44387435913086,1.7909799814224243,3.8995440006256104,0.3097834587097168,-1.4280378818511963,0.8368958234786987,2.7355563640594482
230,51666,51665,-0.00755658745765686,-0.01439488772302866,0.9943729639053345,8.036967277526855,1.4575419425964355,-8.17313289642334,1.7915211915969849,3.8992021083831787,0.3094691038131714,-1.4361608028411865,0.9767372608184814,2.6399052143096924
231,51676,51675,-0.07674222439527512,0.03227223455905914,1.0754097700119019,4.12213659286499,-2.0951614379882812,-8.025558471679688,1.7927472591400146,3.900763750076294,0.30915817618370056,-1.4941551685333252,0.9295288324356079,2.5413625240325928
232,51686,51685,-0.0312271099537611,-0.08838359266519547,1.0040894746780396,-2.8303279876708984,5.12414026260376,-8.583105087280273,1.79518723487854,3.9011762142181396,0.3097609281539917,-1.625292181968689,0.9557191729545593,2.4621691703796387
233,51696,51695,-0.0010292008519172668,-0.009053695946931839,1.0536850690841675,-6.290399074554443,2.4285199642181396,-9.160744667053223,1.7947497367858887,3.901566743850708,0.3096768856048584,-1.5497127771377563,0.892703115940094,2.3529324531555176
234,51706,51705,-0.05586058646440506,0.0934486836194992,1.0299279689788818,-8.345608711242676,3.251352071762085,-9.148518562316895,1.794847011566162,3.9013895988464355,0.3097223937511444,-1.5414587259292603,0.7697829604148865,2.239753246307373
235,51716,51715,0.02862381376326084,-0.21044820547103882,0.9714500904083252,-10.060145378112793,3.858220338821411,-8.637600898742676,1.7952120304107666,3.9002840518951416,0.30902010202407837,-1.530807614326477,0.7787182927131653,2.139495611190796
236,51726,51725,-0.027950014919042587,-0.08538468182086945,1.064949870109558,-6.893679618835449,-1.0381723642349243,-8.482878684997559,1.7977067232131958,3.9002366065979004,0.3088003695011139,-1.6705667972564697,0.7085995078086853,2.0634238719940186
237,51736,51735,-0.039233990013599396,-0.05603732541203499,1.0279483795166016,-5.124327182769775,1.0577366352081299,-9.044580459594727,1.7987006902694702,3.898969888687134,0.30872642993927,-1.6274422407150269,0.7549293637275696,1.9931656122207642
238,51746,51745,-0.02218829281628132,0.009319227188825607,1.0161420106887817,-4.628026008605957,1.2466737031936646,-9.319269180297852,1.7990405559539795,3.899348020553589,0.30867284536361694,-1.5908805131912231,0.6563878059387207,1.8953925371170044
239,51756,51755,-0.03520522639155388,0.007444689050316811,1.036287784576416,-6.2536420822143555,-0.2681046724319458,-9.067885398864746,1.8000738620758057,3.899214744567871,0.31045451760292053,-1.6141053438186646,0.5582157969474792,1.772992491722107
