,timestamp_start,timestamp_end,acc.x,acc.y,acc.z,gyro.x,gyro.y,gyro.z,stateEstimate.x,stateEstimate.y,stateEstimate.z,stabilizer.pitch,stabilizer.roll,stabilizer.yaw
0,47770,47768,0.003463617293164134,-0.00964854471385479,1.1430490016937256,-15.500733375549316,4.328641891479492,-1.9061558246612549,0.5649340152740479,0.5333774089813232,0.1117776483297348,2.0692739486694336,2.747360944747925,3.9560351371765137
1,47780,47778,-0.02733042649924755,0.048278264701366425,1.1935611963272095,-25.2075138092041,4.885608673095703,-2.7481698989868164,0.5649159550666809,0.5341969728469849,0.11573924124240875,2.0752434730529785,2.3635222911834717,4.046872615814209
2,47790,47788,0.01902836374938488,0.022358698770403862,1.1354186534881592,-30.51889991760254,5.361371994018555,-3.0034701824188232,0.5651682019233704,0.5352327823638916,0.1194189190864563,1.9931602478027344,1.8684033155441284,4.096214294433594
3,47800,47798,0.04343126341700554,-0.02736627869307995,1.068116307258606,-28.751569747924805,5.07098913192749,-2.208582639694214,0.5668044686317444,0.5337945222854614,0.12315370887517929,1.6349468231201172,1.8692612648010254,3.8177144527435303
4,47810,47808,0.014183634892106056,0.007864328101277351,1.118754506111145,-22.81586456298828,2.473067283630371,0.6495204567909241,0.5667170882225037,0.5354747176170349,0.12747082114219666,1.6701858043670654,1.2097052335739136,3.975515127182007
5,47820,47818,0.0056901187635958195,0.06363817304372787,1.1314265727996826,-13.526419639587402,-1.007314920425415,0.925148069858551,0.5666797757148743,0.5339537262916565,0.13166332244873047,1.7330068349838257,1.2967945337295532,3.9086780548095703
6,47830,47828,0.01085569802671671,0.12107857316732407,1.1109107732772827,-5.089940547943115,-5.175313472747803,1.527064323425293,0.5655728578567505,0.5375504493713379,0.13702000677585602,1.9686505794525146,0.4409677982330322,4.240241050720215
7,47840,47838,0.013215679675340652,0.045179467648267746,1.082548975944519,2.047417402267456,-4.174302577972412,0.24137522280216217,0.5656246542930603,0.5375465750694275,0.1412886530160904,1.9902265071868896,0.48026686906814575,4.217108726501465
8,47850,47848,0.004111093003302813,0.0038601865526288748,1.0619643926620483,9.144693374633789,0.564180314540863,0.2824041247367859,0.5654382109642029,0.5373017191886902,0.14554758369922638,2.042076587677002,0.6150223016738892,4.1909942626953125
9,47860,47858,0.040742840617895126,0.02079077810049057,1.0195927619934082,14.186389923095703,5.517786026000977,0.2138717770576477,0.5622851252555847,0.5403838157653809,0.1473659873008728,2.5457451343536377,0.17890766263008118,4.478912830352783
10,47870,47868,-0.01905263587832451,-0.00731629366055131,1.008790135383606,17.768522262573242,12.540681838989258,-1.0898860692977905,0.562287449836731,0.54128497838974,0.1518617421388626,2.3417956829071045,0.2983185350894928,4.464979648590088
11,47880,47878,0.026967927813529968,0.00989994965493679,1.0028488636016846,19.008413314819336,19.8331241607666,-1.0014867782592773,0.562644362449646,0.540976881980896,0.1574447900056839,2.0380923748016357,0.6595752239227295,4.371095180511475
12,47890,47888,-0.0046762702986598015,0.02867264114320278,0.997504711151123,16.123424530029297,21.234046936035156,-0.188768669962883,0.5629702806472778,0.5406785607337952,0.15944455564022064,1.716807246208191,0.9992636442184448,4.300806999206543
13,47900,47898,-0.015420489013195038,0.00204681814648211,1.0297359228134155,11.322002410888672,27.191783905029297,-0.770053505897522,0.5633902549743652,0.5400500893592834,0.1635463833808899,1.3639805316925049,1.3260000944137573,4.233951568603516
14,47910,47908,-0.0025385553017258644,0.02264276146888733,0.9701920747756958,3.910311460494995,25.53895378112793,-0.7596467733383179,0.5635422468185425,0.5391954183578491,0.16731683909893036,1.0394024848937988,1.6000968217849731,4.17578649520874
15,47920,47918,0.025323661044239998,-0.004938197322189808,0.9345629811286926,-4.386261463165283,20.687238693237305,-0.45866450667381287,0.5638915300369263,0.5395376682281494,0.17126235365867615,0.692741334438324,1.5813345909118652,4.176018714904785
16,47930,47928,-0.029707686975598335,0.030849015340209007,0.9811273813247681,-13.44072437286377,9.778780937194824,-0.14648404717445374,0.5641875267028809,0.5384876132011414,0.17401839792728424,0.44353368878364563,1.715038776397705,4.129388809204102
17,47940,47938,-0.052483778446912766,-0.0429319404065609,1.020862102508545,-19.761659622192383,4.810624599456787,-0.48327916860580444,0.5703385472297668,0.5466552972793579,0.17928431928157806,-0.6586744785308838,0.43519482016563416,4.206441879272461
18,47950,47948,-0.015954282134771347,0.02066359855234623,0.9553600549697876,-20.930341720581055,-4.1124587059021,-0.7307417392730713,0.5702412128448486,0.5474438667297363,0.18448661267757416,-0.5535423755645752,0.2665686011314392,4.215581893920898
19,47960,47958,-0.023393435403704643,0.012629327364265919,0.9447764754295349,-13.181843757629395,-14.626389503479004,-0.5537453889846802,0.5692965984344482,0.5480754375457764,0.18947911262512207,-0.2590595781803131,0.10949678719043732,4.2337260246276855
20,47970,47968,0.00848643109202385,0.10915268957614899,0.8902016878128052,-0.4557251036167145,-23.293970108032227,-1.5513018369674683,0.5684138536453247,0.5478124618530273,0.19452182948589325,0.12021201848983765,0.16572073101997375,4.241974830627441
21,47980,47978,0.010153207927942276,0.057232193648815155,0.9156316518783569,13.346158027648926,-26.046422958374023,-2.5054187774658203,0.5658813118934631,0.5473471879959106,0.19932834804058075,0.7344980835914612,0.3190934658050537,4.250650405883789
22,47990,47988,0.01579958014190197,0.015605093911290169,0.9114155769348145,22.02501678466797,-22.70869255065918,-2.9403483867645264,0.5682197213172913,0.5471477508544922,0.20056907832622528,0.7043277621269226,0.5955502390861511,4.204490661621094
23,48000,47998,0.015624510124325752,0.00560768274590373,0.9102362990379333,24.322097778320312,-14.83552074432373,-3.556732654571533,0.5686320662498474,0.5490719079971313,0.20418062806129456,0.8880479335784912,0.6474294662475586,4.1710896492004395
24,48010,48008,-0.004246794618666172,0.011575822718441486,0.9082559943199158,20.682504653930664,-7.951948642730713,-4.028926372528076,0.568077802658081,0.547859787940979,0.20800207555294037,1.1423149108886719,1.1101211309432983,4.134878635406494
25,48020,48018,0.02451636828482151,-0.005301842000335455,0.8780264258384705,14.538291931152344,-1.9366687536239624,-4.515814781188965,0.5624690651893616,0.5476282238960266,0.21096546947956085,1.8979041576385498,1.342783808708191,4.118673324584961
26,48030,48028,0.020067758858203888,-0.033845577389001846,0.8469505310058594,4.549248695373535,5.136261940002441,-5.337055683135986,0.5573305487632751,0.551143229007721,0.212259903550148,2.3975725173950195,1.069473385810852,4.119525909423828
27,48040,48038,0.014124562032520771,-0.001244142884388566,0.8665993809700012,-4.053647994995117,15.787609100341797,-6.176519870758057,0.5571100115776062,0.552091658115387,0.2161228358745575,2.1973397731781006,1.0812113285064697,4.061866760253906
28,48050,48048,0.007805478759109974,0.023039523512125015,0.8745545744895935,-8.852296829223633,30.43558120727539,-6.0804667472839355,0.5563744306564331,0.5521732568740845,0.21948353946208954,1.9777246713638306,1.1132851839065552,3.9908008575439453
29,48060,48058,0.006983569357544184,0.08737117797136307,0.8299770951271057,-8.500734329223633,34.94940185546875,-5.6662068367004395,0.5569508075714111,0.552568793296814,0.22247077524662018,1.461487889289856,1.0659286975860596,3.9133810997009277
30,48070,48068,-0.014829822815954685,0.0205828994512558,0.899863064289093,-6.091362953186035,38.92436218261719,-5.318863391876221,0.5555256009101868,0.5509443879127502,0.2251538187265396,1.1699899435043335,1.2150906324386597,3.8325788974761963
31,48080,48078,0.015181459486484528,0.001021523610688746,0.9070720076560974,-2.180650472640991,38.18789291381836,-5.0977654457092285,0.5540624260902405,0.5509802103042603,0.22762224078178406,0.8239553570747375,1.1826826333999634,3.7894842624664307
32,48090,48088,0.026606706902384758,-0.007507936097681522,0.8840780258178711,0.37086692452430725,33.88251495361328,-5.701321125030518,0.5541678667068481,0.5509306192398071,0.2313561588525772,0.2657698094844818,1.2007114887237549,3.7242543697357178
33,48100,48098,0.020577721297740936,-0.02756541594862938,0.8837506175041199,2.4636213779449463,28.570873260498047,-5.543454647064209,0.5516536831855774,0.550582766532898,0.23363861441612244,0.10006439685821533,1.2545254230499268,3.68572998046875
34,48110,48108,0.022872861474752426,0.013546784408390522,0.909074604511261,3.5132784843444824,20.95186996459961,-5.737610816955566,0.5514058470726013,0.5489647388458252,0.23596563935279846,-0.24867844581604004,1.463675856590271,3.6134042739868164
35,48120,48118,0.001693087280727923,0.0360126867890358,0.9212233424186707,2.4560325145721436,14.524598121643066,-5.471975803375244,0.5493931770324707,0.5485826730728149,0.23663115501403809,-0.3330424726009369,1.5194050073623657,3.5708999633789062
36,48130,48128,-0.0251576229929924,0.006083621643483639,0.9060350656509399,-2.1822495460510254,6.719792366027832,-5.217830657958984,0.5495193004608154,0.5477964878082275,0.23870283365249634,-0.5790544152259827,1.603084683418274,3.5043275356292725
37,48140,48138,-0.007466441486030817,0.028500240296125412,0.9150611758232117,-8.222478866577148,1.8734281063079834,-4.568364143371582,0.5479345917701721,0.54660964012146,0.24047242105007172,-0.5633453726768494,1.6559807062149048,3.462728500366211
38,48150,48148,0.00877625122666359,0.07504682242870331,0.9237076044082642,-14.797839164733887,-0.38016360998153687,-4.074057102203369,0.5474008321762085,0.547228217124939,0.2425432652235031,-0.6329372525215149,1.45885169506073,3.4064104557037354
39,48160,48158,0.009409124962985516,0.05124232918024063,0.8983656167984009,-21.089675903320312,0.1807301789522171,-3.462815999984741,0.5469245910644531,0.5476409792900085,0.2430841326713562,-0.6778541803359985,1.228743553161621,3.354084014892578
40,48170,48168,0.0038968785665929317,-0.0111699178814888,0.8857351541519165,-23.430431365966797,2.686816930770874,-3.3903861045837402,0.5452497601509094,0.5462013483047485,0.24457582831382751,-0.6085542440414429,1.1226714849472046,3.3392608165740967
41,48180,48178,0.008944910950958729,-0.0014321038033813238,0.9197613596916199,-22.288705825805664,6.435044288635254,-3.7081446647644043,0.5458102822303772,0.5463123917579651,0.24627506732940674,-0.8042362928390503,0.8429041504859924,3.2791213989257812
42,48190,48188,0.011691125109791756,-0.0119578056037426,0.9108731150627136,-20.87810516357422,13.15466594696045,-3.207336902618408,0.544998288154602,0.546167254447937,0.2504119277000427,-0.8919270634651184,0.5925598740577698,3.237475872039795
43,48200,48198,0.08166207373142242,-0.07646100223064423,0.9168583750724792,-15.290495872497559,9.18871021270752,-2.9144582748413086,0.5438488125801086,0.5437164902687073,0.2519259750843048,-0.9629389047622681,0.5993388891220093,3.2415647506713867
44,48210,48208,0.02492479234933853,-0.01848752610385418,0.9317828416824341,-10.638797760009766,9.02908706665039,-2.816837787628174,0.5439482927322388,0.543887197971344,0.2535075843334198,-1.1504168510437012,0.3842860460281372,3.1922264099121094
45,48220,48218,-0.0001195967779494822,0.003934597130864859,0.947470486164093,-6.603725910186768,8.965516090393066,-2.735466480255127,0.5427331328392029,0.541572630405426,0.25419044494628906,-1.1849405765533447,0.45636430382728577,3.2011189460754395
46,48230,48228,-0.020415063947439194,0.019910473376512527,0.9665262699127197,-2.788400650024414,8.411022186279297,-2.6805050373077393,0.5428222417831421,0.5412436127662659,0.25557848811149597,-1.3580442667007446,0.3625468313694,3.1613967418670654
47,48240,48238,0.0010965235996991396,-0.009697886183857918,0.933018147945404,-0.2738301455974579,10.163657188415527,-3.7636055946350098,0.5421330332756042,0.5399290919303894,0.2568238079547882,-1.434182047843933,0.3984738886356354,3.1474509239196777
48,48250,48248,-0.03566481173038483,-0.048797499388456345,0.927788257598877,-1.0991432666778564,8.416265487670898,-3.790978193283081,0.5413379669189453,0.5392705202102661,0.2580648958683014,-1.5033979415893555,0.3852614760398865,3.1105430126190186
49,48260,48258,-0.0662599503993988,0.02316178008913994,0.9557275176048279,-3.4344406127929688,0.45271238684654236,-3.288625717163086,0.5409797430038452,0.5386962294578552,0.26132678985595703,-1.5935007333755493,0.34715521335601807,3.0679965019226074
50,48270,48268,0.00488282972946763,-0.029896466061472893,0.9131874442100525,-6.280191898345947,-3.560786247253418,-3.0794498920440674,0.5403012633323669,0.5383338928222656,0.26256027817726135,-1.5831143856048584,0.2722663879394531,3.026855945587158
51,48280,48278,-0.0016022275667637587,0.029115457087755203,0.9759145975112915,-8.950987815856934,-7.411660194396973,-2.8930134773254395,0.539396345615387,0.5366693139076233,0.2636485993862152,-1.5036046504974365,0.293590784072876,3.0215845108032227
52,48290,48288,-7.762041059322655e-05,0.039719533175230026,0.9739299416542053,-10.412302017211914,-9.653366088867188,-2.6938223838806152,0.538947582244873,0.5358545184135437,0.2662490904331207,-1.4362800121307373,0.19829809665679932,2.9898159503936768
53,48300,48298,0.01769060268998146,0.01863229274749756,0.9342983961105347,-11.15015983581543,-7.691977024078369,-2.838620662689209,0.5385128855705261,0.5359213352203369,0.267465740442276,-1.3544126749038696,0.011580369435250759,2.937375068664551
54,48310,48308,0.006170019507408142,0.0032203916925936937,0.9738159775733948,-9.598345756530762,-4.227269172668457,-2.77394437789917,0.5383363962173462,0.5345010757446289,0.26855334639549255,-1.3108594417572021,-0.03285592794418335,2.928126811981201
55,48320,48318,-0.027344821020960808,0.053773023188114166,0.9872905611991882,-7.450672149658203,-0.08310798555612564,-2.6161842346191406,0.5383343696594238,0.5336271524429321,0.27186816930770874,-1.3162320852279663,-0.1255347728729248,2.901601552963257
56,48330,48328,0.015458888374269009,0.05032345652580261,0.9805490374565125,-4.768187046051025,4.388772487640381,-2.2110211849212646,0.537858784198761,0.5340816378593445,0.2732313275337219,-1.3254108428955078,-0.3265765309333801,2.836829900741577
57,48340,48338,0.0032856976613402367,0.10114215314388275,1.0321707725524902,-2.724057197570801,8.58491325378418,-1.4823609590530396,0.538462221622467,0.5313339829444885,0.27438294887542725,-1.4551661014556885,-0.16778846085071564,2.8787388801574707
58,48350,48348,0.04200105741620064,0.00637443782761693,0.9464753270149231,-2.7133491039276123,4.908743858337402,-1.8355141878128052,0.5374661684036255,0.530768096446991,0.275585412979126,-1.457011103630066,-0.22107060253620148,2.849301815032959
59,48360,48358,0.02843724563717842,0.0018222458893433213,0.934221088886261,-4.911240577697754,2.2506637573242188,-0.8605126738548279,0.5378834009170532,0.5288382768630981,0.2763752043247223,-1.5540549755096436,-0.14944620430469513,2.8674871921539307
60,48370,48368,-0.016032878309488297,0.035685837268829346,0.9566462635993958,-8.98886489868164,-2.050527334213257,-0.8303330540657043,0.5380605459213257,0.5279190540313721,0.27739420533180237,-1.5968163013458252,-0.2123761624097824,2.8613812923431396
61,48380,48378,0.021289655938744545,-0.026827117428183556,0.9387328624725342,-13.191856384277344,-7.165934085845947,-0.5533365607261658,0.5378381609916687,0.5273098945617676,0.278415322303772,-1.5505778789520264,-0.3498174250125885,2.8451309204101562
62,48390,48388,-0.00930709671229124,0.07389344274997711,0.9871010780334473,-16.266830444335938,-12.123658180236816,-0.6624028086662292,0.537182629108429,0.5261635184288025,0.2773669958114624,-1.410651683807373,-0.46540409326553345,2.8433339595794678
63,48400,48398,0.017912281677126884,-0.018659213557839394,0.9410338997840881,-18.38602066040039,-14.74091625213623,-0.2891450524330139,0.5362078547477722,0.525940477848053,0.2781844735145569,-1.2024723291397095,-0.7017638683319092,2.8135876655578613
64,48410,48408,-0.012986292131245136,0.012691744603216648,0.968514084815979,-18.49249267578125,-15.439159393310547,-0.2550736963748932,0.5358862280845642,0.5258135199546814,0.27895256876945496,-1.0354702472686768,-0.9502520561218262,2.7935171127319336
65,48420,48418,-0.05058328062295914,0.0706108808517456,1.0147219896316528,-15.539889335632324,-13.898932456970215,0.1958736926317215,0.5357354283332825,0.5248346328735352,0.2785830795764923,-0.8861823678016663,-1.1055731773376465,2.802187919616699
66,48430,48428,-0.02261066995561123,-0.005213846918195486,0.9452933073043823,-11.008017539978027,-10.426421165466309,0.387576162815094,0.5348716974258423,0.5251122117042542,0.2791973054409027,-0.695803701877594,-1.344832420349121,2.7759952545166016
67,48440,48438,-0.014492828398942947,0.05004198104143143,1.032632827758789,-5.5210771560668945,-5.751114368438721,0.034269824624061584,0.5351026654243469,0.5250962376594543,0.27984166145324707,-0.6432710886001587,-1.4954627752304077,2.774397134780884
68,48450,48448,-0.013809219002723694,0.007846827618777752,0.9772939682006836,-0.7438984513282776,-1.0470026731491089,-0.010927006602287292,0.5349175333976746,0.5229988694190979,0.28100666403770447,-0.5847646594047546,-1.4008508920669556,2.8085906505584717
69,48460,48458,0.005542594939470291,0.007029856089502573,0.9631799459457397,3.0369298458099365,0.9648218750953674,-0.42276015877723694,0.5357576608657837,0.5222727656364441,0.2816682457923889,-0.6647623777389526,-1.3872283697128296,2.8259170055389404
70,48470,48468,-0.017338477075099945,0.08709480613470078,1.0654668807983398,5.6208906173706055,0.5588474273681641,-0.37157344818115234,0.5358691811561584,0.5221344232559204,0.2822900116443634,-0.6863879561424255,-1.3951923847198486,2.815476179122925
71,48480,48478,0.005177672021090984,0.06039927154779434,1.0184308290481567,6.044508934020996,-0.6095747947692871,-0.7877456545829773,0.5359872579574585,0.5210302472114563,0.2829159200191498,-0.7032013535499573,-1.2888503074645996,2.8212263584136963
72,48490,48488,0.03433015197515488,-0.08497616648674011,0.975471019744873,3.468446731567383,-2.102879762649536,-0.6585157513618469,0.5359154343605042,0.5207977294921875,0.2835674285888672,-0.6897909045219421,-1.2672048807144165,2.8070242404937744
73,48500,48498,-0.010586865246295929,-0.02554909884929657,1.0372519493103027,-0.12572821974754333,-5.568725109100342,-1.5268006324768066,0.5356096625328064,0.5207464694976807,0.2842237651348114,-0.6312854290008545,-1.285636067390442,2.7851345539093018
74,48510,48508,0.04475509002804756,-0.026166671887040138,0.9368347525596619,-4.521963596343994,-7.938787937164307,-1.474549651145935,0.5350962281227112,0.5210176706314087,0.28487345576286316,-0.5247795581817627,-1.369534969329834,2.751176118850708
75,48520,48518,-0.01539425179362297,0.06204824894666672,1.0193642377853394,-6.429746627807617,-9.789410591125488,-1.9648877382278442,0.5344077944755554,0.5215140581130981,0.28514164686203003,-0.38504257798194885,-1.5044944286346436,2.711793899536133
76,48530,48528,0.03421713784337044,-0.02341609261929989,0.9357931017875671,-5.29542875289917,-8.948562622070312,-2.6358802318573,0.5362668037414551,0.5213184356689453,0.28579556941986084,-0.4726695120334625,-1.5631365776062012,2.734997272491455
77,48540,48538,0.00542230810970068,0.059592921286821365,1.0362151861190796,-2.3503527641296387,-6.729703903198242,-2.91379714012146,0.5357894897460938,0.5208465456962585,0.2863911986351013,-0.3409338891506195,-1.591724157333374,2.7017858028411865
78,48550,48548,-0.003938433714210987,-0.013296326622366905,0.9875582456588745,2.9749207496643066,-4.525292873382568,-3.8095197677612305,0.5362330675125122,0.5209547877311707,0.2865774631500244,-0.32158562541007996,-1.6334409713745117,2.676365852355957
79,48560,48558,0.021197328343987465,0.007820750586688519,0.9702978134155273,8.233407020568848,-2.4963321685791016,-3.70231032371521,0.5360263586044312,0.5205860733985901,0.2871396541595459,-0.25588205456733704,-1.5736724138259888,2.6350090503692627
80,48570,48568,-0.005177935119718313,0.04310911148786545,1.026157021522522,11.93599796295166,-0.969868540763855,-3.5785205364227295,0.535926878452301,0.5198624730110168,0.28770285844802856,-0.21781420707702637,-1.4294017553329468,2.598529815673828
81,48580,48578,0.02426241710782051,-0.007424393203109503,0.9690842032432556,13.573094367980957,-0.17021970450878143,-3.6069130897521973,0.5366669297218323,0.5198016166687012,0.28826063871383667,-0.2726975977420807,-1.3113439083099365,2.5785224437713623
82,48590,48588,-0.008106069639325142,-0.0038937744684517384,1.0026417970657349,12.466670036315918,-0.20227380096912384,-3.4467215538024902,0.5365830659866333,0.5187972187995911,0.28542715311050415,-0.2504540979862213,-1.101685643196106,2.5462279319763184
83,48600,48598,-0.015174797736108303,0.00878855586051941,1.0050114393234253,9.78907585144043,-0.6190462708473206,-3.690152406692505,0.5356764197349548,0.517937421798706,0.28576022386550903,-0.14489343762397766,-0.9263432025909424,2.4907195568084717
84,48610,48608,0.0459444522857666,0.01879807561635971,0.9702036380767822,5.735418796539307,-1.317855954170227,-3.3102400302886963,0.5364577174186707,0.5174620151519775,0.28609851002693176,-0.20686347782611847,-0.8141742944717407,2.4748146533966064
85,48620,48618,-0.00598344998434186,0.07522910088300705,1.0345590114593506,0.7049766778945923,-1.4787852764129639,-3.20809006690979,0.5363592505455017,0.5172486305236816,0.28638195991516113,-0.17653656005859375,-0.7760689854621887,2.438187837600708
86,48630,48628,0.026960982009768486,-0.05593235790729523,0.9372772574424744,-3.4226577281951904,-2.261629104614258,-3.309946298599243,0.5361683964729309,0.5174164175987244,0.2867223024368286,-0.13488459587097168,-0.8204363584518433,2.3990297317504883
87,48640,48638,-0.018926961347460747,0.0863046869635582,1.0656319856643677,-5.478499412536621,-3.701754570007324,-3.0984952449798584,0.535895824432373,0.5177971124649048,0.2870575487613678,-0.07748841494321823,-0.9159935116767883,2.358715295791626
88,48650,48648,0.023878242820501328,-0.04649316892027855,0.9831253886222839,-4.6185526847839355,-6.122585296630859,-3.5033552646636963,0.5363072156906128,0.5182101726531982,0.2832390069961548,-0.08174581080675125,-1.0247318744659424,2.333650588989258
89,48660,48658,0.02116573601961136,0.02346600405871868,0.9605211019515991,-4.025238513946533,-8.96285629272461,-3.3994088172912598,0.5367692112922668,0.51771479845047,0.28332236409187317,-0.05829763039946556,-1.0301522016525269,2.3028323650360107
90,48670,48668,-0.015391310676932335,-0.04378267750144005,1.0131585597991943,-1.1988513469696045,-3.8714168071746826,-3.807063102722168,0.5363724827766418,0.5179510116577148,0.28335657715797424,0.04699421301484108,-1.0936205387115479,2.257265090942383
91,48680,48678,0.009871128015220165,0.02676909789443016,1.0222854614257812,1.8122724294662476,-3.6695075035095215,-3.4573283195495605,0.5361025333404541,0.5179415345191956,0.2833939492702484,0.11595948040485382,-1.097066879272461,2.217255115509033
92,48690,48688,-0.0005379394860938191,0.009537761099636555,1.026094913482666,5.261924743652344,-2.301696300506592,-3.9855499267578125,0.5366683602333069,0.5177616477012634,0.28394728899002075,0.08852898329496384,-1.040971279144287,2.192909002304077
93,48700,48698,0.01438754890114069,0.045772600919008255,1.060201644897461,7.440784931182861,-0.25474750995635986,-4.897149562835693,0.5365732908248901,0.5172980427742004,0.28404340147972107,0.12419132143259048,-0.932051420211792,2.1455371379852295
94,48710,48708,-0.002781178569421172,-0.004217637702822685,1.0301934480667114,8.535490036010742,2.132235050201416,-5.283520221710205,0.537406325340271,0.5167750120162964,0.28417378664016724,0.036376893520355225,-0.7980971336364746,2.11014461517334
95,48720,48718,0.022487761452794075,0.021960176527500153,1.0177685022354126,7.651294708251953,2.6686575412750244,-6.53279972076416,0.536858856678009,0.516193687915802,0.2835537791252136,0.08202572166919708,-0.6692636013031006,2.0398483276367188
96,48730,48728,-0.0018999611493200064,0.022686956450343132,1.0617412328720093,4.485673427581787,1.7531977891921997,-6.425264835357666,0.537024736404419,0.516553521156311,0.2837122678756714,0.044808562844991684,-0.6559763550758362,1.9764317274093628
97,48740,48738,0.01476819347590208,0.0022969087585806847,1.0211468935012817,1.813417911529541,0.271457701921463,-7.204924583435059,0.5371567606925964,0.5155888795852661,0.2838805317878723,0.02935420721769333,-0.5277838110923767,1.9074627161026
98,48750,48748,0.0188013706356287,0.04102231562137604,1.0430752038955688,0.20750905573368073,-0.561145007610321,-7.571290493011475,0.5371149778366089,0.5171063542366028,0.2860468626022339,0.03708859533071518,-0.6896365284919739,1.8344124555587769
99,48760,48758,-0.008532499894499779,-0.0009005434112623334,1.0477581024169922,-0.24970389902591705,-1.4133528470993042,-8.314011573791504,0.5370286703109741,0.5171307921409607,0.28642019629478455,0.06417898833751678,-0.6913365721702576,1.7531890869140625
100,48770,48768,0.020510492846369743,0.021268703043460846,1.0384608507156372,2.5841805934906006,-2.4973113536834717,-9.325346946716309,0.536866307258606,0.5170624852180481,0.2868348956108093,0.10876774042844772,-0.6713421940803528,1.6618266105651855
101,48780,48778,0.016672689467668533,0.014559779316186905,1.0292178392410278,6.554677486419678,-3.0291669368743896,-9.610010147094727,0.5366750359535217,0.5167538523674011,0.28729310631752014,0.16308189928531647,-0.59120774269104,1.5623635053634644
102,48790,48788,-0.009090694598853588,0.03574509918689728,1.0627790689468384,9.400115966796875,-1.9458805322647095,-10.311957359313965,0.538780689239502,0.5163394808769226,0.29164227843284607,-0.03248470276594162,-0.4476746916770935,1.4879610538482666
103,48800,48798,0.030745582655072212,-0.007619084790349007,1.0035089254379272,9.940423011779785,-0.2817857563495636,-10.664193153381348,0.5387369990348816,0.5164206027984619,0.29241064190864563,0.0034218174405395985,-0.360417902469635,1.3811111450195312
104,48810,48808,0.014337393455207348,0.057569216936826706,1.0195232629776,9.964011192321777,3.2955844402313232,-11.45541000366211,0.538723886013031,0.5158126950263977,0.29320958256721497,0.024557892233133316,-0.2009071707725525,1.2688195705413818
105,48820,48818,0.05043566972017288,0.10089875012636185,0.9788660407066345,6.465926647186279,-4.3084845542907715,-11.236871719360352,0.538642942905426,0.515235424041748,0.2917158901691437,0.0496741384267807,-0.06616755574941635,1.1499600410461426
106,48830,48828,-0.031387172639369965,-0.05750077962875366,1.0716406106948853,4.584186553955078,-3.6152970790863037,-11.463667869567871,0.5384014844894409,0.5156003832817078,0.29242241382598877,0.12629012763500214,-0.05777139216661453,1.0340723991394043
107,48840,48838,-0.003599278861656785,-0.10224136710166931,1.0028644800186157,2.8799760341644287,-2.5791614055633545,-12.18505573272705,0.5381929874420166,0.5160710215568542,0.29314151406288147,0.1881488859653473,-0.0720338299870491,0.9137893915176392
108,48850,48848,-0.0077357483096420765,0.051780637353658676,1.0702944993972778,0.8004128336906433,-2.90596604347229,-12.706840515136719,0.5380518436431885,0.5159162282943726,0.2936062514781952,0.23325468599796295,-0.03384210541844368,0.7864643335342407
109,48860,48858,0.014840140007436275,-0.02365155890583992,0.974722683429718,1.284189224243164,-1.081403374671936,-13.496312141418457,0.5393965244293213,0.5166073441505432,0.2944142818450928,0.11746825277805328,-0.09175850450992584,0.6645312309265137
110,48870,48868,-0.000507545075379312,0.0188885685056448,1.0244321823120117,1.2196147441864014,0.36714085936546326,-13.726081848144531,0.5393497347831726,0.518759548664093,0.2952212393283844,0.1395440697669983,-0.2924492657184601,0.5333107709884644
111,48880,48878,0.03728783503174782,0.06694479286670685,1.0193471908569336,4.280113220214844,-0.31426742672920227,-14.608402252197266,0.5393698811531067,0.5193354487419128,0.29570502042770386,0.14913496375083923,-0.29932528734207153,0.39084911346435547
112,48890,48888,0.0009098310838453472,3.521228677527688e-07,0.9751932621002197,7.423146724700928,1.329340934753418,-14.301473617553711,0.539381206035614,0.5189153552055359,0.29655542969703674,0.16222169995307922,-0.1655469536781311,0.2402888983488083
113,48900,48898,0.009687217883765697,0.01723385415971279,0.9805163145065308,11.15371322631836,7.846405982971191,-14.201845169067383,0.5395682454109192,0.5190369486808777,0.2973701059818268,0.12684006989002228,-0.06353312730789185,0.09734416007995605
114,48910,48908,-0.009408093057572842,-0.030628426000475883,0.9639715552330017,10.843876838684082,9.665122985839844,-12.804553031921387,0.5400511026382446,0.5190447568893433,0.29817238450050354,0.010799359530210495,0.07149738818407059,-0.03739539161324501
115,48920,48918,0.009133095853030682,-0.041448961943387985,0.9583394527435303,9.759905815124512,14.514533996582031,-12.00720500946045,0.5407920479774475,0.5183006525039673,0.29728347063064575,-0.16190306842327118,0.2721809446811676,-0.16321492195129395
116,48930,48928,-0.0005517255049198866,0.01317816786468029,1.019224762916565,8.03425407409668,17.157930374145508,-12.107640266418457,0.5418121814727783,0.5192140340805054,0.2979355454444885,-0.39992818236351013,0.2811219394207001,-0.2794628441333771
117,48940,48938,-0.010895983316004276,0.05693551525473595,1.033808708190918,5.969032287597656,17.032808303833008,-12.582975387573242,0.541425347328186,0.5187523365020752,0.298647403717041,-0.5003817677497864,0.4157091975212097,-0.40591174364089966
118,48950,48948,-0.016069024801254272,0.031237298622727394,0.9839732050895691,4.816043376922607,15.462475776672363,-12.907981872558594,0.5424801111221313,0.5183414220809937,0.29849326610565186,-0.7451924085617065,0.5237839818000793,-0.5356445908546448
119,48960,48958,0.014548715204000473,0.018391648307442665,0.9637579917907715,3.9766972064971924,12.929183959960938,-12.562960624694824,0.5418811440467834,0.5195428133010864,0.2991781234741211,-0.7935502529144287,0.45382532477378845,-0.6585142016410828
120,48970,48968,-0.03025887906551361,0.005153991747647524,1.0084961652755737,1.8673149347305298,10.118985176086426,-12.15015983581543,0.5418152809143066,0.5193597674369812,0.29976144433021545,-0.8747405409812927,0.5164986252784729,-0.7813674807548523
121,48980,48978,0.016685644164681435,0.0287361778318882,0.9734532237052917,0.3854236602783203,5.797760963439941,-11.224288940429688,0.5407967567443848,0.5193033218383789,0.3015393614768982,-0.8289103507995605,0.5474052429199219,-0.891725480556488
122,48990,48988,0.0007610792526975274,0.012311086058616638,0.9812326431274414,-1.3429924249649048,3.6331446170806885,-10.030139923095703,0.5410527586936951,0.5193045735359192,0.3021443784236908,-0.8870341777801514,0.5531297922134399,-0.9994136095046997
123,49000,48998,0.0023696778807789087,0.020627839490771294,0.9853197932243347,-0.926784873008728,4.391338348388672,-9.50959587097168,0.5412724018096924,0.5186545252799988,0.3027168810367584,-0.9330418705940247,0.6092605590820312,-1.0941088199615479
124,49010,49008,-0.010877701453864574,0.058112211525440216,0.9506064057350159,-2.416403293609619,5.351029872894287,-7.797296047210693,0.541532576084137,0.518742561340332,0.3032883107662201,-0.9843251705169678,0.5837313532829285,-1.1823586225509644
125,49020,49018,0.026258915662765503,-0.05372851714491844,0.9778673648834229,-2.033604145050049,6.709802150726318,-6.881543159484863,0.5404224991798401,0.5189220309257507,0.3052903413772583,-0.9128034114837646,0.5445098876953125,-1.2471909523010254
126,49030,49028,0.015187943354249,0.01897687092423439,0.9811291098594666,-2.1280605792999268,8.40902328491211,-5.849123954772949,0.5416738390922546,0.5190263986587524,0.3058584928512573,-1.1032296419143677,0.5114440321922302,-1.3241877555847168
127,49040,49038,-0.008715338073670864,0.021333156153559685,0.971394419670105,-1.6413642168045044,10.167476654052734,-4.855569839477539,0.5415676236152649,0.5191391706466675,0.30645066499710083,-1.1664915084838867,0.4821063280105591,-1.3733867406845093
128,49050,49048,0.010802103206515312,-0.005467523355036974,0.9560306668281555,-1.5960060358047485,10.845498085021973,-4.205821990966797,0.5422478914260864,0.519228994846344,0.3066311478614807,-1.3178943395614624,0.455911248922348,-1.423689603805542
129,49060,49058,0.01464213989675045,0.02845592610538006,0.9694772958755493,-0.12137862294912338,13.076147079467773,-4.805668830871582,0.5406745076179504,0.5193670392036438,0.307260662317276,-1.2495657205581665,0.4331194758415222,-1.446089744567871
130,49070,49068,-0.04484482482075691,0.14371836185455322,1.003209114074707,-0.8800702691078186,9.097665786743164,-4.253748893737793,0.5405856370925903,0.5194041728973389,0.3077702820301056,-1.339410424232483,0.42596668004989624,-1.486983060836792
131,49080,49078,-0.01751074567437172,0.08985583484172821,0.9833201766014099,1.2535572052001953,8.12328052520752,-3.7590854167938232,0.541104793548584,0.5186107158660889,0.306215763092041,-1.4683035612106323,0.503369152545929,-1.521327018737793
132,49090,49088,0.014471294358372688,0.02799525298178196,0.990397036075592,2.907297372817993,6.619521141052246,-3.498415231704712,0.5408191680908203,0.5184338092803955,0.30656829476356506,-1.498642086982727,0.5360895395278931,-1.5506291389465332
133,49100,49098,-0.01731552556157112,0.010505461134016514,0.9934263825416565,2.9828081130981445,4.741722106933594,-2.4845635890960693,0.5403529405593872,0.5182326436042786,0.30692100524902344,-1.492853045463562,0.5780264735221863,-1.5713374614715576
134,49110,49108,0.0157396849244833,0.05438951030373573,0.9798226952552795,1.796897053718567,4.775897979736328,-2.5265607833862305,0.540534496307373,0.5180664658546448,0.3086891770362854,-1.530007243156433,0.602260410785675,-1.5963605642318726
135,49120,49118,0.016087643802165985,0.06650010496377945,0.986388087272644,-0.4064105153083801,1.6769452095031738,-2.5664234161376953,0.5406205058097839,0.5180221796035767,0.3090721368789673,-1.5479252338409424,0.6003209352493286,-1.6233494281768799
136,49130,49128,4.9769885663408786e-05,0.04490039870142937,0.9982714653015137,-1.7552387714385986,2.3045308589935303,-2.3349618911743164,0.5406895875930786,0.51808100938797,0.3094341456890106,-1.5537503957748413,0.5715218782424927,-1.6503632068634033
137,49140,49138,-0.010686002671718597,0.0017597457626834512,1.0025150775909424,-2.662423610687256,4.763866424560547,-0.9802451729774475,0.5408475995063782,0.5182156562805176,0.309775173664093,-1.5800343751907349,0.5250113010406494,-1.6720260381698608
138,49150,49148,-0.0073078107088804245,0.04431597515940666,1.0229365825653076,-3.5799484252929688,5.402772903442383,-0.6495018601417542,0.5411288738250732,0.518413782119751,0.31035563349723816,-1.6328372955322266,0.464184433221817,-1.6857255697250366
139,49160,49158,0.027570247650146484,0.08744097501039505,0.9580513834953308,-3.861649513244629,7.40545129776001,-0.2743906080722809,0.5414331555366516,0.5186945796012878,0.3106764853000641,-1.6941070556640625,0.3890618681907654,-1.6974495649337769
140,49170,49168,0.03774410858750343,0.0906267836689949,0.9225382804870605,-4.92972469329834,3.2482521533966064,0.817264974117279,0.5424332618713379,0.5189966559410095,0.31092748045921326,-1.8068406581878662,0.3053794205188751,-1.7081749439239502
141,49180,49178,0.031308047473430634,0.06049804016947746,0.9915205240249634,-4.103810787200928,1.116790533065796,1.0278655290603638,0.5425420999526978,0.5185392498970032,0.3114011883735657,-1.8041224479675293,0.301566481590271,-1.6870118379592896
142,49190,49188,-0.01982925832271576,-0.01592854969203472,0.9947061538696289,-3.639281749725342,-2.154221534729004,0.8744282722473145,0.5424680709838867,0.5188058018684387,0.31162479519844055,-1.7557810544967651,0.23052671551704407,-1.679363489151001
143,49200,49198,0.01810447871685028,0.03064705803990364,0.984933078289032,-2.6255383491516113,-5.7901153564453125,0.4801172912120819,0.5429282784461975,0.5190361142158508,0.3117997646331787,-1.7275046110153198,0.16991834342479706,-1.6772505044937134
144,49210,49208,-0.03101605921983719,0.07337751984596252,1.0108150243759155,-1.9768122434616089,-8.196301460266113,0.729160726070404,0.5447096228599548,0.518413245677948,0.3115485608577728,-1.7914695739746094,0.19734787940979004,-1.670790672302246
145,49220,49218,0.0002816324995364994,-0.004344861954450607,0.9895921945571899,-1.731228232383728,-9.656158447265625,0.8142244815826416,0.544097363948822,0.51850825548172,0.3118056058883667,-1.5912563800811768,0.16839294135570526,-1.6554876565933228
146,49230,49228,0.0024571886751800776,0.038162026554346085,1.0354505777359009,-1.8135643005371094,-10.097455024719238,0.5443095564842224,0.5441775918006897,0.5186388492584229,0.3120063245296478,-1.4552335739135742,0.13083802163600922,-1.648606300354004
147,49240,49238,-0.015708256512880325,0.02127310074865818,1.0100077390670776,0.1368776261806488,-9.525276184082031,-0.15562815964221954,0.5449324250221252,0.5171875357627869,0.3121824860572815,-1.3837084770202637,0.2499457746744156,-1.6176425218582153
148,49250,49248,0.018760422244668007,-0.0036672877613455057,0.9764149188995361,1.5139724016189575,-7.94127893447876,-0.6362239122390747,0.5451264381408691,0.5171323418617249,0.31222274899482727,-1.2688442468643188,0.24295881390571594,-1.6225168704986572
149,49260,49258,-0.04056980833411217,0.026201650500297546,1.0148565769195557,2.3412091732025146,-5.782212257385254,-0.8377195000648499,0.5462135076522827,0.5169427990913391,0.312371164560318,-1.2560274600982666,0.26157066226005554,-1.6354641914367676
150,49270,49268,-0.019271384924650192,0.0786467045545578,1.0042508840560913,1.2531884908676147,-2.4693102836608887,-0.47200125455856323,0.5474928021430969,0.5167774558067322,0.3125077784061432,-1.2797949314117432,0.27449873089790344,-1.6484311819076538
151,49280,49278,-0.020242517814040184,0.010523371398448944,1.0242047309875488,0.15747524797916412,-0.5771210789680481,-0.8861327767372131,0.5480943918228149,0.516704261302948,0.3114387094974518,-1.2601103782653809,0.2726554274559021,-1.6574320793151855
152,49290,49288,0.017006436362862587,0.03733064606785774,1.0049080848693848,0.29967889189720154,1.949270486831665,-0.9523362517356873,0.5495852828025818,0.516677975654602,0.31151095032691956,-1.3323394060134888,0.25401371717453003,-1.6744585037231445
153,49300,49298,0.020600028336048126,0.1023406833410263,1.0155807733535767,-3.4703195095062256,-1.4846919775009155,-0.7320963740348816,0.5503258109092712,0.5168099999427795,0.3116472363471985,-1.3264472484588623,0.20663796365261078,-1.6888536214828491
154,49310,49308,0.01447395421564579,0.00045638837036676705,0.9840177893638611,-4.868850231170654,-4.422235012054443,-1.1341859102249146,0.5500756502151489,0.5163460969924927,0.3109124004840851,-1.2037659883499146,0.19898749887943268,-1.686269760131836
155,49320,49318,-0.0034021842293441296,-0.013884422369301319,1.007411003112793,-4.88274621963501,-7.576136112213135,-1.4052766561508179,0.5511664748191833,0.5158998966217041,0.31096377968788147,-1.1788431406021118,0.17149731516838074,-1.6969414949417114
156,49330,49328,-0.009574401192367077,0.05023796111345291,1.042558193206787,-4.083384037017822,-9.214688301086426,-2.0059826374053955,0.5520996451377869,0.5161711573600769,0.311053603887558,-1.106243371963501,0.07878671586513519,-1.7224783897399902
157,49340,49338,-0.011812691576778889,0.011938770301640034,1.014126181602478,-2.923107147216797,-9.962605476379395,-2.9492287635803223,0.5514025092124939,0.515701174736023,0.31129369139671326,-0.8661371469497681,0.0729798898100853,-1.7322719097137451
158,49350,49348,0.017424436286091805,0.024044977501034737,0.9908079504966736,-1.3192191123962402,-6.774519443511963,-3.8101370334625244,0.5536862015724182,0.5150662660598755,0.31048664450645447,-0.9280274510383606,0.08531761169433594,-1.7673797607421875
159,49360,49358,0.009823281317949295,0.050285421311855316,0.9971923828125,-3.0091495513916016,-7.0709028244018555,-3.6918113231658936,0.5546756982803345,0.5152011513710022,0.3105616271495819,-0.8630568981170654,0.023774433881044388,-1.8100849390029907
160,49370,49368,0.005990598816424608,0.0005857264040969312,0.9924014210700989,-4.147144794464111,-4.512905597686768,-3.9865920543670654,0.5550552606582642,0.5154150128364563,0.31068629026412964,-0.7532872557640076,-0.05088314414024353,-1.852628469467163
161,49380,49378,-0.006710920948535204,0.0008034725906327367,1.0173747539520264,-5.591513633728027,-1.35957932472229,-3.589629650115967,0.5555534958839417,0.514985978603363,0.3101697564125061,-0.6904723644256592,-0.0739579051733017,-1.8836501836776733
162,49390,49388,0.021939482539892197,0.03903847932815552,1.0241950750350952,-5.502871513366699,-0.25949960947036743,-3.6588730812072754,0.5562463402748108,0.5146065950393677,0.31023135781288147,-0.6693645715713501,-0.11372775584459305,-1.9179242849349976
163,49400,49398,-0.028024176135659218,0.010120981372892857,1.0339593887329102,-4.996062278747559,-0.649706244468689,-3.4334280490875244,0.5570266246795654,0.5149216055870056,0.3103068172931671,-0.6612995862960815,-0.21774479746818542,-1.9599636793136597
164,49410,49408,0.027152199298143387,0.018749192357063293,0.98164963722229,-5.24913215637207,-1.7448267936706543,-2.6772215366363525,0.557945966720581,0.5144196152687073,0.31427115201950073,-0.6506528854370117,-0.23731832206249237,-1.987570881843567
165,49420,49418,-0.010704192332923412,0.014349676668643951,1.0221855640411377,-4.279757499694824,-2.932384490966797,-2.3821001052856445,0.5593127012252808,0.51395583152771,0.31458672881126404,-0.6799290776252747,-0.2627335786819458,-2.010019540786743
166,49430,49428,-0.025334101170301437,0.16118167340755463,1.0181605815887451,-3.4215221405029297,-2.8725249767303467,-1.5990272760391235,0.5598849654197693,0.5127420425415039,0.31496956944465637,-0.6226052641868591,-0.20602507889270782,-2.0217981338500977
167,49440,49438,-0.0056913201697170734,0.21274279057979584,1.0103700160980225,-6.181628704071045,-4.755803108215332,-0.9904404282569885,0.5605148673057556,0.513002336025238,0.3162364065647125,-0.5581316947937012,-0.3079136908054352,-2.0420632362365723
168,49450,49448,0.02941974066197872,0.08196467161178589,1.0207701921463013,-5.09273624420166,-2.191041946411133,-1.0003130435943604,0.5603616833686829,0.5125764608383179,0.3167189061641693,-0.4258841872215271,-0.34159883856773376,-2.0516366958618164
169,49460,49458,-0.01146960910409689,0.05423517897725105,1.036726713180542,-4.054425239562988,-0.4937867820262909,-1.0724457502365112,0.5617798566818237,0.5128068923950195,0.3171226680278778,-0.47225648164749146,-0.4396345615386963,-2.062915086746216
170,49470,49468,-0.008640170097351074,-0.04579870030283928,0.9371563196182251,-1.9013453722000122,2.1237070560455322,-0.3739393353462219,0.5625945329666138,0.512244462966919,0.3175622224807739,-0.47409194707870483,-0.43738046288490295,-2.0678393840789795
171,49480,49478,0.025630494579672813,-0.002509753918275237,0.9441834092140198,-0.23221758008003235,6.046020030975342,0.963363766670227,0.5651597380638123,0.5114672780036926,0.31966516375541687,-0.6792851090431213,-0.4015355408191681,-2.0608649253845215
172,49490,49488,-0.023626387119293213,-0.008648401126265526,0.971633791923523,1.1836355924606323,7.865521430969238,1.4986321926116943,0.5649106502532959,0.5113500356674194,0.3203161954879761,-0.6153660416603088,-0.40499505400657654,-2.0521249771118164
173,49500,49498,0.025133542716503143,0.0016861752374097705,0.9530215859413147,1.0977507829666138,7.511654853820801,2.7841904163360596,0.5654491782188416,0.5112684369087219,0.3208458423614502,-0.6553139090538025,-0.4138117730617523,-2.033386468887329
174,49510,49508,-0.023130394518375397,-0.07751535624265671,0.9987350702285767,-0.21143728494644165,3.943345069885254,3.1600654125213623,0.5665335059165955,0.5111775398254395,0.32152560353279114,-0.7264801859855652,-0.42226848006248474,-2.0020339488983154
175,49520,49518,-0.0040673683397471905,0.11413110792636871,1.0063599348068237,-1.0490684509277344,2.1457395553588867,3.229890823364258,0.5674618482589722,0.5112130641937256,0.3220045268535614,-0.7541431784629822,-0.4541746973991394,-1.9706103801727295
176,49530,49528,-0.03549060970544815,0.14759865403175354,0.9891607165336609,-3.3288936614990234,-0.19607149064540863,4.813647270202637,0.5682081580162048,0.5105901956558228,0.3225070834159851,-0.7399932146072388,-0.4311542809009552,-1.930635929107666
177,49540,49538,0.004908895120024681,0.03014984540641308,0.9764729142189026,-4.488803386688232,-2.283275842666626,5.713159561157227,0.5696253776550293,0.5108002424240112,0.3235965669155121,-0.7715357542037964,-0.5141587257385254,-1.8771418333053589
178,49550,49548,0.0031361724250018597,0.011192260310053825,0.9931109547615051,-5.505367279052734,-5.381465435028076,6.029786586761475,0.570114016532898,0.5111305117607117,0.32410570979118347,-0.6787649393081665,-0.6138419508934021,-1.8211783170700073
179,49560,49558,-0.01743968576192856,0.05441158637404442,1.0352439880371094,-5.110745429992676,-8.416821479797363,5.9325737953186035,0.5703936219215393,0.510765016078949,0.32460689544677734,-0.5410928130149841,-0.6423400044441223,-1.7623564004898071
180,49570,49568,-0.014178810641169548,0.049046870321035385,0.9820629358291626,-2.715223550796509,-8.958617210388184,5.486979961395264,0.5713052153587341,0.5102413296699524,0.3250259757041931,-0.4550522565841675,-0.6418864727020264,-1.702739953994751
181,49580,49578,0.00010364403715357184,0.027499288320541382,0.9615050554275513,0.6404500007629395,-7.221689701080322,4.404478549957275,0.5722540616989136,0.5102578401565552,0.32524722814559937,-0.37426456809043884,-0.670490562915802,-1.6511130332946777
182,49590,49588,-0.026630854234099388,-0.009347719140350819,0.9716217517852783,4.589489459991455,-4.4027323722839355,3.990117311477661,0.5742748379707336,0.5090780854225159,0.325898677110672,-0.3297794759273529,-0.5620752573013306,-1.6063426733016968
183,49600,49598,0.003290535882115364,0.04545290023088455,0.9845707416534424,6.861302852630615,-6.989563465118408,3.7597239017486572,0.5745853781700134,0.5088483095169067,0.32587286829948425,-0.31963032484054565,-0.4838550090789795,-1.566158413887024
184,49610,49608,-0.049450915306806564,-0.004995363764464855,1.014602541923523,6.345792293548584,-1.150735855102539,1.7429627180099487,0.5768621563911438,0.5081077218055725,0.324200838804245,-0.31333616375923157,-0.3908608555793762,-1.5343719720840454
185,49620,49618,-0.027097927406430244,-0.02218858152627945,0.9704985022544861,2.915404796600342,-4.280663013458252,0.9307978749275208,0.5758566856384277,0.5079851150512695,0.32427361607551575,-0.20095999538898468,-0.32224810123443604,-1.5283173322677612
186,49630,49628,-0.03880162164568901,-0.08777815848588943,0.9882638454437256,-1.9687539339065552,-1.1535183191299438,-0.9493375420570374,0.5783178210258484,0.5076416730880737,0.32458487153053284,-0.23612898588180542,-0.32503920793533325,-1.5254148244857788
187,49640,49638,0.0019539492204785347,0.001264647813513875,0.9875848293304443,-6.261430263519287,-1.2145416736602783,-2.523143768310547,0.5773187875747681,0.5088754892349243,0.32381531596183777,-0.12658725678920746,-0.4844784736633301,-1.543809175491333
188,49650,49648,0.00594945065677166,0.1318068951368332,0.950091540813446,-8.007100105285645,-0.440939337015152,-3.7128522396087646,0.5788117051124573,0.5093310475349426,0.3239164650440216,-0.1788082867860794,-0.6134782433509827,-1.5697362422943115
189,49660,49658,0.028327640146017075,0.1149333044886589,0.9673658609390259,-6.446062088012695,-1.020970344543457,-4.565998554229736,0.5812835693359375,0.5089969635009766,0.3240543007850647,-0.22339192032814026,-0.6649869084358215,-1.6082336902618408
190,49670,49668,0.0028231048490852118,0.007023253012448549,0.9443579912185669,-2.544133424758911,0.5491048097610474,-4.257804870605469,0.580241858959198,0.5086441040039062,0.3241606652736664,-0.1185777336359024,-0.681337296962738,-1.6598293781280518
191,49680,49678,0.0590599849820137,0.04822421818971634,0.8904049396514893,1.3787031173706055,1.4249231815338135,-4.693844318389893,0.5818154215812683,0.5086817145347595,0.3261910676956177,-0.19093537330627441,-0.7023710608482361,-1.7018005847930908
192,49690,49688,0.025652071461081505,-0.0026259550359100103,0.9054333567619324,5.258279800415039,-1.2408453226089478,-4.238957405090332,0.583515465259552,0.508370041847229,0.32638314366340637,-0.16526412963867188,-0.6511123776435852,-1.7496299743652344
193,49700,49698,0.000465619086753577,0.02029997669160366,0.989427924156189,8.623781204223633,-1.2930781841278076,-3.3551113605499268,0.58418208360672,0.5078266263008118,0.32641565799713135,-0.1255534440279007,-0.5399866104125977,-1.7941147089004517
194,49710,49708,0.015366068109869957,0.00867996271699667,0.9446125626564026,10.146957397460938,-1.1167362928390503,-3.457822561264038,0.5838696956634521,0.5072577595710754,0.324942946434021,-0.08273740857839584,-0.3932950496673584,-1.8335546255111694
195,49720,49718,0.03926299512386322,-0.02815167047083378,0.9017317891120911,8.831233978271484,-1.55776047706604,-2.3731839656829834,0.585308849811554,0.5065320730209351,0.3247816264629364,-0.12417402118444443,-0.23855051398277283,-1.8630458116531372
196,49730,49728,0.011542010121047497,-0.021622030064463615,0.9714926481246948,6.801600933074951,2.743858575820923,-2.501814842224121,0.5860698223114014,0.5067035555839539,0.32463282346725464,-0.09490569680929184,-0.19377830624580383,-1.8840274810791016
197,49740,49738,-0.017103172838687897,0.028473656624555588,0.9572588205337524,0.13308021426200867,-0.46067842841148376,-0.6031215786933899,0.5871101021766663,0.5078999400138855,0.3259350061416626,-0.11117148399353027,-0.2881626784801483,-1.8919191360473633
198,49750,49748,0.006848515011370182,0.0027764546684920788,1.0305474996566772,-3.579652786254883,3.3310546875,-1.1196402311325073,0.5880670547485352,0.5079547762870789,0.32576310634613037,-0.12851977348327637,-0.3097938001155853,-1.9038993120193481
199,49760,49758,0.0046237618662416935,-0.02916743978857994,0.9689246416091919,-4.525474548339844,3.7876169681549072,-0.2609756290912628,0.5890992283821106,0.508228063583374,0.32555297017097473,-0.1687605082988739,-0.38016241788864136,-1.9099184274673462
200,49770,49768,-0.0028102148789912462,0.021556781604886055,1.011631965637207,-2.3040945529937744,3.2701785564422607,-0.3060852587223053,0.5894210934638977,0.5084909200668335,0.32540658116340637,-0.14055460691452026,-0.44133082032203674,-1.9157546758651733
201,49780,49778,-0.012489814311265945,0.03364632651209831,1.0089819431304932,1.05961012840271,2.754803419113159,0.5613654255867004,0.5904503464698792,0.5085259079933167,0.3254714906215668,-0.18311947584152222,-0.4505302309989929,-1.9168009757995605
202,49790,49788,0.011675698682665825,0.016223113983869553,0.9718665480613708,3.665713310241699,-0.518740177154541,1.3262710571289062,0.5913581252098083,0.5075592398643494,0.32528653740882874,-0.2054593563079834,-0.32347288727760315,-1.9173872470855713
203,49800,49798,-0.011214175261557102,0.014535333961248398,1.0271916389465332,9.842071533203125,0.999809980392456,1.03896164894104,0.5921423435211182,0.5071094632148743,0.32507941126823425,-0.19464293122291565,-0.21920783817768097,-1.907912015914917
204,49810,49808,0.008157335221767426,-0.010602429509162903,0.9676358103752136,11.962562561035156,1.3133296966552734,0.8514708876609802,0.5930642485618591,0.5070945024490356,0.32658734917640686,-0.20719169080257416,-0.11023030430078506,-1.898080825805664
205,49820,49818,0.017850063741207123,0.004397631622850895,0.9790601134300232,10.752594947814941,0.1437654197216034,0.6297749280929565,0.593176007270813,0.5070364475250244,0.3265429437160492,-0.13436675071716309,0.00906266737729311,-1.8943265676498413
206,49830,49828,-0.0027189303655177355,0.04159197956323624,1.0117722749710083,7.037668228149414,-1.2551287412643433,0.40493613481521606,0.5946606397628784,0.5071278810501099,0.3264015316963196,-0.19205908477306366,0.08496546000242233,-1.8848373889923096
207,49840,49838,0.002967915963381529,0.010647960007190704,0.9704318046569824,4.486503601074219,-1.3475066423416138,0.2175147980451584,0.5945720672607422,0.5067408084869385,0.326569527387619,-0.07749497145414352,0.18153627216815948,-1.8868029117584229
208,49850,49848,0.0101047083735466,0.002218113746494055,0.9876437783241272,2.8021035194396973,-0.06930719316005707,0.7072394490242004,0.5960261225700378,0.5064553022384644,0.32641252875328064,-0.13274294137954712,0.23801590502262115,-1.88332998752594
209,49860,49858,0.0014042388647794724,0.0011513095814734697,0.9905391931533813,1.3293033838272095,2.051542043685913,1.5371873378753662,0.5978443026542664,0.5078237056732178,0.3261790871620178,-0.14448203146457672,0.118545301258564,-1.863912582397461
210,49870,49868,2.8795800972147845e-05,-0.03543836995959282,0.9769214987754822,1.1646790504455566,5.062575340270996,2.3198916912078857,0.5980179309844971,0.5076375007629395,0.32675254344940186,-0.19438856840133667,0.15187671780586243,-1.8452767133712769
211,49880,49878,-0.0014729521935805678,0.025921490043401718,0.9939591884613037,-0.41727134585380554,3.9491634368896484,2.938424825668335,0.5983608961105347,0.5075908899307251,0.3266635239124298,-0.1852448582649231,0.16690278053283691,-1.820205569267273
212,49890,49888,0.009757470339536667,-0.0077077304013073444,0.9768552780151367,-2.2360241413116455,2.5295345783233643,3.8448870182037354,0.5986417531967163,0.5076660513877869,0.32656335830688477,-0.1669013947248459,0.15166915953159332,-1.7881875038146973
213,49900,49898,0.017254075035452843,-0.0042815906926989555,0.9789412021636963,-3.3734095096588135,-0.10282760113477707,4.322637557983398,0.6003378629684448,0.5077860951423645,0.3263409435749054,-0.2805110216140747,0.11247086524963379,-1.7475591897964478
214,49910,49908,0.00241486937738955,0.05309674143791199,1.0340014696121216,-4.361410140991211,-1.9739254713058472,4.7078776359558105,0.601904571056366,0.508000373840332,0.32778653502464294,-0.34026244282722473,0.053458888083696365,-1.7012869119644165
215,49920,49918,-0.007233459036797285,-0.013338344171643257,0.9735851287841797,-4.473026752471924,-4.865786552429199,4.675422668457031,0.6024928689002991,0.5075432062149048,0.32774266600608826,-0.27305757999420166,0.060240451246500015,-1.6569907665252686
216,49930,49928,0.025350162759423256,0.0232503954321146,0.9991875886917114,-3.612666606903076,-7.856503963470459,4.54136848449707,0.6028961539268494,0.5078548789024353,0.3277139961719513,-0.15805542469024658,-0.015378373675048351,-1.608310580253601
217,49940,49938,-0.003977729473263025,-0.007281152531504631,0.9955219030380249,-2.377422571182251,-7.642704963684082,4.031992435455322,0.6038931012153625,0.5080450773239136,0.3264215886592865,-0.09091797471046448,-0.06562276184558868,-1.5627981424331665
218,49950,49948,0.04401703178882599,-0.0022103299852460623,0.9486684799194336,1.7616546154022217,-8.257368087768555,3.746657133102417,0.6049258708953857,0.507266104221344,0.3262716233730316,-0.031018588691949844,0.012268497608602047,-1.530158281326294
219,49960,49958,-0.018376493826508522,0.034561071544885635,1.0197269916534424,2.7909491062164307,-5.119619846343994,2.4999539852142334,0.6060298681259155,0.5070517063140869,0.32608628273010254,0.016924813389778137,0.054094430059194565,-1.501035451889038
220,49970,49968,0.0007875349256210029,0.03494243323802948,0.9881773591041565,1.3086639642715454,-2.1862096786499023,1.2785162925720215,0.6079738736152649,0.5068523287773132,0.3213501274585724,-0.05437321588397026,0.08374547213315964,-1.4848203659057617
221,49980,49978,0.0013095521135255694,-0.03557411581277847,0.9613326787948608,-1.3384466171264648,-2.308746099472046,0.8667427897453308,0.6079013347625732,0.506856381893158,0.3209371268749237,0.07538606971502304,0.08285277336835861,-1.472702980041504
222,49990,49988,0.011044293642044067,-0.01929568499326706,1.0025262832641602,-1.126451015472412,1.0957448482513428,-0.6425814032554626,0.6094580292701721,0.5068886280059814,0.3203904330730438,0.015111232176423073,0.058216821402311325,-1.4698641300201416
223,50000,49998,0.015582574531435966,-0.009875689633190632,0.9769502878189087,0.2946424186229706,1.2294857501983643,-1.0797712802886963,0.6096230149269104,0.5076804757118225,0.31996068358421326,0.08810652792453766,-0.03122720681130886,-1.4701491594314575
224,50010,50008,0.0020299837924540043,0.029999693855643272,1.023342490196228,2.6801881790161133,-0.04388696327805519,-1.9516994953155518,0.6104938387870789,0.5075697898864746,0.3199831247329712,0.08325611054897308,-0.004763870500028133,-1.4877768754959106
225,50020,50018,0.022217370569705963,0.008672171272337437,0.987034022808075,4.930973052978516,-1.6331685781478882,-2.7040176391601562,0.6119775176048279,0.5072688460350037,0.31946802139282227,0.028863761574029922,0.06237341836094856,-1.5133963823318481
226,50030,50028,-0.023959120735526085,-0.005789319518953562,1.0293716192245483,5.680690288543701,-4.1991424560546875,-3.7465450763702393,0.6125828623771667,0.5068694353103638,0.3190154731273651,0.08996108919382095,0.15753494203090668,-1.5473697185516357
227,50040,50038,0.043786969035863876,0.04837721586227417,1.0076013803482056,4.038442134857178,-5.801410675048828,-4.069334983825684,0.613820493221283,0.5065064430236816,0.31900063157081604,0.10457579791545868,0.23749561607837677,-1.5905407667160034
228,50050,50048,-0.029767770320177078,-0.013380248099565506,1.0264509916305542,1.384900689125061,-5.612246513366699,-4.262413024902344,0.6149548888206482,0.5062728524208069,0.31854888796806335,0.14387103915214539,0.28079092502593994,-1.635246992111206
229,50060,50058,0.008148661814630032,-0.0036050667986273766,0.9893835186958313,-0.37703126668930054,-4.676098346710205,-4.580297946929932,0.6146172881126404,0.5062475800514221,0.31822919845581055,0.33342087268829346,0.28361043334007263,-1.673587679862976
230,50070,50068,0.021476522088050842,-0.030959444120526314,1.0039266347885132,-2.2996842861175537,-5.20142936706543,-5.006594657897949,0.6157430410385132,0.5063185691833496,0.31627967953681946,0.3568546772003174,0.25005626678466797,-1.7265338897705078
231,50080,50078,0.008489793166518211,0.041053738445043564,1.041663408279419,-4.13694953918457,-1.5089149475097656,-5.501832962036133,0.617143988609314,0.5064977407455444,0.31574541330337524,0.3406839072704315,0.18657764792442322,-1.779223918914795
232,50090,50088,-0.003244915511459112,-0.01687687635421753,0.99333655834198,-3.144756317138672,0.2711870074272156,-6.405681610107422,0.6179330348968506,0.5067615509033203,0.31530264019966125,0.35511547327041626,0.11172658205032349,-1.8354403972625732
233,50100,50098,-0.03547928109765053,0.042906057089567184,1.0089513063430786,-3.0514111518859863,2.242849349975586,-7.251281261444092,0.6188739538192749,0.5070139765739441,0.3148464262485504,0.32954898476600647,0.04574443772435188,-1.902068018913269
234,50110,50108,-0.03611449524760246,0.1198766753077507,1.0738801956176758,-3.4416801929473877,6.271392822265625,-7.435410022735596,0.6199655532836914,0.5057457089424133,0.3157808184623718,0.25898319482803345,0.13614043593406677,-1.9913761615753174
235,50120,50118,-0.017827628180384636,0.020816422998905182,1.0365310907363892,-3.440767526626587,6.462207317352295,-6.915527820587158,0.6212232112884521,0.5059297680854797,0.31542375683784485,0.1551145762205124,0.0673154890537262,-2.062654972076416
236,50130,50128,0.0238934475928545,-0.06348580121994019,1.0096604824066162,-3.5195116996765137,4.415395736694336,-6.534537315368652,0.6217279434204102,0.5061113238334656,0.3151834309101105,0.1390853077173233,0.006914791651070118,-2.12563157081604
237,50140,50138,0.02734345570206642,-0.056981369853019714,1.0517946481704712,-2.0083870887756348,2.9189882278442383,-6.918622016906738,0.622743546962738,0.5047817826271057,0.31597021222114563,0.08483873307704926,0.10488792508840561,-2.2089526653289795
238,50150,50148,0.008654666133224964,-0.02223268337547779,0.9935289621353149,-1.040736436843872,0.8308979272842407,-6.324573516845703,0.623641312122345,0.5048636198043823,0.31584545969963074,0.06771019846200943,0.059192631393671036,-2.2723050117492676
