,timestamp_start,timestamp_end,acc.x,acc.y,acc.z,gyro.x,gyro.y,gyro.z,stateEstimate.x,stateEstimate.y,stateEstimate.z,stabilizer.pitch,stabilizer.roll,stabilizer.yaw
0,18819,18814,-0.01931283064186573,0.017249448224902153,1.0482903718948364,10.577974319458008,-24.483789443969727,3.267660140991211,1.8317198753356934,4.015011787414551,0.18073531985282898,0.7769530415534973,-0.3477661907672882,2.9217443466186523
1,18829,18824,-0.008287610486149788,-0.08280453830957413,1.056976079940796,12.774192810058594,-18.433635711669922,3.5384156703948975,1.8304048776626587,4.0156378746032715,0.18300679326057434,1.0791994333267212,-0.35968008637428284,2.952878475189209
2,18839,18834,-0.066659115254879,-0.10427631437778473,1.0954712629318237,13.917611122131348,-4.07697057723999,3.7713282108306885,1.8311123847961426,4.017744064331055,0.17998436093330383,1.244441032409668,-0.10734649002552032,2.9935882091522217
3,18849,18844,-0.029541965574026108,-0.01033158227801323,1.0328059196472168,11.570808410644531,10.440171241760254,3.5365922451019287,1.8317463397979736,4.017971992492676,0.18185800313949585,1.3052482604980469,0.13165391981601715,3.027937889099121
4,18859,18854,0.0028379771392792463,0.044685859233140945,1.0171350240707397,5.361860752105713,18.944122314453125,2.597088575363159,1.831510066986084,4.0213727951049805,0.18381556868553162,1.2801796197891235,0.1698136329650879,3.0662593841552734
5,18869,18864,0.005964821670204401,-0.031993962824344635,1.012067437171936,0.2999472916126251,18.76001739501953,2.3902883529663086,1.8280459642410278,4.017461776733398,0.18320797383785248,1.1954046487808228,0.34149062633514404,3.0830039978027344
6,18879,18874,0.00726237241178751,-0.10610940307378769,1.0087013244628906,-4.219954490661621,17.31957244873047,2.5160698890686035,1.8248845338821411,4.019233226776123,0.1846594661474228,1.299580693244934,0.26458728313446045,3.1255862712860107
7,18889,18884,0.025797853246331215,-0.10426423698663712,0.9944136142730713,-6.5882792472839355,14.094037055969238,1.093984603881836,1.8207987546920776,4.020697593688965,0.1858326941728592,1.3107376098632812,0.20098090171813965,3.1636791229248047
8,18899,18894,-0.01411358267068863,0.046858303248882294,0.9851738810539246,-7.821288108825684,6.407729625701904,1.9793002605438232,1.8216301202774048,4.021479606628418,0.18429148197174072,1.1294115781784058,0.18055589497089386,3.1686575412750244
9,18909,18904,0.012656038627028465,-0.020452268421649933,1.0789440870285034,-3.8510007858276367,11.846778869628906,1.171654224395752,1.8213245868682861,4.023612022399902,0.18576514720916748,1.0915035009384155,0.07465630024671555,3.1922173500061035
10,18919,18914,0.027590304613113403,-0.06063025817275047,0.9749184846878052,-1.9814729690551758,10.80827522277832,1.7916959524154663,1.8211090564727783,4.023500442504883,0.187689870595932,0.860791802406311,0.16596956551074982,3.1815567016601562
11,18929,18924,0.0073661282658576965,-0.06846987456083298,1.076817274093628,3.31813383102417,10.292283058166504,1.89371657371521,1.8200191259384155,4.027474880218506,0.18926702439785004,0.8091315627098083,0.13941653072834015,3.204556465148926
12,18939,18934,-0.01998393051326275,0.09741484373807907,0.9866718053817749,3.427036762237549,11.354425430297852,2.4717659950256348,1.8208980560302734,4.030797958374023,0.19110865890979767,0.5273938775062561,0.18062575161457062,3.209284782409668
13,18949,18944,-0.025565192103385925,0.03105911612510681,1.0095734596252441,1.2472472190856934,12.827108383178711,3.5132110118865967,1.8206011056900024,4.032364845275879,0.19278085231781006,0.435544490814209,0.22540365159511566,3.2342631816864014
14,18959,18954,-0.004662316758185625,-0.038354091346263885,1.139967441558838,0.2084251344203949,13.349034309387207,3.07116436958313,1.8216010332107544,4.036372184753418,0.19448724389076233,0.2704229950904846,0.3140520453453064,3.258756399154663
15,18969,18964,-0.02486884593963623,-0.04983903095126152,1.1598999500274658,-1.0904520750045776,14.127646446228027,2.5742950439453125,1.8238146305084229,4.038761138916016,0.19723370671272278,-0.02621764875948429,0.37294524908065796,3.274127721786499
16,18979,18974,0.0136154405772686,-0.045958276838064194,0.9971722364425659,-4.444469451904297,9.247176170349121,2.5407841205596924,1.8214088678359985,4.040457248687744,0.19938965141773224,-0.0063651143573224545,0.3187572956085205,3.3162896633148193
17,18989,18984,0.0076606799848377705,0.05029533430933952,1.0273154973983765,-6.6203484535217285,4.004190921783447,2.4755795001983643,1.8215956687927246,4.0409064292907715,0.20155587792396545,-0.23365694284439087,0.21562843024730682,3.3327999114990234
18,18999,18994,0.01804589480161667,-0.05993223935365677,0.9692780375480652,-8.448776245117188,0.1652034968137741,2.641716480255127,1.8221913576126099,4.041402339935303,0.2047971785068512,-0.28748390078544617,0.2262188196182251,3.3565988540649414
19,19009,19004,0.006060712039470673,-0.044572614133358,1.0132038593292236,-8.217035293579102,-3.290219783782959,3.1320619583129883,1.8224050998687744,4.04152774810791,0.2069590836763382,-0.3411826193332672,0.05828547105193138,3.3781228065490723
20,19019,19014,0.05644908919930458,-0.12522725760936737,1.032319188117981,-5.259682655334473,-4.570638179779053,2.4766571521759033,1.821990966796875,4.041774749755859,0.2090875655412674,-0.3385995328426361,-0.08802480250597,3.40541934967041
21,19029,19024,-0.013441285118460655,-0.026014911010861397,1.021552324295044,-1.0491399765014648,1.1887820959091187,1.6813644170761108,1.8217273950576782,4.041694641113281,0.21128053963184357,-0.3131573498249054,-0.17166519165039062,3.4263782501220703
22,19039,19034,0.012713950127363205,-0.05294032022356987,0.9178501963615417,2.8352603912353516,-2.8653345108032227,2.609748125076294,1.8212896585464478,4.041981220245361,0.21443013846874237,0.035573240369558334,-0.04178289696574211,3.475583076477051
23,19049,19044,0.03419031575322151,-0.033591900020837784,0.9826234579086304,3.9491944313049316,-0.522005558013916,2.684675455093384,1.8211559057235718,4.041666507720947,0.217154860496521,-0.23617036640644073,-0.021882181987166405,3.4821557998657227
24,19059,19054,0.06179343909025192,-0.11637237668037415,1.0570050477981567,4.794628620147705,2.462714672088623,2.4207727909088135,1.82027006149292,4.04096794128418,0.21933312714099884,-0.2069360911846161,0.023736562579870224,3.5099987983703613
25,19069,19064,0.03456076607108116,-0.1365536004304886,0.991974413394928,3.65480899810791,7.270373821258545,1.6557400226593018,1.8210824728012085,4.040802955627441,0.21933613717556,-0.38119038939476013,0.07653193920850754,3.5268771648406982
26,19079,19074,0.0027638787869364023,-0.03893687203526497,0.8811661601066589,0.016743652522563934,10.95315170288086,1.494511365890503,1.8162201642990112,4.043854713439941,0.22188057005405426,0.1267670840024948,-0.411893755197525,3.5379695892333984
27,19089,19084,0.023641031235456467,-0.03915894776582718,0.9022458791732788,-1.909509539604187,7.398961544036865,1.3751180171966553,1.8170933723449707,4.043961048126221,0.22430874407291412,-0.14404018223285675,-0.3684139847755432,3.54722261428833
28,19099,19094,0.001317956019192934,-0.028516018763184547,0.9924484491348267,0.270206481218338,9.12818431854248,1.3964238166809082,1.8158493041992188,4.0437116622924805,0.2279197871685028,-0.20468032360076904,-0.35412803292274475,3.563380241394043
29,19109,19104,0.023960663005709648,-0.04793226346373558,0.9516235589981079,5.05224084854126,8.578544616699219,1.6807270050048828,1.8164610862731934,4.04420280456543,0.22992584109306335,-0.2790084183216095,-0.3734881579875946,3.575479507446289
30,19119,19114,0.009149066172540188,-0.06119036674499512,0.9423147439956665,8.854341506958008,9.325258255004883,1.5718646049499512,1.8153355121612549,4.043055057525635,0.23214559257030487,-0.45121335983276367,-0.16420133411884308,3.60272479057312
31,19129,19124,0.031253132969141006,0.006595685612410307,0.9012404680252075,9.503976821899414,12.180840492248535,0.9736405611038208,1.8143671751022339,4.042462348937988,0.2340640425682068,-0.7096294164657593,0.006136748008430004,3.619954824447632
32,19139,19134,0.05532383918762207,-0.19370774924755096,0.9613550305366516,10.832486152648926,6.611932277679443,-0.07037804275751114,1.8149830102920532,4.04110050201416,0.2344668060541153,-0.9460371732711792,0.18783581256866455,3.6350257396698
33,19149,19144,0.0031038683373481035,-0.2738554775714874,0.8802699446678162,7.60621452331543,2.891399621963501,0.06821569800376892,1.8154841661453247,4.042028903961182,0.2361411154270172,-1.0853404998779297,0.35895445942878723,3.64316463470459
34,19159,19154,-0.021820370107889175,-0.12740486860275269,0.8669170141220093,1.9268803596496582,-3.31378436088562,0.22201214730739594,1.8151373863220215,4.042469024658203,0.23762467503547668,-1.140610694885254,0.3085671067237854,3.627091407775879
35,19169,19164,0.01146664097905159,-0.10566051304340363,0.9596427083015442,-2.0022621154785156,-10.036108016967773,-0.09718561172485352,1.8137580156326294,4.0421013832092285,0.24142609536647797,-1.085484504699707,0.3416542112827301,3.6312882900238037
36,19179,19174,-0.011101371608674526,-0.08963057398796082,1.0617766380310059,-1.954077124595642,-6.63372278213501,-1.138654112815857,1.8149774074554443,4.044398784637451,0.24289216101169586,-1.3881350755691528,0.16263999044895172,3.585345506668091
37,19189,19184,0.05762234702706337,-0.03947044163942337,0.9012651443481445,-4.160055637359619,-11.873920440673828,-0.8010554909706116,1.8116652965545654,4.0427374839782715,0.24548940360546112,-0.8153802752494812,0.36886462569236755,3.6387386322021484
38,19199,19194,0.015084384009242058,2.62922840192914e-05,0.9556403160095215,-3.1517999172210693,-12.818005561828613,-0.3333165943622589,1.8109464645385742,4.042425632476807,0.2479156106710434,-0.9394006729125977,0.22469115257263184,3.600531816482544
39,19209,19204,-0.005852221045643091,0.05428139865398407,1.002990484237671,-1.3897795677185059,-9.978846549987793,-0.4121280610561371,1.8161847591400146,4.037667751312256,0.24922782182693481,-1.4714382886886597,0.6420337557792664,3.641177177429199
40,19219,19214,0.014445259235799313,0.06487095355987549,0.9532146453857422,-1.3260611295700073,-12.025815963745117,-1.2717435359954834,1.8131352663040161,4.037590980529785,0.25209563970565796,-0.8926616311073303,0.5708804130554199,3.6541130542755127
41,19229,19224,-0.07692847400903702,0.04579466953873634,0.978544294834137,-1.845687985420227,-12.434701919555664,-1.3932135105133057,1.8127704858779907,4.03966760635376,0.25065749883651733,-0.6533589363098145,0.2054644376039505,3.58491587638855
42,19239,19234,0.00044248762424103916,-0.05818356201052666,0.9432700276374817,-2.9088919162750244,-14.708104133605957,-1.3506685495376587,1.8122663497924805,4.040794372558594,0.2520715594291687,-0.4081381857395172,0.017556818202137947,3.5490970611572266
43,19249,19244,-0.005348922684788704,-0.11076664924621582,1.0087946653366089,-0.6275664567947388,-12.841251373291016,-1.6104663610458374,1.8100104331970215,4.036703109741211,0.2536885738372803,-0.011775375343859196,0.45474931597709656,3.6290290355682373
44,19259,19254,-0.009873950853943825,-0.01907539740204811,0.9519120454788208,1.124202013015747,-4.495322227478027,-2.3731701374053955,1.8099764585494995,4.037538528442383,0.255218505859375,0.08619871735572815,0.26936396956443787,3.582704782485962
45,19269,19264,-0.006134956143796444,-0.015790782868862152,0.8871921896934509,-1.0668854713439941,-0.07178603857755661,-2.048740863800049,1.8093266487121582,4.0422892570495605,0.25574854016304016,0.2210369110107422,-0.19253449141979218,3.503720283508301
46,19279,19274,-0.008160803467035294,-0.06418689340353012,0.9414388537406921,-0.18259628117084503,7.2255096435546875,-3.074855327606201,1.8108044862747192,4.042991638183594,0.2569226026535034,0.08925936371088028,-0.1614307016134262,3.476292610168457
47,19289,19284,-0.01966407150030136,0.0739317461848259,0.9439456462860107,2.484374523162842,9.807208061218262,-3.130660057067871,1.8123822212219238,4.043327808380127,0.25819915533065796,-0.0531468503177166,0.5637533664703369,3.5139334201812744
48,19299,19294,0.00011951031046919525,0.010765609331429005,0.9899547100067139,4.774799823760986,7.9824724197387695,-3.8138017654418945,1.8001190423965454,4.042241096496582,0.26059383153915405,1.4596960544586182,-0.19407950341701508,3.5158748626708984
49,19309,19304,-0.004100088495761156,-0.011014308780431747,1.004146933555603,2.789767026901245,4.538045406341553,-4.349371433258057,1.7984822988510132,4.0424885749816895,0.26166871190071106,1.1656376123428345,-0.0833078920841217,3.4689576625823975
50,19319,19314,-0.021903658285737038,-0.0038147037848830223,1.024214506149292,2.114368438720703,13.951369285583496,-4.3733086585998535,1.7993872165679932,4.04245138168335,0.26393258571624756,0.8820773959159851,-0.004674811381846666,3.415372371673584
51,19329,19324,-0.04850331321358681,0.1215006411075592,0.9716507196426392,1.5974547863006592,24.55027961730957,-4.528717517852783,1.8009662628173828,4.042796611785889,0.26538556814193726,0.46828848123550415,0.13126477599143982,3.359811305999756
52,19339,19334,0.03777484968304634,0.06594125926494598,0.9021176099777222,1.1844077110290527,29.350093841552734,-4.184711456298828,1.8023799657821655,4.042032241821289,0.2671528160572052,0.1555926352739334,0.244012713432312,3.3139312267303467
53,19349,19344,0.053498104214668274,-0.031989287585020065,0.9672837853431702,0.41071242094039917,23.044757843017578,-4.63517951965332,1.8015626668930054,4.040250778198242,0.2685195505619049,-0.370051771402359,0.26103508472442627,3.259127616882324
54,19359,19354,-0.03471212461590767,0.05032355710864067,0.9659404158592224,-0.965068519115448,19.2591552734375,-5.287941932678223,1.8035221099853516,4.040156364440918,0.2687223553657532,-0.8643820881843567,0.25749894976615906,3.1979706287384033
55,19369,19364,-0.03539512678980827,-0.01790338195860386,0.9649649858474731,-0.7355522513389587,8.905652046203613,-4.962461948394775,1.8050053119659424,4.040284633636475,0.2695862352848053,-1.0370315313339233,0.38218820095062256,3.1486027240753174
56,19379,19374,0.004324382171034813,-0.0625920295715332,0.9422360062599182,-2.704483985900879,-1.2709389925003052,-4.793370246887207,1.80507493019104,4.040126323699951,0.27060243487358093,-1.194827675819397,0.3395753502845764,3.0936663150787354
57,19389,19384,0.012533689849078655,-0.045694757252931595,1.0005048513412476,-4.2457098960876465,-10.41067123413086,-5.311629772186279,1.8051341772079468,4.040729522705078,0.2715589106082916,-1.1555346250534058,0.27404239773750305,3.0387253761291504
58,19399,19394,0.014224185608327389,-0.01301599945873022,0.9719885587692261,-5.661125659942627,-15.305109024047852,-5.375365734100342,1.8043991327285767,4.0400848388671875,0.2727257013320923,-0.9976637959480286,0.2643181383609772,2.988684892654419
59,19409,19404,-0.019023457542061806,0.00294951512478292,1.0071921348571777,-3.888394594192505,-13.8413667678833,-5.228877544403076,1.8038952350616455,4.040510177612305,0.2736775577068329,-0.8639925122261047,0.24478961527347565,2.9352900981903076
60,19419,19414,0.016860472038388252,0.07547347247600555,0.8874123096466064,-2.7432968616485596,-10.157713890075684,-5.080630302429199,1.8037843704223633,4.040106296539307,0.27466291189193726,-0.8348506689071655,0.3153872787952423,2.888014554977417
61,19429,19424,0.015501564368605614,0.10063346475362778,0.9362539052963257,-3.3389689922332764,-5.618167877197266,-4.641079425811768,1.8050233125686646,4.038932800292969,0.2749950587749481,-0.7143516540527344,0.23868140578269958,2.8333683013916016
62,19439,19434,0.00435384176671505,0.010553604923188686,1.001814603805542,-4.769583225250244,-2.8538296222686768,-4.060696601867676,1.806134581565857,4.0349273681640625,0.27559709548950195,-0.7954801917076111,0.6586206555366516,2.8317198753356934
63,19449,19444,0.014624974690377712,-0.009478285908699036,0.9949997067451477,-7.5344343185424805,4.436953544616699,-3.965630054473877,1.8065533638000488,4.035226345062256,0.2764929234981537,-0.774997889995575,0.49379318952560425,2.7765636444091797
64,19459,19454,0.0641028955578804,-0.1440419703722,0.9599061608314514,-10.020689010620117,0.8191996812820435,-4.634664535522461,1.8062150478363037,4.03502893447876,0.27720609307289124,-0.9009491801261902,0.44178956747055054,2.732266664505005
65,19469,19464,-0.007390295155346394,0.0056864917278289795,0.9608132839202881,-13.451016426086426,0.12162096798419952,-4.3855814933776855,1.8070368766784668,4.034909725189209,0.27946504950523376,-0.9184495210647583,0.2515694200992584,2.676332473754883
66,19479,19474,-0.0019145658006891608,0.11019167304039001,1.0087934732437134,-16.039344787597656,-3.838230848312378,-4.38577938079834,1.807159185409546,4.035049915313721,0.2802751660346985,-0.9593802690505981,0.017122209072113037,2.615342378616333
67,19489,19484,0.020844945684075356,0.10850325226783752,1.1233727931976318,-14.863083839416504,-9.243179321289062,-5.720168590545654,1.8075436353683472,4.035036563873291,0.2811223566532135,-0.8371917009353638,-0.15242381393909454,2.569577932357788
68,19499,19494,-0.04267798364162445,0.1445273607969284,0.9804955720901489,-11.620295524597168,-11.441244125366211,-4.8955078125,1.8074105978012085,4.034646034240723,0.2826538681983948,-0.8816447257995605,-0.0614657960832119,2.5365817546844482
69,19509,19504,-0.07819821685552597,0.15983012318611145,0.9205717444419861,-7.774412631988525,-11.998454093933105,-4.394991874694824,1.8088173866271973,4.03184700012207,0.28342318534851074,-0.7327722311019897,-0.30502551794052124,2.4713692665100098
70,19519,19514,-0.02616773173213005,0.10103341192007065,0.9414749145507812,-5.286226272583008,-13.534737586975098,-3.4065847396850586,1.808306336402893,4.031996250152588,0.28437912464141846,-0.7840133905410767,-0.25806406140327454,2.4384474754333496
71,19529,19524,-0.006422497797757387,-0.01793249323964119,0.972877562046051,-3.2746176719665527,-13.955496788024902,-2.9017550945281982,1.8115670680999756,4.031045436859131,0.28533998131752014,-0.5100255012512207,-0.32501688599586487,2.407853603363037
72,19539,19534,-0.02739546075463295,-0.06914421916007996,1.0830304622650146,-3.788750171661377,-14.36497688293457,-2.925759792327881,1.8108872175216675,4.030628681182861,0.2861841320991516,-0.2401052564382553,-0.3822120726108551,2.3805694580078125
73,19549,19544,-0.03357892483472824,-0.065506212413311,1.0703269243240356,-4.221838474273682,-11.873847007751465,-2.9438138008117676,1.8108291625976562,4.029605865478516,0.2870329022407532,-0.29372841119766235,-0.5023691058158875,2.3381612300872803
74,19559,19554,-0.030333833768963814,0.00661347433924675,0.9956821799278259,-6.402048587799072,-7.147473335266113,-2.6365177631378174,1.812687873840332,4.030209064483643,0.2886253595352173,-0.16219556331634521,-0.4948406219482422,2.315885543823242
75,19569,19564,-0.004244781099259853,0.05107523500919342,0.9141250848770142,-9.47773551940918,-4.898989677429199,-2.3861653804779053,1.8127126693725586,4.029064655303955,0.28956568241119385,-0.00942104309797287,-0.6780592799186707,2.278766393661499
76,19579,19574,0.06841424852609634,-0.07071493566036224,0.9676364064216614,-8.940011978149414,-6.022170543670654,-2.67050838470459,1.8124154806137085,4.02968168258667,0.2905105650424957,-0.10256119072437286,-0.654123067855835,2.266977310180664
77,19589,19584,0.05445283651351929,-0.08705586194992065,1.0149192810058594,-8.703897476196289,-7.743838787078857,-2.7341468334198,1.814225196838379,4.027636528015137,0.2913491129875183,-0.0981496199965477,-0.8722874522209167,2.231975555419922
78,19599,19594,0.006635122466832399,-0.1142474040389061,0.9615162014961243,-6.279273509979248,-9.97834587097168,-2.532978057861328,1.8156846761703491,4.029584884643555,0.29071298241615295,0.09691989421844482,-0.8923763036727905,2.2092299461364746
79,19609,19604,-0.03942158818244934,-0.051398392766714096,0.9459441900253296,-3.4054179191589355,-9.997917175292969,-2.5037989616394043,1.8149617910385132,4.028651714324951,0.2914854884147644,0.15744340419769287,-0.9596853852272034,2.184978485107422
80,19619,19614,-0.015908779576420784,-0.07648202776908875,0.9227523803710938,-1.2079991102218628,-10.245744705200195,-1.8246159553527832,1.8155258893966675,4.027613162994385,0.2921679615974426,0.1543896347284317,-1.0529842376708984,2.164499521255493
81,19629,19624,0.011386806145310402,-0.08038043975830078,0.9959170818328857,2.821284532546997,-11.245989799499512,-1.1349769830703735,1.8175230026245117,4.028818130493164,0.29487043619155884,0.31911501288414,-1.0120429992675781,2.150315999984741
82,19639,19634,0.06713350117206573,-0.17910468578338623,0.997816264629364,3.9814701080322266,-12.028973579406738,-1.6268373727798462,1.8174484968185425,4.027886867523193,0.29561132192611694,0.3106343746185303,-0.9925369024276733,2.1418843269348145
83,19649,19644,0.0059058270417153835,-0.1533089429140091,1.0405384302139282,4.376043319702148,-7.073846817016602,-2.5665431022644043,1.8184882402420044,4.027024745941162,0.29630106687545776,0.46419718861579895,-1.0324106216430664,2.1195759773254395
84,19659,19654,0.02384309098124504,-0.15977537631988525,0.9872711896896362,2.700193405151367,-2.226405620574951,-2.9192049503326416,1.8193246126174927,4.0290069580078125,0.29670053720474243,0.6237166523933411,-0.9940007925033569,2.0844826698303223
85,19669,19664,0.02741319127380848,0.021522164344787598,0.9501028656959534,2.555835485458374,-0.8480347990989685,-2.860543727874756,1.818433403968811,4.028509140014648,0.2974240779876709,0.5001063346862793,-0.9698194861412048,2.0734546184539795
86,19679,19674,0.08141925185918808,-8.446651918347925e-05,0.8748070597648621,1.0725053548812866,-8.590141296386719,-3.0137205123901367,1.820986032485962,4.029157638549805,0.2981087863445282,0.6380177140235901,-1.037079095840454,2.037175416946411
87,19689,19684,-0.0075917975045740604,-0.028109952807426453,1.0230176448822021,0.9378126263618469,-8.449600219726562,-3.228580951690674,1.8201831579208374,4.029325485229492,0.29872825741767883,0.6717478036880493,-0.8858201503753662,2.0067994594573975
88,19699,19694,0.0006943418411538005,-0.04563967138528824,0.9708853363990784,2.864779233932495,-9.049969673156738,-3.6425154209136963,1.8214980363845825,4.028285026550293,0.29937487840652466,0.8635824918746948,-0.8847185969352722,1.963338851928711
89,19709,19704,-0.049135252833366394,0.06674250960350037,0.9721009731292725,1.8601102828979492,-7.003643989562988,-3.109724760055542,1.8210043907165527,4.028069972991943,0.29992184042930603,1.0426462888717651,-0.872829258441925,1.9194228649139404
90,19719,19714,-0.013822345063090324,-0.08629752695560455,0.9672771692276001,1.9079128503799438,-4.255525588989258,-2.782649517059326,1.8197648525238037,4.027900218963623,0.30042344331741333,1.0292799472808838,-0.9322874546051025,1.9054737091064453
91,19729,19724,0.003947453573346138,-0.08403348177671432,0.9297376275062561,2.1865649223327637,-1.2931865453720093,-2.6636295318603516,1.82159423828125,4.029104232788086,0.3019813299179077,0.9020277261734009,-0.906144917011261,1.8975043296813965
92,19739,19734,0.04200541973114014,-0.032711874693632126,0.9334123730659485,2.0806868076324463,0.8106832504272461,-2.117208480834961,1.823665976524353,4.029022693634033,0.302472859621048,0.8892149329185486,-0.8759795427322388,1.872897744178772
93,19749,19744,0.1520816534757614,-0.10566899925470352,0.9626218676567078,2.3235747814178467,0.7644369602203369,-3.4698331356048584,1.8243305683135986,4.028558731079102,0.3028617203235626,0.9311925172805786,-0.8344491720199585,1.8399407863616943
94,19759,19754,0.06507311016321182,-0.09494131058454514,1.0145066976547241,2.2570087909698486,-0.46939751505851746,-3.4870691299438477,1.8243567943572998,4.028365612030029,0.3048093616962433,0.9736373424530029,-0.8811114430427551,1.8080393075942993
95,19769,19764,0.018825476989150047,-0.0721164420247078,0.9639886021614075,3.021728515625,-2.347724437713623,-2.9639487266540527,1.8239539861679077,4.0286865234375,0.30526697635650635,0.9591854214668274,-0.7570542693138123,1.7649446725845337
96,19779,19774,-0.002273443154990673,-0.04369218274950981,1.026523470878601,2.4556632041931152,0.26541805267333984,-3.5258796215057373,1.8250586986541748,4.027955055236816,0.30572447180747986,1.055067777633667,-0.8013140559196472,1.741568684577942
97,19789,19784,-0.0009175968007184565,-0.001969242701306939,0.9116147756576538,3.111586809158325,-1.4504597187042236,-3.053208112716675,1.8239507675170898,4.027795791625977,0.3061623275279999,1.0930724143981934,-0.7520478367805481,1.6987658739089966
98,19799,19794,0.0260212030261755,0.0056766546331346035,0.8649061918258667,3.97780704498291,-0.9368793964385986,-1.859684944152832,1.8259191513061523,4.028334140777588,0.30541154742240906,0.9343035817146301,-0.7687700986862183,1.7006710767745972
99,19809,19804,0.017606226727366447,-0.0170905701816082,0.9734875559806824,3.7103357315063477,5.557141304016113,-1.9250420331954956,1.8254913091659546,4.027695178985596,0.30562183260917664,0.9558413624763489,-0.7725902199745178,1.6855170726776123
100,19819,19814,0.011902115307748318,-0.044182728976011276,1.0631071329116821,4.782110691070557,10.057154655456543,-2.0448482036590576,1.825069546699524,4.027656078338623,0.3057977855205536,0.861054003238678,-0.6895210146903992,1.66029691696167
101,19829,19824,-0.007614359259605408,0.002038500737398863,1.07532799243927,4.793520927429199,18.756393432617188,-1.9438024759292603,1.8263945579528809,4.028034687042236,0.30486786365509033,0.6617982983589172,-0.6669577956199646,1.6493446826934814
102,19839,19834,-0.02608892321586609,0.06079912558197975,1.0050078630447388,6.162777900695801,22.168540954589844,-2.0309226512908936,1.8267138004302979,4.02861213684082,0.30504661798477173,0.5110211372375488,-0.6490644216537476,1.6267813444137573
103,19849,19844,-0.04920848459005356,0.12516401708126068,0.9220856428146362,5.912556171417236,20.817903518676758,-1.5691508054733276,1.8275140523910522,4.027474880218506,0.30531737208366394,0.33467379212379456,-0.5312138795852661,1.5946260690689087
104,19859,19854,0.011563681066036224,-0.01073299441486597,0.9766508340835571,4.989068031311035,14.418472290039062,-1.0953794717788696,1.8273205757141113,4.027819633483887,0.3043184280395508,0.1837737262248993,-0.48942551016807556,1.5742560625076294
105,19869,19864,-0.01425293181091547,-0.12449207156896591,1.0557198524475098,5.584040641784668,13.713214874267578,-0.9845851063728333,1.825865387916565,4.027882099151611,0.3045111894607544,0.18124541640281677,-0.45609861612319946,1.5465253591537476
106,19879,19874,0.007002623286098242,-0.11019748449325562,1.0338891744613647,3.995433807373047,9.18214225769043,-0.7178278565406799,1.8267011642456055,4.027989864349365,0.3045802712440491,-0.02390427514910698,-0.34630537033081055,1.535956621170044
107,19889,19884,-0.05363783612847328,-0.051796022802591324,1.0800166130065918,4.410484313964844,8.482580184936523,-0.1394871324300766,1.8267728090286255,4.027879238128662,0.3054790794849396,-0.16390125453472137,-0.33491817116737366,1.5353299379348755
108,19899,19894,-0.042595140635967255,-0.05557042732834816,0.9917588233947754,3.830233335494995,9.599682807922363,-0.744666576385498,1.8273046016693115,4.028402805328369,0.30573031306266785,-0.22651006281375885,-0.327303409576416,1.5321635007858276
109,19909,19904,-0.002345387591049075,0.002420449862256646,0.9909200072288513,3.7861168384552,8.881570816040039,0.6157365441322327,1.8273252248764038,4.028657913208008,0.3060590922832489,-0.2827761173248291,-0.23800142109394073,1.524003505706787
110,19919,19914,0.05529725179076195,-0.0712800845503807,0.9963399767875671,3.511354684829712,7.649752140045166,0.49888351559638977,1.827581763267517,4.028652191162109,0.3063313364982605,-0.4067894220352173,-0.23156829178333282,1.534830927848816
111,19929,19924,0.027843322604894638,-0.11277186125516891,1.0106123685836792,3.8348660469055176,6.578105926513672,0.13988937437534332,1.8265385627746582,4.029140949249268,0.30586397647857666,-0.3483847379684448,-0.2294963151216507,1.5309703350067139
112,19939,19934,0.030595656484365463,-0.12478122115135193,0.9569142460823059,3.5718929767608643,6.190933704376221,0.6275649666786194,1.8255293369293213,4.029404640197754,0.30615919828414917,-0.3644140660762787,-0.21217036247253418,1.533306360244751
113,19949,19944,-0.0026369302067905664,-0.012018882669508457,0.989776074886322,4.639738082885742,8.464028358459473,0.815375030040741,1.8252023458480835,4.02884578704834,0.3064035177230835,-0.4013080894947052,-0.11679796129465103,1.537947177886963
114,19959,19954,0.029395272955298424,-0.058878447860479355,0.9592763185501099,4.375927925109863,8.92518424987793,1.2879172563552856,1.8257286548614502,4.030769348144531,0.30671191215515137,-0.544171929359436,-0.247649684548378,1.552977204322815
115,19969,19964,0.04857413098216057,-0.08689405769109726,1.0139474868774414,4.738821983337402,9.839323043823242,1.6408562660217285,1.8268903493881226,4.030577659606934,0.30687910318374634,-0.7724073529243469,-0.12513719499111176,1.5693107843399048
116,19979,19974,0.00039449980249628425,-0.01721356250345707,1.072680115699768,5.28042459487915,12.578414916992188,1.119810938835144,1.8270820379257202,4.030946254730225,0.30701708793640137,-0.9264537692070007,-0.09141629934310913,1.582984447479248
117,19989,19984,0.01380246877670288,-0.00979670137166977,0.9481784105300903,5.1787919998168945,12.894981384277344,0.31219446659088135,1.827427864074707,4.031050205230713,0.3061096966266632,-1.095201015472412,-0.12057936936616898,1.5911513566970825
118,19999,19994,-0.03157004714012146,0.06816084682941437,0.9298681020736694,5.395522594451904,9.62197208404541,1.1462918519973755,1.8268656730651855,4.031191349029541,0.3063433766365051,-1.0704222917556763,0.008500789292156696,1.6012768745422363
119,20009,20004,0.01727634109556675,0.06985632330179214,0.9520512819290161,5.8158979415893555,0.8957651853561401,1.9453167915344238,1.8264342546463013,4.031189441680908,0.30642664432525635,-1.120108723640442,-0.010499043390154839,1.6122045516967773
120,20019,20014,0.02934100851416588,-0.028188372030854225,1.0516961812973022,5.635875225067139,0.36954018473625183,2.070026397705078,1.8260689973831177,4.030230522155762,0.30651211738586426,-1.128779649734497,0.14204907417297363,1.6351958513259888
121,20029,20024,-0.011443217284977436,-0.03540797159075737,1.086581826210022,6.980229377746582,-1.473292589187622,2.2305338382720947,1.8265376091003418,4.030801773071289,0.30352190136909485,-1.101860523223877,0.28757765889167786,1.6642283201217651
122,20039,20034,-0.038176994770765305,0.01398860290646553,1.0345561504364014,5.305971145629883,2.254009962081909,1.5906553268432617,1.8264282941818237,4.029824256896973,0.30351799726486206,-1.0883487462997437,0.3383856415748596,1.6823394298553467
123,20049,20044,-0.00978377927094698,0.0942959114909172,0.9245206713676453,1.564819097518921,4.338632106781006,1.6345351934432983,1.8265637159347534,4.030722618103027,0.30353063344955444,-1.1063954830169678,0.3552655577659607,1.6966928243637085
124,20059,20054,-0.011825253255665302,0.10916242748498917,0.9675101637840271,-0.2603296935558319,1.87124502658844,1.4558089971542358,1.8275550603866577,4.029500961303711,0.2996985912322998,-1.2792749404907227,0.39562487602233887,1.7116328477859497
125,20069,20064,0.018723219633102417,-0.044041793793439865,0.9930901527404785,-1.3967655897140503,2.5804851055145264,1.4811811447143555,1.8282363414764404,4.03029203414917,0.29944828152656555,-1.274123191833496,0.2471691370010376,1.708624243736267
126,20079,20074,0.015841271728277206,-0.01705222949385643,1.0004533529281616,-2.546365261077881,-0.6588460206985474,1.7545558214187622,1.8277478218078613,4.030308246612549,0.2991901636123657,-1.2527868747711182,0.24735747277736664,1.730453372001648
127,20089,20084,-0.03299880400300026,-0.05045054852962494,1.0043363571166992,-1.745664358139038,0.8378676176071167,0.9293758273124695,1.8276489973068237,4.0304484367370605,0.30130839347839355,-1.215536117553711,0.24884355068206787,1.7492440938949585
128,20099,20094,0.0284937284886837,-0.014966828748583794,1.0067412853240967,-0.1546013057231903,3.097787618637085,1.262688159942627,1.8275730609893799,4.030387878417969,0.30117183923721313,-1.182563304901123,0.27108335494995117,1.7686548233032227
129,20109,20104,0.038340020924806595,-0.11509906500577927,1.0116883516311646,2.67120623588562,-0.7238262891769409,1.1358352899551392,1.8274774551391602,4.030111789703369,0.3010238707065582,-1.1454347372055054,0.3289371430873871,1.7922680377960205
130,20119,20114,0.011460489593446255,-0.18462902307510376,1.0288362503051758,5.525783538818359,-1.3836586475372314,1.5208109617233276,1.8272292613983154,4.029709815979004,0.29926496744155884,-1.0818387269973755,0.42194682359695435,1.8155367374420166
131,20129,20124,-0.013743619434535503,-0.03604741021990776,1.0057213306427002,4.470089435577393,0.3992796540260315,1.7100090980529785,1.8280694484710693,4.030766487121582,0.29899612069129944,-1.1979238986968994,0.36894282698631287,1.8061367273330688
132,20139,20134,0.019033901393413544,-0.01796681247651577,1.0049283504486084,3.2319746017456055,2.9047720432281494,1.5280637741088867,1.8279008865356445,4.02964973449707,0.29882314801216125,-1.1679006814956665,0.5478032827377319,1.8522504568099976
133,20149,20144,0.026385637000203133,-0.014970912598073483,1.046817421913147,0.9728122353553772,1.8540339469909668,0.9238739609718323,1.8288370370864868,4.0310258865356445,0.29856398701667786,-1.2578623294830322,0.43572527170181274,1.8352469205856323
134,20159,20154,-0.020247822627425194,0.046692486852407455,1.0328254699707031,-1.6432551145553589,1.1028649806976318,0.7291904091835022,1.8298841714859009,4.032360076904297,0.29813122749328613,-1.2947310209274292,0.38398197293281555,1.832124948501587
135,20169,20164,-0.045242730528116226,0.027245840057730675,1.0509926080703735,-3.127070426940918,1.391849160194397,0.2919256389141083,1.8303576707839966,4.032214164733887,0.298030823469162,-1.2571831941604614,0.4568067193031311,1.8605271577835083
136,20179,20174,0.027970919385552406,-0.030314572155475616,1.024304986000061,-1.8028979301452637,0.21483734250068665,-0.03675173223018646,1.8309046030044556,4.032772541046143,0.29799434542655945,-1.21522057056427,0.4330390393733978,1.8663021326065063
137,20189,20184,0.015624825842678547,-0.022730976343154907,1.0210740566253662,-0.924409806728363,-3.1158292293548584,-0.07956503331661224,1.8329037427902222,4.033095359802246,0.3006064295768738,-1.3707975149154663,0.4352709949016571,1.852414608001709
138,20199,20194,-0.011542136780917645,0.029817180708050728,1.0892332792282104,-0.08764881640672684,-3.674147367477417,-0.19906704127788544,1.8325600624084473,4.0342698097229,0.3007928729057312,-1.2393524646759033,0.35760894417762756,1.8456871509552002
139,20209,20204,0.012405609712004662,0.00920006725937128,1.0576558113098145,0.9152854084968567,-4.900906562805176,-0.2473401427268982,1.8328161239624023,4.0338454246521,0.3009817898273468,-1.1771794557571411,0.38550347089767456,1.8513188362121582
140,20219,20214,-0.001263176091015339,-0.07695861160755157,1.1145678758621216,1.555867314338684,-5.820745468139648,-0.3313007354736328,1.8348948955535889,4.034457683563232,0.3000703752040863,-1.2159929275512695,0.4069480001926422,1.846074104309082
141,20229,20224,0.05849698930978775,-0.09534353017807007,1.0503621101379395,3.2805113792419434,-1.6939783096313477,-0.8310758471488953,1.8372540473937988,4.035785675048828,0.3002377450466156,-1.2843509912490845,0.30906441807746887,1.807892084121704
142,20239,20234,-0.0218974482268095,-0.014156727120280266,0.9489725232124329,3.116257429122925,-4.087856292724609,0.35225313901901245,1.8374152183532715,4.035285472869873,0.30061349272727966,-1.2370461225509644,0.36089473962783813,1.822458267211914
143,20249,20244,0.003142936620861292,0.02948390506207943,1.105488896369934,3.907090187072754,-5.460284233093262,0.13204868137836456,1.8372695446014404,4.034928321838379,0.3011075556278229,-1.0531615018844604,0.4432901442050934,1.8449468612670898
144,20259,20254,0.017090726643800735,-0.018822835758328438,1.0419138669967651,3.2054800987243652,-5.689633369445801,-0.6350519061088562,1.8389664888381958,4.035313606262207,0.2992180585861206,-1.1865234375,0.44197267293930054,1.8236384391784668
145,20269,20264,-0.012358998879790306,-0.026225676760077477,1.0147401094436646,1.4253458976745605,-5.110248565673828,-0.0884329229593277,1.839058518409729,4.035173416137695,0.2995694875717163,-1.0659446716308594,0.51594078540802,1.834265947341919
146,20279,20274,0.007383004762232304,-0.010925214737653732,1.0318926572799683,0.18420851230621338,-3.7551841735839844,-0.8540346622467041,1.8394855260849,4.035139083862305,0.29992741346359253,-0.9563620686531067,0.561558723449707,1.8403770923614502
147,20289,20284,-0.008683918975293636,0.04660007730126381,0.9942209720611572,-1.6482212543487549,-5.851272106170654,-0.9692806005477905,1.8404802083969116,4.034789085388184,0.30058911442756653,-0.9423137903213501,0.574461817741394,1.8312493562698364
148,20299,20294,-0.017472809180617332,0.04157426953315735,1.0469753742218018,-2.938133955001831,-4.694113254547119,-1.3674396276474,1.8413081169128418,4.034399509429932,0.3009476661682129,-0.9134531021118164,0.5565868020057678,1.8179187774658203
149,20309,20304,0.021163951605558395,-0.03362239524722099,1.016905665397644,-3.6511876583099365,-4.0299153327941895,-1.2687983512878418,1.8419677019119263,4.035459995269775,0.30146685242652893,-0.7218932509422302,0.5196021795272827,1.8170236349105835
150,20319,20314,-0.0045102802105247974,-0.034545835107564926,0.9931867122650146,-3.2900238037109375,-4.501606464385986,-1.2455345392227173,1.8463267087936401,4.0346760749816895,0.3014063239097595,-1.0116925239562988,0.6273775100708008,1.7897160053253174
151,20329,20324,-0.006115210708230734,-0.0013168600853532553,1.0041983127593994,-3.160510540008545,-4.777945518493652,-1.0343774557113647,1.84576416015625,4.034084796905518,0.3020048439502716,-0.8095965385437012,0.5666877031326294,1.7878133058547974
152,20339,20334,-0.00044802104821428657,-0.024031559005379677,1.015343427658081,-3.8327138423919678,-3.829374313354492,-1.7957403659820557,1.8472542762756348,4.0343098640441895,0.30242273211479187,-0.7720572352409363,0.5055313110351562,1.7704493999481201
153,20349,20344,0.01126249972730875,0.056093018501996994,0.9985892176628113,-3.833101511001587,-7.109557151794434,-1.563817024230957,1.8482803106307983,4.0349225997924805,0.3028402328491211,-0.7176033854484558,0.43591374158859253,1.7536752223968506
154,20359,20354,-0.020750517025589943,0.005597446579486132,1.027391791343689,-3.931191921234131,-7.933817386627197,-1.689002275466919,1.8494319915771484,4.034999370574951,0.30337101221084595,-0.6343528032302856,0.3665444254875183,1.7357614040374756
155,20369,20364,0.02300013042986393,-0.029521934688091278,0.9878600239753723,-3.5347163677215576,-7.241304397583008,-1.4120171070098877,1.8500069379806519,4.035593509674072,0.30389881134033203,-0.4633912146091461,0.3083466589450836,1.7250971794128418
156,20379,20374,0.004674861207604408,0.0025792436208575964,1.0093731880187988,-1.9057163000106812,-6.216372966766357,-1.7227119207382202,1.8537744283676147,4.035645961761475,0.30409565567970276,-0.6957285404205322,0.25529909133911133,1.6785759925842285
157,20389,20384,-0.00028469981043599546,-0.041990067809820175,0.9824544787406921,-1.8288284540176392,-4.7243428230285645,-1.6561987400054932,1.8544681072235107,4.036093235015869,0.30462682247161865,-0.5355933904647827,0.22191929817199707,1.6649155616760254
158,20399,20394,-0.0062245819717645645,-0.011507643386721611,1.0002533197402954,-0.026516709476709366,-5.480281829833984,-1.6650214195251465,1.8562153577804565,4.036891937255859,0.30508312582969666,-0.3217907249927521,0.20547227561473846,1.6661781072616577
159,20409,20404,-0.005865355022251606,-0.0146492226049304,0.9534667134284973,-0.022820083424448967,-5.871933937072754,-1.776944637298584,1.8570237159729004,4.03670072555542,0.30558744072914124,-0.42392149567604065,0.20097994804382324,1.6447913646697998
160,20419,20414,-0.023658668622374535,-0.04311171919107437,0.9709936380386353,0.18758851289749146,-6.005408763885498,-1.493701457977295,1.8585916757583618,4.039051055908203,0.30391567945480347,-0.26256096363067627,0.2868729531764984,1.648485779762268
161,20429,20424,0.02588597871363163,-0.04318494349718094,1.0079383850097656,1.0780493021011353,-6.616694927215576,-1.8514357805252075,1.8590954542160034,4.038322448730469,0.3042638599872589,-0.3434751331806183,0.2954767644405365,1.6267657279968262
162,20439,20434,0.030811253935098648,-0.043473947793245316,0.9859334826469421,0.1891341507434845,-5.3545122146606445,-2.059691905975342,1.8619096279144287,4.040497779846191,0.3043864369392395,-0.18225502967834473,0.30455681681632996,1.6208796501159668
163,20449,20444,-0.05156883969902992,0.07516568154096603,0.992220938205719,-2.4003238677978516,-5.5825300216674805,-1.360780119895935,1.8615422248840332,4.039475917816162,0.30475571751594543,-0.029217040166258812,0.2970947027206421,1.6081773042678833
164,20459,20454,0.02223629504442215,0.02582254260778427,0.9124314785003662,-5.161526679992676,-6.532736778259277,-0.8041996955871582,1.8619706630706787,4.039995193481445,0.3044224679470062,-0.04582672938704491,0.32596150040626526,1.5912519693374634
165,20469,20464,-0.004771361127495766,0.09182221442461014,1.021299123764038,-5.074033737182617,-7.39343786239624,-0.6798304319381714,1.8639042377471924,4.039485931396484,0.30450111627578735,-0.14119914174079895,0.2353619486093521,1.5685547590255737
166,20479,20474,0.014920609071850777,0.009080767631530762,1.0402865409851074,-3.5955214500427246,-6.727426528930664,-0.10046180337667465,1.8665765523910522,4.039941310882568,0.30448389053344727,0.017177332192659378,0.21968360245227814,1.5731538534164429
167,20489,20484,-0.03728930279612541,0.025220505893230438,1.0572481155395508,-2.123094081878662,-4.294137954711914,-1.0574595928192139,1.867488145828247,4.041792392730713,0.30875250697135925,0.0027108865324407816,0.14331482350826263,1.5691697597503662
168,20499,20494,-0.06077369675040245,0.09746848046779633,0.9779990315437317,-2.680539131164551,-2.4654953479766846,-0.4611895680427551,1.8696497678756714,4.041669845581055,0.30916962027549744,0.13018672168254852,0.09074466675519943,1.5693042278289795
169,20509,20504,-0.025136934593319893,0.07613936811685562,0.9272621273994446,-2.5151703357696533,-4.343709468841553,0.49827438592910767,1.8692965507507324,4.041510581970215,0.3097216784954071,0.23495417833328247,0.04929398372769356,1.559801459312439
170,20519,20514,-0.010720569640398026,0.0015525206690654159,1.0164213180541992,-0.44067227840423584,-6.982272148132324,0.2239798903465271,1.8705601692199707,4.042471885681152,0.30980023741722107,0.18560948967933655,0.020000092685222626,1.5634441375732422
171,20529,20524,0.016064640134572983,-0.08787496387958527,1.078029990196228,-0.05701861530542374,-5.773606300354004,-0.4629305303096771,1.8728821277618408,4.042934417724609,0.31011560559272766,0.23833484947681427,0.010874307714402676,1.5636030435562134
172,20539,20534,0.0004735113470815122,-0.10404336452484131,1.0720837116241455,1.6853018999099731,-1.8345328569412231,-0.8870065212249756,1.8742386102676392,4.042870998382568,0.3105456233024597,0.3513544797897339,0.01240822859108448,1.5617488622665405
173,20549,20544,-0.015885720029473305,-0.03657427057623863,0.9597768187522888,2.349994659423828,-1.2158286571502686,-0.6937552690505981,1.8748449087142944,4.042726993560791,0.3144148588180542,0.3559863567352295,0.11016405373811722,1.5471111536026
174,20559,20554,-0.004312093835324049,-0.02669314667582512,0.9703041315078735,0.9034547209739685,-1.043900966644287,-0.5484170317649841,1.8762141466140747,4.042226791381836,0.3151159882545471,0.34703898429870605,0.13759973645210266,1.5392533540725708
175,20569,20564,0.005064676515758038,-0.024897199124097824,0.9693062901496887,-1.3207494020462036,-2.9493520259857178,0.28920212388038635,1.8774384260177612,4.042937755584717,0.3158533275127411,0.4915078580379486,0.07367749512195587,1.5564045906066895
176,20579,20574,0.02919568493962288,-0.15742194652557373,1.0347295999526978,-2.1269288063049316,-5.938427448272705,-0.06214124709367752,1.8774900436401367,4.044517517089844,0.3166846036911011,0.5641448497772217,0.06418559700250626,1.5661661624908447
177,20589,20584,0.015490705147385597,-0.20490655303001404,1.0221437215805054,-2.3409578800201416,-4.2870869636535645,-0.18600894510746002,1.8791348934173584,4.045814037322998,0.31753674149513245,0.5802711248397827,0.03037441335618496,1.5664746761322021
178,20599,20594,-0.010644923895597458,-0.17280900478363037,0.9729866981506348,-1.9914369583129883,-0.40808364748954773,-0.7973254919052124,1.880281925201416,4.045777320861816,0.3182529807090759,0.5833318829536438,-0.010136944241821766,1.5655996799468994
179,20609,20604,-0.0233928095549345,-0.019436495378613472,0.9786168336868286,-1.905789852142334,1.5291967391967773,-0.991395890712738,1.8812919855117798,4.046070575714111,0.3189617693424225,0.6149629354476929,-0.04565411061048508,1.5544607639312744
180,20619,20614,0.011935894377529621,0.0656447783112526,0.9293084144592285,-1.6702007055282593,4.241724014282227,-0.6189874410629272,1.8826502561569214,4.04620361328125,0.32037416100502014,0.61232990026474,0.0004694185627158731,1.5482194423675537
181,20629,20624,0.059995632618665695,0.006857205182313919,0.9150276780128479,-0.8626187443733215,2.443275213241577,-0.560153067111969,1.882522463798523,4.046389102935791,0.32108643651008606,0.5827532410621643,-0.023731548339128494,1.5428000688552856
182,20639,20634,0.05834249034523964,-0.13279111683368683,0.9203882813453674,1.105430006980896,0.12289034575223923,-0.7977198958396912,1.883949637413025,4.046184062957764,0.3217189610004425,0.48624590039253235,-0.035174109041690826,1.535375714302063
183,20649,20644,0.008563081733882427,-0.08461876213550568,0.9500263333320618,1.323050618171692,-3.3140368461608887,-0.8319265842437744,1.885543704032898,4.045755386352539,0.32421180605888367,0.5686560869216919,-0.02468559704720974,1.5262842178344727
184,20659,20654,-0.06560803204774857,-0.06447342038154602,1.0073997974395752,1.3990294933319092,-0.27213260531425476,-1.0950136184692383,1.885263204574585,4.045742988586426,0.32495883107185364,0.6714009642601013,-0.005908326245844364,1.5176175832748413
185,20669,20664,0.017299026250839233,-0.04112161323428154,0.9523138999938965,1.0655369758605957,-1.3364592790603638,-0.7571712732315063,1.8858869075775146,4.046667098999023,0.3255879580974579,0.5294572114944458,0.02288350835442543,1.5114346742630005
186,20679,20674,-0.033589527010917664,0.07060575485229492,0.9557348489761353,-0.08074678480625153,3.8399949073791504,-0.7504237294197083,1.8876392841339111,4.0464911460876465,0.32611164450645447,0.6137313842773438,0.018041174858808517,1.5207111835479736
187,20689,20684,0.040420740842819214,-0.1298224925994873,0.9273413419723511,-1.901592493057251,3.3474411964416504,-0.9553484916687012,1.8878140449523926,4.047703742980957,0.3234463930130005,0.5852299332618713,0.009465900249779224,1.5227305889129639
188,20699,20694,0.019311388954520226,-0.19853350520133972,0.9366711378097534,-1.9284207820892334,3.2862284183502197,-1.1014364957809448,1.8884437084197998,4.047174453735352,0.32373401522636414,0.612536609172821,-0.016329774633049965,1.5264002084732056
189,20709,20704,-0.04470301792025566,0.027753427624702454,0.9932387471199036,-1.2980859279632568,3.4034669399261475,-1.4580512046813965,1.888756513595581,4.048039436340332,0.3240392208099365,0.5542238354682922,0.02983761951327324,1.508171558380127
190,20719,20714,-0.04361554980278015,0.05898687615990639,0.9884530901908875,-1.1256037950515747,4.370450019836426,-1.1679589748382568,1.8899942636489868,4.047712326049805,0.3203757107257843,0.48886382579803467,-0.0016541157383471727,1.5066415071487427
191,20729,20724,-0.05743122100830078,0.04947514832019806,0.9833604693412781,-1.0538899898529053,4.800237655639648,0.0026231324300169945,1.8900879621505737,4.048220634460449,0.3203543722629547,0.4924585819244385,-0.024627724662423134,1.4986740350723267
192,20739,20734,0.03600016236305237,-0.11081279069185257,0.9735099077224731,-1.8588907718658447,5.960213661193848,-1.3475334644317627,1.890514612197876,4.049401760101318,0.32035887241363525,0.48669669032096863,-0.049220651388168335,1.49695885181427
193,20749,20744,0.012549107894301414,-0.01722215674817562,0.9437059760093689,-1.6785997152328491,5.0238823890686035,-0.678618848323822,1.8900576829910278,4.048975944519043,0.31951379776000977,0.32055264711380005,-0.07607430964708328,1.4909979104995728
194,20759,20754,0.0015725558623671532,0.06241161376237869,0.9727733731269836,-1.1395281553268433,5.038147449493408,-0.742118775844574,1.8921440839767456,4.049135208129883,0.3193012475967407,0.3156476616859436,-0.1019289642572403,1.4737098217010498
195,20769,20764,0.0009841870050877333,0.004590640310198069,0.9736670255661011,-0.22661462426185608,3.8568689823150635,-0.7519753575325012,1.893412709236145,4.050236701965332,0.3191591501235962,0.31440475583076477,-0.11714499443769455,1.487362265586853
196,20779,20774,-0.00321869901381433,0.004707440733909607,0.9918530583381653,-0.4620339572429657,5.340662479400635,-1.2859768867492676,1.8931845426559448,4.050265312194824,0.31896844506263733,0.1736311912536621,-0.12153464555740356,1.4730113744735718
197,20789,20784,0.022267373278737068,-0.035509731620550156,0.9637648463249207,0.6114266514778137,5.886747360229492,-1.429560661315918,1.8954955339431763,4.049805641174316,0.3172280490398407,0.10849576443433762,-0.12322486191987991,1.446441888809204
198,20799,20794,-0.040031690150499344,0.023394985124468803,0.98488450050354,0.39156410098075867,4.880751609802246,-0.744523823261261,1.8964900970458984,4.04946756362915,0.3168492615222931,0.11602209508419037,-0.118588887155056,1.434441089630127
199,20809,20804,0.01136139314621687,-0.007321598008275032,0.9238032698631287,0.3011050522327423,-2.2745962142944336,0.17283602058887482,1.8969268798828125,4.049825668334961,0.31645673513412476,0.06011568009853363,-0.10996512323617935,1.4226595163345337
200,20819,20814,-0.020172804594039917,0.04658844694495201,1.059404969215393,1.085931658744812,1.8665088415145874,-0.23338715732097626,1.8973023891448975,4.049185752868652,0.31763285398483276,0.13175459206104279,-0.10537855327129364,1.4194374084472656
201,20829,20824,0.01689942739903927,-0.022861918434500694,1.0035897493362427,1.1031419038772583,0.6848760843276978,-0.7033974528312683,1.8964436054229736,4.049510955810547,0.3173990249633789,0.182652086019516,-0.0884300172328949,1.4256020784378052
202,20839,20834,-0.008782357908785343,0.02019968070089817,1.0179005861282349,-0.9018572568893433,3.33439040184021,0.7863614559173584,1.89644455909729,4.051545143127441,0.3171568214893341,0.06962969899177551,-0.07299946248531342,1.455294132232666
203,20849,20844,-0.0285834651440382,-0.005586231593042612,1.0428898334503174,-1.3020076751708984,6.535868167877197,-0.5539973378181458,1.8983806371688843,4.052006721496582,0.3150402307510376,0.08243786543607712,-0.07832126319408417,1.470718264579773
204,20859,20854,-0.004166050348430872,0.03988134115934372,0.9695759415626526,-2.8730955123901367,5.64565896987915,-0.21729156374931335,1.8992005586624146,4.05396032333374,0.31471940875053406,-0.028997672721743584,-0.09889599680900574,1.4851641654968262
205,20869,20864,-0.03568887710571289,0.07191786170005798,1.0662412643432617,-1.4187475442886353,3.2594592571258545,-0.6103567481040955,1.9004665613174438,4.054119110107422,0.31431886553764343,-0.1347014307975769,-0.13263846933841705,1.4802088737487793
206,20879,20874,-0.007483179215341806,0.006730292923748493,1.1187177896499634,0.08823078125715256,2.2827699184417725,-1.3623393774032593,1.902129054069519,4.053895950317383,0.312243789434433,-0.1330815702676773,-0.14827603101730347,1.4633550643920898
207,20889,20884,0.004254690837115049,-0.015112902037799358,1.0312426090240479,-0.07769935578107834,3.6581785678863525,-1.3554131984710693,1.902583360671997,4.053849220275879,0.3119857609272003,-0.12158834934234619,-0.1520245522260666,1.4432495832443237
208,20899,20894,-0.01625702902674675,-0.02984415739774704,1.0181286334991455,1.112089991569519,1.7451622486114502,-1.1853599548339844,1.901816964149475,4.053765296936035,0.31183114647865295,-0.10205551236867905,-0.14841581881046295,1.4278650283813477
209,20909,20904,-0.004334103316068649,0.005365921650081873,1.039105772972107,0.48135972023010254,-1.161138653755188,0.6464452147483826,1.9024088382720947,4.054617404937744,0.3115980923175812,-0.05696279555559158,-0.12236427515745163,1.4045628309249878
210,20919,20914,0.05797002092003822,-0.1540398746728897,1.0709617137908936,2.19646954536438,0.13220389187335968,-0.3055998384952545,1.9020472764968872,4.053537845611572,0.3133741617202759,-0.1477021425962448,-0.24700263142585754,1.4347097873687744
211,20929,20924,0.05415929853916168,-0.14443035423755646,1.059622883796692,2.8195009231567383,5.736114025115967,-1.5264995098114014,1.903138518333435,4.056393146514893,0.31330835819244385,-0.249196395277977,-0.1973891407251358,1.4335280656814575
212,20939,20934,0.0042016776278615,-0.040935393422842026,0.9647669196128845,3.35673189163208,10.419827461242676,-1.9061750173568726,1.9049683809280396,4.056899547576904,0.3133322298526764,-0.24933436512947083,-0.1440918743610382,1.4421041011810303
213,20949,20944,0.01771136000752449,-0.043671660125255585,0.9022596478462219,2.7725226879119873,3.4406638145446777,-1.28067946434021,1.9039175510406494,4.057015895843506,0.3136606514453888,-0.27353858947753906,-0.0805337205529213,1.4238977432250977
214,20959,20954,0.003884801408275962,0.0018437928520143032,1.0254037380218506,2.9795236587524414,0.2871459126472473,-1.1321630477905273,1.90433669090271,4.0573554039001465,0.31360530853271484,-0.2456103414297104,-0.1731109321117401,1.4094380140304565
215,20969,20964,0.02722880430519581,-0.07125721126794815,1.051772117614746,2.44590425491333,-1.097456455230713,-0.9110062718391418,1.9044333696365356,4.058732032775879,0.31359538435935974,-0.1776832789182663,-0.11109395325183868,1.4071025848388672
216,20979,20974,0.0005048657767474651,-0.09389190375804901,1.0533932447433472,3.90157413482666,0.6874393820762634,-0.7250266671180725,1.906628966331482,4.058621883392334,0.31411442160606384,-0.33339232206344604,-0.05097989737987518,1.3914730548858643
217,20989,20984,0.009326513856649399,-0.02638474479317665,1.040177822113037,4.436436653137207,2.1429338455200195,-0.7759957313537598,1.9089727401733398,4.0591840744018555,0.3141638934612274,-0.41365930438041687,0.02567598782479763,1.4004888534545898
218,20999,20994,0.005459342617541552,-0.011633772403001785,0.9899806976318359,3.3423290252685547,0.8497925996780396,-0.8353533744812012,1.90981924533844,4.0593037605285645,0.314268559217453,-0.36175069212913513,-0.04293741285800934,1.407061219215393
219,21009,21004,-0.0022663043346256018,-0.011409074999392033,1.0822234153747559,2.920140266418457,-2.805691957473755,-0.36139264702796936,1.9103314876556396,4.061460971832275,0.31451156735420227,-0.392473042011261,0.041214052587747574,1.3982229232788086
220,21019,21014,-0.010169260203838348,-0.04676147550344467,1.0784560441970825,2.303562879562378,1.6831457614898682,-1.30950129032135,1.9112293720245361,4.061302661895752,0.314899742603302,-0.39820587635040283,0.11183062195777893,1.391815423965454
221,21029,21024,-0.004690229427069426,0.008843722753226757,1.0414235591888428,2.167764186859131,-0.31071823835372925,-1.4410752058029175,1.9133281707763672,4.06196928024292,0.31516364216804504,-0.4959017038345337,0.01157015934586525,1.3773146867752075
222,21039,21034,-0.010580291971564293,-0.027243049815297127,1.0501946210861206,1.2289509773254395,0.4997578263282776,-1.3443495035171509,1.914120078086853,4.062273979187012,0.3154973089694977,-0.40436360239982605,0.06651096791028976,1.3466609716415405
223,21049,21044,-0.0026163130532950163,-0.039982281625270844,0.9699994921684265,4.167963027954102,-1.3138970136642456,-1.5366395711898804,1.9125226736068726,4.061383247375488,0.3130960166454315,-0.3174903094768524,0.12367142736911774,1.3476210832595825
224,21059,21054,-0.00940252747386694,-0.0070569878444075584,1.0184779167175293,4.32932186126709,1.1502825021743774,-1.3945802450180054,1.9151734113693237,4.062594413757324,0.3132578134536743,-0.45218220353126526,0.1355341374874115,1.321845531463623
225,21069,21064,0.03573610633611679,0.0737413689494133,0.9655553102493286,4.3545684814453125,-1.629660725593567,-0.8092256784439087,1.9153999090194702,4.062277793884277,0.3134937286376953,-0.44710126519203186,0.14861220121383667,1.3066157102584839
226,21079,21074,-0.001994128106161952,-0.010797100141644478,0.9975663423538208,3.265277624130249,-1.7654023170471191,-0.6632989048957825,1.9164546728134155,4.062311172485352,0.31315672397613525,-0.5031837224960327,0.235121488571167,1.2983955144882202
227,21089,21084,-0.026680950075387955,0.03805900737643242,0.9515656232833862,2.637072801589966,0.1781061887741089,-0.5435828566551208,1.9175593852996826,4.062576770782471,0.31333908438682556,-0.36509600281715393,0.31023281812667847,1.2934932708740234
228,21099,21094,0.022649992257356644,0.02187701314687729,0.9438118934631348,0.181218683719635,-0.5642164349555969,-0.6795654296875,1.917897343635559,4.0620598793029785,0.3134819269180298,-0.48174771666526794,0.2886298596858978,1.269683837890625
229,21109,21104,0.06442144513130188,-0.11807814240455627,0.9540638327598572,-1.398781418800354,-3.2873027324676514,-0.5696756839752197,1.9194128513336182,4.061699867248535,0.31358182430267334,-0.3559515178203583,0.3121922016143799,1.2417941093444824
230,21119,21114,0.00015491775411646813,-0.18002092838287354,1.0247840881347656,-0.4348395764827728,-2.899548053741455,-0.49595654010772705,1.9188979864120483,4.06135368347168,0.3138984739780426,-0.2938591241836548,0.3204651474952698,1.2368669509887695
231,21129,21124,0.015871237963438034,-0.05680955946445465,0.9788970947265625,-0.22655725479125977,-2.515226364135742,-0.2810547351837158,1.9187824726104736,4.060810565948486,0.3140018582344055,-0.1636224240064621,0.33299747109413147,1.2251174449920654
232,21139,21134,-0.021567609161138535,-0.0032247293274849653,1.0081111192703247,-1.0280183553695679,-0.06786059588193893,-0.03317844867706299,1.9186997413635254,4.060626983642578,0.3141337037086487,-0.21048058569431305,0.3372856676578522,1.2246750593185425
233,21149,21144,0.055765535682439804,-0.05314069986343384,0.9717549085617065,-1.9485790729522705,2.0286293029785156,-0.7301169633865356,1.921199083328247,4.061456680297852,0.3133956789970398,-0.28276264667510986,0.2522961497306824,1.2159438133239746
234,21159,21154,0.017378292977809906,-0.0038408609107136726,1.0083849430084229,-2.7925310134887695,3.94232177734375,-1.1387640237808228,1.9225574731826782,4.0610575675964355,0.3133159577846527,-0.3805481195449829,0.3206407427787781,1.225343108177185
235,21169,21164,0.006487902719527483,-0.008543753996491432,0.9814006090164185,-2.514725685119629,4.654298782348633,-1.501905083656311,1.922570824623108,4.061331748962402,0.3134056329727173,-0.34469833970069885,0.28374260663986206,1.2241976261138916
236,21179,21174,-0.006709548644721508,-0.10023654252290726,0.9845585823059082,-0.6532426476478577,1.7585759162902832,-1.2686278820037842,1.9229944944381714,4.062546730041504,0.3121897876262665,-0.37482649087905884,0.2639872431755066,1.227400779724121
237,21189,21184,0.007055534049868584,-0.08918304741382599,0.9476810097694397,-0.32840126752853394,-2.4987876415252686,-1.35906982421875,1.9251081943511963,4.062289237976074,0.3119249939918518,-0.5132900476455688,0.2620500326156616,1.194174885749817
238,21199,21194,-0.04236249998211861,-0.036727722734212875,0.9624054431915283,-0.03346124291419983,-4.507042407989502,-0.6474953293800354,1.9257609844207764,4.0614118576049805,0.31185755133628845,-0.4371365010738373,0.2665467858314514,1.174667477607727
239,21209,21204,-0.014343807473778725,-0.014811256900429726,0.9976871609687805,0.5381596088409424,-5.16035270690918,-0.2952836751937866,1.9261051416397095,4.061524868011475,0.30973175168037415,-0.33173587918281555,0.2705385088920593,1.1692335605621338
