,timestamp_start,timestamp_end,acc.x,acc.y,acc.z,gyro.x,gyro.y,gyro.z,stateEstimate.x,stateEstimate.y,stateEstimate.z,stabilizer.pitch,stabilizer.roll,stabilizer.yaw
0,24457,24456,0.002611761447042227,0.044410184025764465,1.043543815612793,2.435763359069824,11.732992172241211,-2.7005183696746826,0.5262117385864258,0.5333736538887024,0.16912823915481567,0.5913982391357422,0.3697327673435211,2.8043487071990967
1,24467,24466,0.011795382015407085,0.018223918974399567,1.0213543176651,13.415184020996094,8.221033096313477,-2.2815616130828857,0.5261838436126709,0.5330333113670349,0.17114534974098206,0.4852220118045807,0.5087773203849792,2.7602243423461914
2,24477,24476,0.01738540269434452,0.08312518894672394,0.988209068775177,20.192094802856445,4.3653645515441895,-1.2598910331726074,0.5264701247215271,0.5323222875595093,0.17234140634536743,0.3618461489677429,0.7977030873298645,2.7137486934661865
3,24487,24486,0.017270192503929138,0.11249484866857529,1.05025053024292,19.468406677246094,-1.1295764446258545,-1.1744170188903809,0.5265893340110779,0.5314784646034241,0.1740538626909256,0.30925503373146057,1.1494895219802856,2.680952310562134
4,24497,24496,0.01962866820394993,-0.027663160115480423,0.9952032566070557,13.506553649902344,-4.123415470123291,-1.1973586082458496,0.5269641876220703,0.5307713747024536,0.17567837238311768,0.26601845026016235,1.450792908668518,2.6541993618011475
5,24507,24506,0.012352756224572659,0.03246622532606125,1.0227068662643433,2.2663514614105225,-5.393865585327148,-1.220771312713623,0.5267890095710754,0.5303938388824463,0.17597746849060059,0.35200658440589905,1.618501901626587,2.6442580223083496
6,24517,24516,-0.005098492838442326,-0.01848651096224785,1.026513934135437,-9.86836051940918,-6.027729034423828,-1.423344373703003,0.5269685387611389,0.5305234789848328,0.17791849374771118,0.3812157213687897,1.5946476459503174,2.6307780742645264
7,24527,24526,0.026296090334653854,0.02986924722790718,1.0095666646957397,-19.066253662109375,-4.537803649902344,-1.633225679397583,0.5245200395584106,0.5292027592658997,0.17951369285583496,0.8271344304084778,1.6589099168777466,2.660895586013794
8,24537,24536,-0.01696685515344143,0.01592339389026165,1.0063279867172241,-22.197328567504883,-0.9989290833473206,-2.4822375774383545,0.5348372459411621,0.5318419933319092,0.1843571960926056,-0.7552313208580017,1.0702613592147827,2.4038219451904297
9,24547,24546,0.04317745193839073,0.04587290808558464,0.982184886932373,-24.39205551147461,1.9939669370651245,-0.02738865464925766,0.5348539352416992,0.5323823690414429,0.18754900991916656,-0.568690836429596,0.7613237500190735,2.414524793624878
10,24557,24556,0.01813337206840515,-0.01862235739827156,1.092228651046753,-21.45015525817871,-6.446698188781738,0.7347282767295837,0.5344365835189819,0.531880259513855,0.19092592597007751,-0.36695748567581177,0.5977755188941956,2.4455199241638184
11,24567,24566,0.01030968502163887,-0.15534347295761108,1.1537714004516602,-11.285262107849121,-12.295085906982422,0.6185309290885925,0.5343335270881653,0.5282663702964783,0.19405581057071686,-0.16327615082263947,0.9055435657501221,2.4804821014404297
12,24577,24576,0.02841196022927761,-0.05331534892320633,1.086666464805603,0.4375309348106384,-16.347248077392578,-0.6624248623847961,0.5342117547988892,0.5279703140258789,0.19404296576976776,0.07053802162408829,0.7621065378189087,2.4966049194335938
13,24587,24586,0.03401338681578636,0.026879165321588516,1.0081132650375366,3.331371307373047,-19.088274002075195,-0.2860371172428131,0.5338886380195618,0.5278303027153015,0.19663818180561066,0.36115527153015137,0.6991721391677856,2.5039708614349365
14,24597,24596,-0.0057814898900687695,-0.002116494346410036,1.0214391946792603,1.0585166215896606,-18.522138595581055,-0.4176507294178009,0.534064769744873,0.5262289047241211,0.19882497191429138,0.5994290113449097,0.8824446797370911,2.506230115890503
15,24607,24606,0.0023537445813417435,0.049558356404304504,1.0684398412704468,-3.543715715408325,-14.8265380859375,-0.5941671133041382,0.5338435173034668,0.5257739424705505,0.19982735812664032,0.8664226531982422,0.8690217137336731,2.5074949264526367
16,24617,24616,0.002503565512597561,0.06707893311977386,1.0847893953323364,-9.64393138885498,-6.971138954162598,-0.8847768306732178,0.5338864326477051,0.5250478386878967,0.20217151939868927,1.0413901805877686,0.8431991338729858,2.5023107528686523
17,24627,24626,0.007574044167995453,0.0065188235603272915,0.9990549087524414,-16.191509246826172,0.2786688506603241,-0.5090963244438171,0.533680260181427,0.5251165628433228,0.20474213361740112,1.1694318056106567,0.6477885246276855,2.5019643306732178
18,24637,24636,0.0005401333328336477,0.011858191341161728,0.9497918486595154,-20.270442962646484,5.725843906402588,-0.49012482166290283,0.5337715744972229,0.525515615940094,0.20526447892189026,1.1754629611968994,0.3710196316242218,2.502964973449707
19,24647,24646,0.0001406055234838277,0.03356628865003586,1.0203183889389038,-21.088905334472656,10.842554092407227,-0.635109543800354,0.5347561836242676,0.5233820676803589,0.20769304037094116,1.020920991897583,0.38979142904281616,2.4737000465393066
20,24657,24656,-0.0014354195445775986,0.0758141353726387,1.0033447742462158,-18.2475528717041,15.763128280639648,-1.1813713312149048,0.535266637802124,0.5233460068702698,0.2101614773273468,0.8798941373825073,0.09493215382099152,2.4721381664276123
21,24667,24666,0.021137110888957977,0.09608744084835052,0.969720721244812,-14.795280456542969,9.419856071472168,-0.5312603712081909,0.5358708500862122,0.5220482349395752,0.21248137950897217,0.7053731679916382,-0.004568211268633604,2.454756736755371
22,24677,24676,0.014709279872477055,-0.001440956024453044,0.9174376130104065,-10.777225494384766,3.98836612701416,0.0770937129855156,0.5346328616142273,0.5205163955688477,0.21431174874305725,0.8045760989189148,-0.059631168842315674,2.4495127201080322
23,24687,24686,0.009593900293111801,-0.014630463905632496,0.933862030506134,-7.658687114715576,2.046267509460449,0.6622945070266724,0.5352816581726074,0.5204646587371826,0.21673914790153503,0.6871219277381897,-0.26202839612960815,2.45745849609375
24,24697,24696,0.003935438580811024,0.006721438840031624,0.9877390265464783,-4.929374694824219,-0.9237387180328369,0.4217698276042938,0.5352968573570251,0.5201804041862488,0.2192108929157257,0.6805238723754883,-0.40907108783721924,2.4691646099090576
25,24707,24706,0.02623884566128254,-0.04127194359898567,1.0398527383804321,-3.1736373901367188,0.9275736808776855,0.828636646270752,0.53469318151474,0.5192996263504028,0.22026637196540833,0.7724995017051697,-0.42912355065345764,2.4700100421905518
26,24717,24716,0.04498453438282013,-0.059943635016679764,0.9761237502098083,-0.8889139890670776,-1.9841413497924805,1.0071297883987427,0.5346154570579529,0.5188696384429932,0.2224063128232956,0.7785187363624573,-0.4896009564399719,2.480015754699707
27,24727,24726,-0.01586681790649891,0.028005333617329597,0.9881338477134705,-1.6919788122177124,0.023952551186084747,1.2803088426589966,0.5345606207847595,0.5184013843536377,0.22454479336738586,0.7976652383804321,-0.5215321779251099,2.491878032684326
28,24737,24736,0.022433606907725334,0.03989797085523605,0.9025892019271851,-2.939908027648926,5.161313533782959,0.7204026579856873,0.5346643924713135,0.5168752074241638,0.22569873929023743,0.7878850102424622,-0.42691341042518616,2.496487855911255
29,24747,24746,-0.019090231508016586,0.11181768774986267,1.0145931243896484,-3.8245601654052734,5.525691509246826,1.2781586647033691,0.5342669486999512,0.5170727968215942,0.22777965664863586,0.7874104380607605,-0.5641687512397766,2.5127384662628174
30,24757,24756,0.027281736955046654,0.017161572352051735,0.9239836931228638,-6.242092132568359,7.5872697830200195,0.8468174934387207,0.5328609347343445,0.5167121291160583,0.229680597782135,0.8846936225891113,-0.6355019211769104,2.5145022869110107
31,24767,24766,0.001672755228355527,-0.01895945332944393,0.9786339402198792,-7.36631965637207,8.835554122924805,1.030877947807312,0.5332985520362854,0.5171655416488647,0.23115377128124237,0.7207558155059814,-0.802769660949707,2.5413870811462402
32,24777,24776,0.00245147617533803,0.0007551278686150908,0.9612951874732971,-6.797011852264404,9.838382720947266,1.3618595600128174,0.5338115692138672,0.5176307559013367,0.2330329567193985,0.5417565703392029,-0.9713118672370911,2.5673553943634033
33,24787,24786,-0.0006928409566171467,0.013910935260355473,0.9667314291000366,-4.036977767944336,9.35915756225586,1.5459829568862915,0.5332498550415039,0.516158938407898,0.23496420681476593,0.49669912457466125,-0.9093969464302063,2.562279462814331
34,24797,24796,0.029613696038722992,0.00915245059877634,0.9385445713996887,0.4826032817363739,7.171370506286621,1.9382339715957642,0.5320846438407898,0.5126054883003235,0.23674775660037994,0.5285164713859558,-0.6063683032989502,2.5361173152923584
35,24807,24806,-0.0019439727766439319,0.06438330560922623,1.005371332168579,2.338672637939453,4.434956073760986,2.5157663822174072,0.5318133234977722,0.5118851065635681,0.24000117182731628,0.4462604224681854,-0.61785888671875,2.5565483570098877
36,24817,24816,0.03684770688414574,0.023160172626376152,0.9321264624595642,0.8025262951850891,2.8237338066101074,2.0328617095947266,0.5314258337020874,0.5118163228034973,0.24191313982009888,0.40163567662239075,-0.6764446496963501,2.584489107131958
37,24827,24826,-0.00026785966474562883,0.014788554050028324,0.9848819971084595,-2.819782257080078,2.6181857585906982,1.7005201578140259,0.5310471653938293,0.5112490057945251,0.24370384216308594,0.3710516691207886,-0.6810218691825867,2.6058855056762695
38,24837,24836,0.013283750042319298,0.034316059201955795,0.9750050902366638,-6.280754566192627,2.8620946407318115,1.0813225507736206,0.5312906503677368,0.5116398930549622,0.2432626634836197,0.26947179436683655,-0.8159634470939636,2.6370460987091064
39,24847,24846,-0.02789187617599964,0.10558091849088669,0.9740591049194336,-7.8773064613342285,3.1102488040924072,0.6586571335792542,0.5303396582603455,0.5107949376106262,0.24480973184108734,0.3114508390426636,-0.8457854986190796,2.6352500915527344
40,24857,24856,-0.026630017906427383,0.13666167855262756,0.9911849498748779,-6.949488162994385,4.614360809326172,1.2223690748214722,0.5306128263473511,0.5112702250480652,0.2464345544576645,0.1921602487564087,-1.0324583053588867,2.656493902206421
41,24867,24866,0.030713612213730812,0.025968069210648537,0.9728010296821594,-5.021378993988037,7.243780612945557,1.188278079032898,0.5303661227226257,0.5103322267532349,0.25000065565109253,0.1326783448457718,-1.0464692115783691,2.6669836044311523
42,24877,24876,0.05566474795341492,0.16554178297519684,1.0139033794403076,-1.3358442783355713,6.0526652336120605,0.527653694152832,0.529504656791687,0.5105099081993103,0.25162622332572937,0.12397626787424088,-1.1695051193237305,2.668433427810669
43,24887,24886,0.01543284673243761,0.026949871331453323,0.9779559969902039,2.237389326095581,5.4917378425598145,0.6916266083717346,0.5298779010772705,0.5105299353599548,0.2532718777656555,-0.02485005557537079,-1.2216695547103882,2.687798261642456
44,24897,24896,0.009166652336716652,0.00423847371712327,0.9622055292129517,4.718903541564941,4.5528082847595215,0.7178111672401428,0.5295870900154114,0.5103324055671692,0.25488197803497314,-0.08250924199819565,-1.2116177082061768,2.692495107650757
45,24907,24906,-0.005106392316520214,0.013743474148213863,0.9779751300811768,5.936398506164551,2.558473825454712,0.3711111843585968,0.528618574142456,0.5093525648117065,0.25579726696014404,-0.05009351298213005,-1.0902223587036133,2.6840155124664307
46,24917,24916,0.0136928865686059,0.013190516270697117,0.9474008679389954,6.65972900390625,2.165771245956421,0.6886438727378845,0.5268834233283997,0.5089278221130371,0.25725775957107544,0.07048352807760239,-1.0298452377319336,2.658379077911377
47,24927,24926,0.015741845592856407,0.022717252373695374,0.9892261624336243,7.063905239105225,3.2224795818328857,1.1470472812652588,0.5264409780502319,0.5085340142250061,0.2587331235408783,0.03547881916165352,-0.9553179144859314,2.665680408477783
48,24937,24936,0.01113180909305811,-0.021823301911354065,0.917701244354248,5.836432456970215,5.057648658752441,0.7321164011955261,0.525336503982544,0.5087580680847168,0.2604210674762726,0.06466427445411682,-0.9472965002059937,2.662156105041504
49,24947,24946,0.00652119517326355,-0.07373413443565369,0.9012227654457092,2.6594247817993164,6.78779935836792,1.2776341438293457,0.5257051587104797,0.5085521936416626,0.26190295815467834,-0.08670642226934433,-0.8862414956092834,2.6894514560699463
50,24957,24956,0.004307333379983902,-0.008930115029215813,0.9400049448013306,1.0157946348190308,8.662476539611816,1.7737553119659424,0.5248451232910156,0.5091017484664917,0.2632167935371399,-0.1160230040550232,-0.9423768520355225,2.690200090408325
51,24967,24966,-0.024962885305285454,0.04352324455976486,1.0034823417663574,0.47912320494651794,9.745858192443848,1.642797827720642,0.5254161357879639,0.5091400146484375,0.2667138874530792,-0.3279593288898468,-0.9407885074615479,2.7265501022338867
52,24977,24976,0.033263273537158966,-0.020241176709532738,0.918048620223999,1.5078036785125732,9.99866771697998,1.4940259456634521,0.526070237159729,0.5091293454170227,0.2680801451206207,-0.5414085984230042,-0.9366543292999268,2.760045051574707
53,24987,24986,-0.010333742015063763,0.03558868169784546,1.0187636613845825,3.4802660942077637,8.453472137451172,1.988092064857483,0.5246652960777283,0.5089145302772522,0.26945245265960693,-0.5207221508026123,-0.9112588167190552,2.752134323120117
54,24997,24996,0.04117028787732124,-0.04847623407840729,0.8830466866493225,5.901823043823242,7.181128978729248,1.9214931726455688,0.5244055390357971,0.5086339712142944,0.2707490622997284,-0.6182685494422913,-0.8528327941894531,2.7740612030029297
55,25007,25006,0.03359244763851166,-0.03150009736418724,0.9337013959884644,7.067422389984131,1.7455095052719116,2.803076982498169,0.5232122540473938,0.5088422298431396,0.2710114121437073,-0.586283266544342,-0.8304832577705383,2.7764341831207275
56,25017,25016,0.041076190769672394,0.011912357062101364,1.0371512174606323,7.3560991287231445,-0.1990596503019333,3.308760643005371,0.5231809616088867,0.5083534717559814,0.27213358879089355,-0.6400976777076721,-0.705977201461792,2.8145318031311035
57,25027,25026,0.06227705255150795,-0.022225309163331985,1.0012307167053223,9.385821342468262,-2.8969783782958984,1.9887309074401855,0.5229761004447937,0.5091913342475891,0.27324333786964417,-0.6523862481117249,-0.7198757529258728,2.837510347366333
58,25037,25036,-0.012055877596139908,0.1350070685148239,0.9469446539878845,8.914018630981445,0.9581568241119385,1.5280005931854248,0.5228445529937744,0.5086427330970764,0.2746029794216156,-0.6448625326156616,-0.5645694136619568,2.87099027633667
59,25047,25046,-0.03925647586584091,0.13454720377922058,0.9415713548660278,6.661067962646484,-2.1133265495300293,2.2566349506378174,0.5228153467178345,0.5081965923309326,0.27567511796951294,-0.6662245392799377,-0.43201684951782227,2.9014647006988525
60,25057,25056,-0.00020510675676632673,0.005322858691215515,0.9467971324920654,4.891555309295654,-1.198681116104126,2.045039176940918,0.5227334499359131,0.5085559487342834,0.27669256925582886,-0.6712405681610107,-0.40702158212661743,2.922051191329956
61,25067,25066,0.0003538235032465309,-0.0073372977785766125,0.9593690633773804,1.997050404548645,-0.19409027695655823,2.507511615753174,0.5219829678535461,0.5082787275314331,0.27568113803863525,-0.6029582619667053,-0.3352664113044739,2.9399709701538086
62,25077,25076,0.001835155300796032,-0.003808768931776285,0.9451314806938171,0.850719690322876,-0.6999242901802063,2.8903746604919434,0.521954357624054,0.5081716179847717,0.2764831781387329,-0.6232585906982422,-0.30104556679725647,2.9686059951782227
63,25087,25086,-0.000165512683452107,0.05247938632965088,1.000052809715271,1.6495712995529175,2.439563274383545,2.046506643295288,0.5219642519950867,0.5081369280815125,0.277249813079834,-0.6447003483772278,-0.287453830242157,2.998103141784668
64,25097,25096,0.011703058145940304,0.09439607709646225,0.8989788889884949,0.7810196280479431,-1.0879343748092651,2.7480812072753906,0.5220744013786316,0.5081638693809509,0.2796481251716614,-0.6943764090538025,-0.2782538831233978,3.0243239402770996
65,25107,25106,0.003546524792909622,0.037759650498628616,0.9883421063423157,0.9810623526573181,0.23646551370620728,2.3627467155456543,0.5206631422042847,0.5080486536026001,0.2804236114025116,-0.5647517442703247,-0.26864737272262573,3.0403382778167725
66,25117,25116,0.0077515109442174435,0.0058789970353245735,0.9726905822753906,1.6644916534423828,-0.23921704292297363,2.265963315963745,0.5206533670425415,0.5079662799835205,0.28114840388298035,-0.5945496559143066,-0.25096678733825684,3.067368268966675
67,25127,25126,0.02044254168868065,-0.010202414356172085,0.9333451390266418,2.762502431869507,-0.6880760192871094,2.4847185611724854,0.5206100940704346,0.507800281047821,0.2818519175052643,-0.6102985739707947,-0.21668513119220734,3.0936739444732666
68,25137,25136,-0.01955067552626133,0.05443355068564415,1.0475233793258667,3.191833972930908,-0.9252818822860718,2.8031063079833984,0.5220730304718018,0.507651686668396,0.28050535917282104,-0.7747785449028015,-0.1693742871284485,3.1313705444335938
69,25147,25146,0.046181365847587585,-0.06622501462697983,0.8892475366592407,4.247946739196777,-2.4449689388275146,2.657036304473877,0.5220642685890198,0.5074379444122314,0.2810439467430115,-0.772564172744751,-0.11880563944578171,3.1610631942749023
70,25157,25156,0.05017000809311867,-0.018725302070379257,0.9064117074012756,2.4168953895568848,-0.633848249912262,2.530812978744507,0.5219816565513611,0.5072324275970459,0.2815425395965576,-0.7471429109573364,-0.06751589477062225,3.187347173690796
71,25167,25166,0.10748548805713654,-0.09974612295627594,0.9214667677879333,-0.8853840231895447,-2.953051805496216,2.5193958282470703,0.5201741456985474,0.5092797875404358,0.2841300070285797,-0.5529131889343262,-0.2670823931694031,3.1695761680603027
72,25177,25176,0.07657824456691742,-0.18879425525665283,0.9854536652565002,-0.9361414313316345,-8.005327224731445,2.8514387607574463,0.5205621123313904,0.508586049079895,0.2846333980560303,-0.5626150965690613,-0.17837783694267273,3.208998680114746
73,25187,25186,0.06012480705976486,-0.15812838077545166,0.9556693434715271,2.2837464809417725,-7.439640998840332,3.1510372161865234,0.5215723514556885,0.5086284875869751,0.2850691080093384,-0.602436363697052,-0.17349566519260406,3.241713285446167
74,25197,25196,0.04895738512277603,-0.05850464478135109,0.9683640599250793,4.121236801147461,-1.8208725452423096,2.541020393371582,0.5213080048561096,0.5076876878738403,0.2849772870540619,-0.5022135376930237,-0.05393621325492859,3.283536434173584
75,25207,25206,0.029729261994361877,0.062066663056612015,0.9521607160568237,3.819692373275757,-3.951742172241211,1.6380304098129272,0.5232869982719421,0.5090478658676147,0.2853095829486847,-0.6783057451248169,-0.14725320041179657,3.29388165473938
76,25217,25216,-0.006482087075710297,0.08195697516202927,1.0116275548934937,3.4381625652313232,-2.9507575035095215,2.197662353515625,0.5202062726020813,0.5079050660133362,0.2857951521873474,-0.3023933172225952,-0.001687496667727828,3.3189427852630615
77,25227,25226,0.020852401852607727,0.0312744602560997,0.9896852374076843,2.5539891719818115,-3.8626437187194824,2.360487461090088,0.5227622985839844,0.5115381479263306,0.28625327348709106,-0.564008355140686,-0.321421355009079,3.2990424633026123
78,25237,25236,-0.01677696965634823,0.024010038003325462,1.0531284809112549,2.145709276199341,-4.435329437255859,2.202617883682251,0.5181830525398254,0.5096490979194641,0.2870936095714569,-0.034013014286756516,-0.09368402510881424,3.3399555683135986
79,25247,25246,0.0772549957036972,-0.0491560734808445,0.9676424264907837,1.8382560014724731,-0.4702574610710144,1.7480121850967407,0.5178983211517334,0.5094739198684692,0.2874213755130768,0.009821911342442036,-0.04064331576228142,3.365112781524658
80,25257,25256,0.07226204872131348,-0.08925138413906097,0.9714802503585815,2.993568181991577,0.7536768913269043,1.744217872619629,0.5185126066207886,0.509324848651886,0.28783437609672546,-0.05571568384766579,0.012618474662303925,3.3884971141815186
81,25267,25266,0.04762986674904823,-0.058622006326913834,0.9514867067337036,2.1378324031829834,1.4608761072158813,2.2007720470428467,0.5185565948486328,0.5091744661331177,0.29088351130485535,-0.07100359350442886,0.0689392164349556,3.410936117172241
82,25277,25276,0.027511510998010635,0.12215694040060043,1.0313575267791748,1.5841193199157715,6.356536388397217,1.7117449045181274,0.5186707377433777,0.5090734362602234,0.2913268208503723,-0.10969194024801254,0.10671012103557587,3.4339444637298584
83,25287,25286,0.05784682184457779,0.0038611043710261583,0.9929004907608032,-0.7524549961090088,6.263367176055908,0.8660452365875244,0.5188620090484619,0.5097888112068176,0.29178425669670105,-0.18651017546653748,0.05326692759990692,3.4461145401000977
84,25297,25296,0.012090346775949001,-0.08545266836881638,0.9611666202545166,0.16349780559539795,3.6124703884124756,1.175270915031433,0.5190348029136658,0.5098201036453247,0.2928313612937927,-0.254607230424881,0.059448495507240295,3.4593234062194824
85,25307,25306,-0.004469719715416431,-0.015987420454621315,0.9681549668312073,0.5963232517242432,2.2048137187957764,2.106989622116089,0.5191001296043396,0.5098370313644409,0.29330798983573914,-0.29185158014297485,0.06709570437669754,3.473930835723877
86,25317,25316,0.052923619747161865,0.09363463521003723,0.9908797144889832,1.2499395608901978,0.49805957078933716,1.5506654977798462,0.5190758109092712,0.5097882151603699,0.2937590181827545,-0.3034948408603668,0.0842990130186081,3.4944422245025635
87,25327,25326,0.0735844299197197,0.015074540860950947,1.030482292175293,1.7142839431762695,-2.4995880126953125,1.8833065032958984,0.5188530683517456,0.5096733570098877,0.2942006289958954,-0.27377748489379883,0.11389748007059097,3.5127410888671875
88,25337,25336,0.03424360975623131,-0.026989461854100227,1.030522346496582,0.9609581232070923,-8.298511505126953,2.210212230682373,0.5185015201568604,0.509526789188385,0.29354557394981384,-0.20755986869335175,0.14813412725925446,3.5327765941619873
89,25347,25346,-0.012568059377372265,0.020911287516355515,1.0612208843231201,1.5883492231369019,-5.826207637786865,1.3181748390197754,0.5179551839828491,0.5101356506347656,0.29397380352020264,-0.09279327094554901,0.10196296125650406,3.549158811569214
90,25357,25356,0.00649471627548337,0.039059534668922424,0.9993712902069092,2.0340592861175537,-6.58083963394165,1.2250827550888062,0.5182812809944153,0.510768711566925,0.2944549322128296,-0.08011168986558914,0.06758050620555878,3.5586321353912354
91,25367,25366,-0.05492927506566048,0.022732224315404892,1.0052709579467773,1.1348270177841187,-1.4944714307785034,0.3715144097805023,0.5187215209007263,0.5106756091117859,0.29513952136039734,-0.07474994659423828,0.11414099484682083,3.5715835094451904
92,25377,25376,-0.07253798842430115,0.05765216052532196,1.0260233879089355,1.371441125869751,0.8443685173988342,1.0403552055358887,0.5186434984207153,0.5105854272842407,0.29563984274864197,-0.0488453209400177,0.14722059667110443,3.581209182739258
93,25387,25386,0.0029163004364818335,0.024071183055639267,1.026396632194519,1.8190128803253174,0.45503002405166626,0.9977765083312988,0.5187020897865295,0.5104994773864746,0.29614782333374023,-0.060080621391534805,0.17873027920722961,3.5913448333740234
94,25397,25396,0.022127529606223106,0.005692478269338608,0.9827950596809387,0.45812156796455383,0.5360003709793091,0.8901424407958984,0.5186840891838074,0.5111512541770935,0.2981673777103424,-0.06842877715826035,0.138187438249588,3.5985379219055176
95,25407,25406,0.0204542838037014,0.009352654218673706,0.9833729267120361,0.5685533285140991,-0.5482671856880188,0.33056196570396423,0.5186784267425537,0.5111289620399475,0.29877427220344543,-0.0725877657532692,0.1590971052646637,3.606985092163086
96,25417,25416,-0.016718830913305283,0.01370030827820301,1.0080468654632568,0.5515897870063782,-0.5540027618408203,0.37705421447753906,0.5185986161231995,0.5111043453216553,0.2993616759777069,-0.05998830124735832,0.17672955989837646,3.6122238636016846
97,25427,25426,0.006629999727010727,0.01669405587017536,1.0222296714782715,1.1320905685424805,-0.9265699982643127,-0.18371067941188812,0.5185455679893494,0.5110650658607483,0.29994136095046997,-0.04842504858970642,0.1944369375705719,3.6163151264190674
98,25437,25436,0.020081784576177597,0.014053074643015862,0.9838674664497375,2.1580822467803955,-1.4020607471466064,-0.47248581051826477,0.5191933512687683,0.5109753012657166,0.29913195967674255,-0.1039966344833374,0.22688639163970947,3.6122255325317383
99,25447,25446,0.019156141206622124,0.009863694198429585,0.9649496078491211,1.7619272470474243,-1.5298875570297241,-1.365085482597351,0.519066572189331,0.510844349861145,0.2996307611465454,-0.06973535567522049,0.2646876573562622,3.608330249786377
100,25457,25456,-0.0742613896727562,0.09946994483470917,0.9934535026550293,2.0651021003723145,-2.52253794670105,-0.7579476237297058,0.5188537836074829,0.5107132196426392,0.30010557174682617,-0.02278824895620346,0.29737240076065063,3.600640296936035
101,25467,25466,-0.027258960530161858,0.07416510581970215,1.0173625946044922,0.3458990156650543,-2.234004020690918,-0.760966956615448,0.518673300743103,0.5106331706047058,0.3005354404449463,0.023153703659772873,0.3224473297595978,3.59454345703125
102,25477,25476,0.018964746966958046,0.024535086005926132,0.9849188327789307,-1.168373465538025,-2.3448829650878906,-0.5798206329345703,0.5184774994850159,0.5106499195098877,0.30101096630096436,0.06625352799892426,0.3222395181655884,3.587198495864868
103,25487,25486,0.045991163700819016,0.011236472986638546,0.962446391582489,-3.4512994289398193,-2.04259991645813,-1.022202491760254,0.519037127494812,0.5108375549316406,0.3014906644821167,0.0323607474565506,0.2933652698993683,3.575444459915161
104,25497,25496,-0.004605356603860855,0.06267085671424866,1.0093880891799927,-4.227841377258301,-1.8649762868881226,-1.0008375644683838,0.5189035534858704,0.5110673308372498,0.3026474118232727,0.06798649579286575,0.23790857195854187,3.5649335384368896
105,25507,25506,0.06077338755130768,0.013669196516275406,1.015282154083252,-3.5319557189941406,0.6885374188423157,-1.1076058149337769,0.518783688545227,0.5113597512245178,0.3031378984451294,0.09831028431653976,0.16806210577487946,3.5563249588012695
106,25517,25516,0.028062785044312477,0.03325662016868591,0.9859870672225952,-2.883333444595337,1.1256290674209595,-1.3559516668319702,0.5188264846801758,0.5108335018157959,0.30365633964538574,0.09519857168197632,0.18911300599575043,3.5452561378479004
107,25527,25526,0.017998265102505684,0.028714312240481377,0.9898004531860352,-1.5191766023635864,0.443107545375824,-1.6267673969268799,0.5188083648681641,0.5117729306221008,0.3054317831993103,0.08325082063674927,0.06554152816534042,3.5299649238586426
108,25537,25536,0.007491487078368664,0.048035696148872375,1.0145139694213867,-0.1743432879447937,-0.6933535933494568,-1.388825535774231,0.5180928707122803,0.5110229253768921,0.30600613355636597,0.15513218939304352,0.12774673104286194,3.5173521041870117
109,25547,25546,0.046701256185770035,0.026199281215667725,1.0191768407821655,2.0626299381256104,0.9513120651245117,-2.0181891918182373,0.5179606080055237,0.5116819143295288,0.30657628178596497,0.16665999591350555,0.06473814696073532,3.503826856613159
110,25557,25556,0.022811904549598694,0.048431456089019775,0.9996576309204102,2.5792176723480225,1.0933992862701416,-1.8363544940948486,0.5180523991584778,0.5107700228691101,0.3071775436401367,0.15004949271678925,0.18114079535007477,3.4819350242614746
111,25567,25566,0.0040999650955200195,0.01907891407608986,0.9945683479309082,2.503845691680908,1.1157050132751465,-2.291621446609497,0.518097996711731,0.5105913877487183,0.3066769540309906,0.1314459890127182,0.22124916315078735,3.46109938621521
112,25577,25576,0.02330324426293373,-0.012355977669358253,0.9641826748847961,1.0105006694793701,1.5271440744400024,-2.121656894683838,0.5181722640991211,0.5104835033416748,0.3071892261505127,0.10911564528942108,0.2504993975162506,3.4365200996398926
113,25587,25586,-0.010146960616111755,0.03353339061141014,0.9814387559890747,-0.4552898705005646,2.5736234188079834,-2.315748691558838,0.5182456374168396,0.5104888081550598,0.3076753318309784,0.08417069911956787,0.2529277205467224,3.413283586502075
114,25597,25596,-0.011099480092525482,0.10521401464939117,1.0372471809387207,-2.179755210876465,-0.0288529172539711,-2.5282013416290283,0.5183039307594299,0.5105810761451721,0.3080922067165375,0.05712321773171425,0.23221075534820557,3.3888933658599854
115,25607,25606,-0.011874400079250336,0.031154600903391838,0.9933683276176453,-3.2836384773254395,-0.1896631121635437,-2.734048843383789,0.518222987651825,0.5107707381248474,0.3085651099681854,0.06335695832967758,0.18569932878017426,3.362955093383789
116,25617,25616,0.020722638815641403,0.02999190241098404,0.9743773937225342,-4.4192023277282715,-0.7219177484512329,-2.476627826690674,0.5181520581245422,0.5110481381416321,0.3090358078479767,0.0699632540345192,0.12207324057817459,3.335598945617676
117,25627,25626,0.022704852744936943,-0.032181352376937866,0.9765937924385071,-2.679924964904785,0.7811181545257568,-3.155639171600342,0.5180357694625854,0.5113543272018433,0.30833348631858826,0.08487497270107269,0.04903682693839073,3.3098950386047363
118,25637,25636,0.03440834954380989,-0.04399634525179863,0.9158806204795837,-1.491754174232483,-0.40944817662239075,-2.6153218746185303,0.5179783701896667,0.5115254521369934,0.30867981910705566,0.08676918596029282,0.005349069368094206,3.2813329696655273
119,25647,25646,0.014279074035584927,0.03372588008642197,1.002333164215088,0.6091383099555969,-1.3284878730773926,-2.637185573577881,0.5178880095481873,0.5107614994049072,0.30898210406303406,0.10484109073877335,0.06869097799062729,3.253915309906006
120,25657,25656,0.016284972429275513,0.02428159862756729,0.9815509915351868,2.445150375366211,-1.1083943843841553,-2.962719440460205,0.5177742838859558,0.510651707649231,0.3092348277568817,0.1265360713005066,0.08178296685218811,3.2272374629974365
121,25667,25666,0.026885710656642914,0.03429455682635307,0.9735463857650757,1.598010540008545,-1.1620067358016968,-3.0034821033477783,0.5176538825035095,0.5104940533638,0.30835679173469543,0.14725472033023834,0.11507203429937363,3.1978509426116943
122,25677,25676,0.028622429817914963,0.04302239790558815,0.9966781139373779,0.16395889222621918,-0.23397445678710938,-3.4996602535247803,0.517569363117218,0.5104392766952515,0.30849987268447876,0.16099557280540466,0.13005442917346954,3.167940139770508
123,25687,25686,0.03340786695480347,0.05386444926261902,0.9643129110336304,-0.47112125158309937,1.3062645196914673,-3.098416805267334,0.5175598859786987,0.5104642510414124,0.3086250424385071,0.15885241329669952,0.12306985259056091,3.1340270042419434
124,25697,25696,0.024787435308098793,0.17757825553417206,1.0093786716461182,-1.1670105457305908,0.5150042772293091,-3.8493993282318115,0.5175613164901733,0.5105164051055908,0.3098738491535187,0.1448911726474762,0.10758260637521744,3.1014935970306396
125,25707,25706,0.005978976376354694,0.02859807200729847,0.9984663724899292,-1.7172882556915283,1.0204354524612427,-3.5442893505096436,0.517572820186615,0.5106233358383179,0.3100367486476898,0.13279928267002106,0.08122431486845016,3.063513994216919
126,25717,25716,0.03256063535809517,0.005818563047796488,0.9566242694854736,-2.1789391040802,-0.6829271912574768,-3.2664055824279785,0.5175867080688477,0.5107647180557251,0.3101966083049774,0.11822180449962616,0.04754848778247833,3.0280511379241943
127,25727,25726,0.03365366533398628,0.033373743295669556,0.9893129467964172,-2.020596504211426,0.6355355978012085,-3.310117721557617,0.5175328850746155,0.5109167098999023,0.3084925711154938,0.12435132265090942,0.01072370819747448,2.9977662563323975
128,25737,25736,0.06826483458280563,-0.06598463654518127,0.9466447234153748,-1.5893868207931519,0.36474838852882385,-4.2383904457092285,0.5176068544387817,0.5125730037689209,0.3084801733493805,0.08291858434677124,-0.1633998155593872,2.9648964405059814
129,25747,25746,0.02515185996890068,-0.010919206775724888,0.9535475373268127,0.14109991490840912,0.743169367313385,-3.667487621307373,0.5176125764846802,0.5118670463562012,0.30848875641822815,0.07963233441114426,-0.09445085376501083,2.922290802001953
130,25757,25756,0.0160660557448864,0.08180739730596542,1.0097150802612305,1.2616863250732422,-2.568657636642456,-3.9435160160064697,0.5174878835678101,0.5118699669837952,0.30560681223869324,0.09303832054138184,-0.08841130882501602,2.885612964630127
131,25767,25766,0.01961684040725231,0.017218178138136864,0.9993206262588501,2.602897882461548,-2.704756736755371,-4.332435607910156,0.51727694272995,0.5109263062477112,0.3053664267063141,0.14241503179073334,0.020846370607614517,2.8440403938293457
132,25777,25776,0.018063269555568695,0.009174655191600323,0.9784486889839172,2.706038236618042,-5.61870002746582,-3.7983593940734863,0.517100989818573,0.5107370615005493,0.3051108121871948,0.18282605707645416,0.06154908612370491,2.801065444946289
133,25787,25786,-0.031323209404945374,0.051841460168361664,1.0021251440048218,2.3052423000335693,-3.677032232284546,-3.6888535022735596,0.5177707672119141,0.5106080174446106,0.304855614900589,0.14662659168243408,0.09935470670461655,2.7604105472564697
134,25797,25796,-0.006143264472484589,0.09697351604700089,1.0103529691696167,-0.39595749974250793,2.141282081604004,-3.756199836730957,0.5178385376930237,0.5105720162391663,0.30601784586906433,0.153395414352417,0.11496556550264359,2.722764492034912
135,25807,25806,0.0022793023381382227,0.019359949976205826,1.0315977334976196,-2.5563201904296875,2.6858248710632324,-3.716979742050171,0.5180025696754456,0.5106860995292664,0.3058393895626068,0.11560303717851639,0.09407324343919754,2.6850411891937256
136,25817,25816,0.03649382293224335,-0.004621824715286493,0.9650253057479858,-3.63642954826355,1.5191476345062256,-3.4976580142974854,0.5173563957214355,0.5116220116615295,0.3056912422180176,0.14979241788387299,-0.028948931023478508,2.65139102935791
137,25827,25826,-0.0034276891965419054,0.0798119306564331,1.058205008506775,-2.7651329040527344,3.757624387741089,-4.244379043579102,0.5174694657325745,0.5118747353553772,0.3081474304199219,0.11300455033779144,-0.08249456435441971,2.615823984146118
138,25837,25836,0.03423750773072243,0.05444837361574173,0.9737429022789001,-3.3423359394073486,-0.07332959026098251,-3.707834243774414,0.5175626873970032,0.5121297240257263,0.3081524074077606,0.07267557084560394,-0.1323423832654953,2.5755577087402344
139,25847,25846,0.06912384182214737,0.015543392859399319,0.9626575708389282,-1.454392910003662,3.0005109310150146,-4.084325790405273,0.5174617171287537,0.5122739672660828,0.30816081166267395,0.08224361389875412,-0.16884654760360718,2.5390024185180664
140,25857,25856,0.010898761451244354,-0.00202646991237998,1.0573009252548218,1.3018724918365479,-1.827632188796997,-3.233959197998047,0.5173124074935913,0.5122392177581787,0.30776360630989075,0.09111590683460236,-0.16492272913455963,2.501960277557373
141,25867,25866,0.013410905376076698,0.02710011601448059,1.082934856414795,4.1790852546691895,-2.773169755935669,-3.1402461528778076,0.5178858041763306,0.5120849013328552,0.30776265263557434,0.052749279886484146,-0.12085844576358795,2.4701454639434814
142,25877,25876,-0.0009800990810617805,0.02156488597393036,1.0261110067367554,5.632951259613037,-1.4944097995758057,-3.104085922241211,0.517038881778717,0.5117393136024475,0.30783236026763916,0.1639193743467331,-0.04350737854838371,2.4390735626220703
143,25887,25886,0.026995882391929626,0.001396610983647406,1.0378917455673218,6.62993860244751,-0.5124990344047546,-3.2594189643859863,0.516965925693512,0.5120983719825745,0.30794617533683777,0.17519071698188782,-0.021088916808366776,2.410329818725586
144,25897,25896,-0.00989943090826273,0.12930144369602203,0.9601409435272217,4.216732025146484,1.3611313104629517,-2.996683120727539,0.5170948505401611,0.5109121799468994,0.307046502828598,0.15924683213233948,0.17168262600898743,2.374096393585205
145,25907,25906,0.015341246500611305,0.053906410932540894,1.031275987625122,1.3356894254684448,2.282222032546997,-2.8730111122131348,0.5172930359840393,0.5107144117355347,0.3070922791957855,0.11574313789606094,0.22919920086860657,2.3421807289123535
146,25917,25916,0.009524039924144745,-0.012928802520036697,1.0262500047683716,-1.4553850889205933,3.567347764968872,-2.8391568660736084,0.5175123810768127,0.5114736557006836,0.30718207359313965,0.053763702511787415,0.15878170728683472,2.3119866847991943
147,25927,25926,0.015228431671857834,0.006801285780966282,1.0212289094924927,-3.9018642902374268,3.9473788738250732,-2.275817394256592,0.5177294611930847,0.5116587281227112,0.30650776624679565,-0.005394901614636183,0.12577708065509796,2.284874200820923
148,25937,25936,0.010378065519034863,0.05393417924642563,1.0895072221755981,-4.342978477478027,2.391265630722046,-2.115764856338501,0.517866313457489,0.5119441151618958,0.3065780997276306,-0.05076346546411514,0.061560723930597305,2.262434959411621
149,25947,25946,-0.004570899531245232,0.038550544530153275,1.0158748626708984,-2.330244541168213,-0.4921680688858032,-2.4086647033691406,0.5179478526115417,0.5122177600860596,0.30671027302742004,-0.07789993286132812,-0.0034816765692085028,2.2425754070281982
150,25957,25956,-0.011596707627177238,0.1592835932970047,0.9711646437644958,0.6974092125892639,-1.3469970226287842,-1.9687234163284302,0.5178758502006531,0.5123659372329712,0.3083195388317108,-0.06562180072069168,-0.03881469741463661,2.2222483158111572
151,25967,25966,-0.04561056196689606,0.10483843833208084,0.9951962232589722,1.5648232698440552,-2.831070899963379,-1.114903211593628,0.5170000195503235,0.5123123526573181,0.30857792496681213,0.0415034256875515,-0.029523253440856934,2.2076568603515625
152,25977,25976,0.04784395918250084,0.010498246178030968,1.0050779581069946,2.2348134517669678,-6.927569389343262,-0.3486458361148834,0.5167599320411682,0.5121446847915649,0.3088107705116272,0.0903690829873085,0.009299103170633316,2.197144031524658
153,25987,25986,0.004336046054959297,-0.06763606518507004,1.0361647605895996,4.585618495941162,-2.3171098232269287,-1.0498594045639038,0.5165493488311768,0.5118778944015503,0.3090449273586273,0.15418413281440735,0.06912784278392792,2.189710855484009
154,25997,25996,0.008558771573007107,-0.07969136536121368,0.9528360962867737,3.828260660171509,-3.0986621379852295,-0.5541912913322449,0.5165532231330872,0.5115998983383179,0.3099862337112427,0.15980960428714752,0.14336174726486206,2.17842435836792
155,26007,26006,0.01993393711745739,-0.04591500386595726,0.9759353399276733,2.008723020553589,5.783300876617432,-0.47481516003608704,0.5166641473770142,0.5113977789878845,0.31024491786956787,0.14838698506355286,0.1986953616142273,2.1708805561065674
156,26017,26016,0.022938519716262817,-0.04218469560146332,1.0102968215942383,0.42167890071868896,4.2767181396484375,-0.036498285830020905,0.5169427990913391,0.5113118290901184,0.3104799687862396,0.06770996749401093,0.22482673823833466,2.1653573513031006
157,26027,26026,0.011208593845367432,0.05303618311882019,1.0376907587051392,-1.1068885326385498,4.254181385040283,-0.5908941030502319,0.5165036916732788,0.5113421678543091,0.30882173776626587,0.06682833284139633,0.217542827129364,2.1650779247283936
158,26037,26036,0.053223151713609695,0.0772741287946701,0.9757699966430664,-4.353659629821777,1.9472699165344238,0.03155983239412308,0.5159810185432434,0.5122588872909546,0.3089851140975952,0.06693410128355026,0.09781476855278015,2.164386510848999
159,26047,26046,-0.008029293268918991,0.0650857463479042,1.0244606733322144,-5.937309265136719,-0.7667494416236877,0.6983460187911987,0.5152977705001831,0.5125738382339478,0.3091234564781189,0.10274031013250351,0.023998413234949112,2.1668057441711426
160,26057,26056,0.014827416278421879,-0.0468747541308403,1.0971508026123047,-4.718481063842773,0.022229090332984924,0.40128859877586365,0.5151581764221191,0.512937605381012,0.3098905682563782,0.10884662717580795,-0.0638994500041008,2.173602342605591
161,26067,26066,-0.013127136044204235,0.054674576967954636,1.0645304918289185,-0.94105464220047,2.483099937438965,-0.3886646628379822,0.5151379108428955,0.5131124258041382,0.31019139289855957,0.09331434965133667,-0.11132048815488815,2.175203800201416
162,26077,26076,-0.016119543462991714,0.021876582875847816,1.0427504777908325,3.3324756622314453,5.667741298675537,0.29629412293434143,0.5153196454048157,0.5123176574707031,0.3106115758419037,0.04000861942768097,-0.02083151414990425,2.170351505279541
163,26087,26086,0.017713269218802452,0.014685663394629955,0.9930424690246582,5.5840020179748535,12.355891227722168,0.33254438638687134,0.5144526958465576,0.5119715332984924,0.31035852432250977,0.05876457691192627,0.04866110160946846,2.1728262901306152
164,26097,26096,0.028203647583723068,0.006624904926866293,0.9878764152526855,4.883544921875,18.904991149902344,0.47754403948783875,0.5154421925544739,0.5116754174232483,0.310777872800827,-0.19106656312942505,0.13620206713676453,2.1754984855651855
165,26107,26106,0.09659840911626816,-0.03420836851000786,1.0065840482711792,2.6887049674987793,25.224782943725586,0.014615514315664768,0.5155285596847534,0.5107206106185913,0.31114834547042847,-0.40669479966163635,0.2767118215560913,2.1790812015533447
166,26117,26116,0.0881921574473381,-0.07649336010217667,0.9593988656997681,-1.5322061777114868,25.436784744262695,0.089991994202137,0.5157971382141113,0.5113723278045654,0.3115456700325012,-0.7044978737831116,0.21791726350784302,2.1774702072143555
167,26127,26126,0.024398019537329674,0.021488169208168983,0.9767265319824219,-5.1071624755859375,22.500228881835938,0.2560253143310547,0.5173316597938538,0.5123631358146667,0.3109225928783417,-1.124129295349121,0.09794006496667862,2.1727473735809326
168,26137,26136,0.0021483798045665026,-0.006332410499453545,0.9916663765907288,-7.1103363037109375,16.2200927734375,0.4046492576599121,0.5186005234718323,0.5128078460693359,0.3110502064228058,-1.4624974727630615,0.009243994019925594,2.170820474624634
169,26147,26146,0.018854450434446335,0.0403142012655735,0.9982892274856567,-6.5286993980407715,8.685115814208984,0.550200343132019,0.5172739624977112,0.5132133960723877,0.31156253814697266,-1.4529292583465576,-0.09992172569036484,2.173321485519409
170,26157,26156,0.030637139454483986,0.005664616823196411,0.975587010383606,-3.6436767578125,0.995708703994751,0.6757779121398926,0.5168432593345642,0.5135573148727417,0.31258827447891235,-1.4753936529159546,-0.1888590008020401,2.1759307384490967
171,26167,26166,-0.006188139319419861,0.030810294672846794,1.017958641052246,0.6880121231079102,-4.568065643310547,0.15905191004276276,0.5182161927223206,0.5115619897842407,0.31287696957588196,-1.6055597066879272,0.007770683616399765,2.206210136413574
172,26177,26176,0.04328019544482231,-0.00039788035792298615,0.943116307258606,5.540485382080078,-6.0110673904418945,0.5178290009498596,0.5150006413459778,0.5126338601112366,0.31359660625457764,-1.2009696960449219,-0.11575017124414444,2.191418170928955
173,26187,26186,-0.01841842196881771,0.05590621754527092,1.0288195610046387,7.042769908905029,-1.8867024183273315,0.06135540083050728,0.5146715641021729,0.5122374296188354,0.31460094451904297,-1.1155871152877808,-0.01651265099644661,2.2020323276519775
174,26197,26196,0.0027295323088765144,0.011552519164979458,0.9731008410453796,6.730228424072266,-1.8574882745742798,0.571896493434906,0.5181201100349426,0.5119107961654663,0.3149348795413971,-1.4560284614562988,0.10120192170143127,2.2122976779937744
175,26207,26206,-0.0017183899180963635,0.0231234859675169,1.0109999179840088,5.3710784912109375,5.373219013214111,0.5656918883323669,0.5190366506576538,0.5107965469360352,0.31520289182662964,-1.5060293674468994,0.28587695956230164,2.2370493412017822
176,26217,26216,-0.0009832846699282527,0.029160890728235245,1.0092089176177979,1.0782328844070435,7.250823974609375,0.0477893240749836,0.5194312334060669,0.5112877488136292,0.31556379795074463,-1.556605577468872,0.26949170231819153,2.230030059814453
177,26227,26226,0.027286740019917488,-0.010540671646595001,0.9632542729377747,-4.318981170654297,7.274012565612793,0.28687918186187744,0.5199347138404846,0.5106887221336365,0.31667420268058777,-1.6291587352752686,0.33108094334602356,2.2405688762664795
178,26237,26236,-0.024270078167319298,0.03721868246793747,1.017600655555725,-7.926939964294434,5.100419998168945,-0.5243318676948547,0.5203128457069397,0.511803388595581,0.3170778155326843,-1.6929247379302979,0.15418954193592072,2.215527057647705
179,26247,26246,0.023221930488944054,-0.022946787998080254,0.9742939472198486,-10.602372169494629,1.6724687814712524,-0.4459333121776581,0.5205193758010864,0.5124500393867493,0.31744953989982605,-1.712822675704956,0.0011009479640051723,2.1974968910217285
180,26257,26256,0.027605297043919563,0.027758076786994934,0.9600740671157837,-10.113255500793457,-0.038262464106082916,-0.48289385437965393,0.5204834342002869,0.5124212503433228,0.3183062970638275,-1.6673303842544556,-0.09781826287508011,2.1969313621520996
181,26267,26266,0.045612167567014694,0.014817631803452969,0.9821915030479431,-6.618010997772217,-4.543854713439941,-0.2190234363079071,0.5201707482337952,0.5129483938217163,0.3186839520931244,-1.5687254667282104,-0.24746662378311157,2.1807022094726562
182,26277,26276,0.05559687688946724,0.07077768445014954,1.025705099105835,-1.109905481338501,-6.041140556335449,-1.3047292232513428,0.5196865797042847,0.5131565928459167,0.31905892491340637,-1.4189599752426147,-0.31999045610427856,2.1735117435455322
183,26287,26286,-0.010586703196167946,0.09665075689554214,1.0372995138168335,3.1204781532287598,-8.783880233764648,-1.4231305122375488,0.5185455679893494,0.512298583984375,0.3196588158607483,-1.1938279867172241,-0.22971707582473755,2.1836490631103516
184,26297,26296,-0.027631688863039017,0.054350875318050385,0.9998830556869507,8.427734375,-0.9245939254760742,-2.069854497909546,0.5183358192443848,0.5090299248695374,0.32008716464042664,-1.066884994506836,0.15026234090328217,2.2454538345336914
185,26307,26306,-0.006491903681308031,0.0008659776649437845,0.9817461967468262,9.72496223449707,4.7296247482299805,-3.4555132389068604,0.5220381021499634,0.5099725127220154,0.3206022381782532,-1.427123785018921,0.1144942045211792,2.2000715732574463
186,26317,26316,-0.00769147789105773,0.030726496130228043,1.011783242225647,6.102107048034668,9.038530349731445,-3.214444875717163,0.5262352824211121,0.5081441402435303,0.3205382227897644,-1.8461295366287231,0.39102908968925476,2.211026430130005
187,26327,26326,0.03250095993280411,0.03347475454211235,0.9624972343444824,0.08209846913814545,11.776898384094238,-5.0113115310668945,0.5218173861503601,0.5120517611503601,0.324297696352005,-1.3812222480773926,-0.02297120913863182,2.0701169967651367
188,26337,26336,0.0061517455615103245,0.1295747011899948,1.0248771905899048,-4.812074661254883,7.401092529296875,-4.9568939208984375,0.5216742157936096,0.5093409419059753,0.3249463438987732,-1.4080842733383179,0.26124146580696106,2.089606761932373
189,26347,26346,0.001890408108010888,0.06275668740272522,0.9983121156692505,-6.6770148277282715,1.192300796508789,-5.520025730133057,0.5218340754508972,0.5118401050567627,0.32563909888267517,-1.452399492263794,-0.0691647082567215,1.9767930507659912
190,26357,26356,-0.006136463023722172,0.00884532742202282,0.9838905334472656,-8.009183883666992,-3.0922391414642334,-4.62947416305542,0.5233017206192017,0.510930061340332,0.32559508085250854,-1.571691632270813,-0.031127357855439186,1.947101354598999
191,26367,26366,0.016964266076683998,-0.03752909600734711,0.9611503481864929,-5.603024959564209,-3.617182731628418,-5.864645481109619,0.5276020169258118,0.509343683719635,0.3258671760559082,-1.9277541637420654,0.06584178656339645,1.9360275268554688
192,26377,26376,0.005608150269836187,-0.03164767101407051,0.9527599215507507,-2.857487440109253,-4.290335178375244,-6.62259578704834,0.5244991183280945,0.5102106332778931,0.32708218693733215,-1.479227066040039,-0.11466590315103531,1.8492019176483154
193,26387,26386,-0.02777392603456974,-0.057171206921339035,0.9159940481185913,-0.5962523221969604,-8.248048782348633,-6.380535125732422,0.527647078037262,0.5104038119316101,0.32405778765678406,-1.7111082077026367,-0.15992309153079987,1.7774717807769775
194,26397,26396,-0.01672743260860443,-0.0316549651324749,0.955852210521698,1.7072025537490845,-9.118671417236328,-6.207441329956055,0.5278792381286621,0.5096073746681213,0.3243426978588104,-1.5592241287231445,-0.09005022048950195,1.7315818071365356
195,26407,26406,-0.019753621891140938,-0.09712693840265274,0.9696672558784485,4.325494766235352,-9.509353637695312,-6.351285934448242,0.5272740721702576,0.5108252167701721,0.32466018199920654,-1.3258460760116577,-0.2119714915752411,1.6353790760040283
196,26417,26416,0.02559138648211956,-0.020658202469348907,0.9353329539299011,4.7285943031311035,-8.090482711791992,-6.551272392272949,0.5259625315666199,0.5119524598121643,0.3249092996120453,-1.0319445133209229,-0.28991279006004333,1.543397068977356
197,26427,26426,0.005544102285057306,0.027856620028614998,0.9938783049583435,4.836078643798828,-6.538121223449707,-6.150299072265625,0.5262264013290405,0.5116410851478577,0.32397371530532837,-0.9293650984764099,-0.19750109314918518,1.4882220029830933
198,26437,26436,0.01221400685608387,0.05302939563989639,0.9784274101257324,4.277534008026123,-2.9410417079925537,-6.045795440673828,0.5260147452354431,0.511333167552948,0.3239936828613281,-0.798732340335846,-0.11107669770717621,1.4333082437515259
199,26447,26446,0.0259258933365345,-0.018506301566958427,0.939948320388794,3.3612542152404785,1.895823359489441,-5.714272975921631,0.5282970666885376,0.5118752717971802,0.3239588439464569,-0.9661392569541931,-0.11334207653999329,1.3675081729888916
200,26457,26456,-0.007427099160850048,-0.0039504095911979675,0.9904880523681641,2.3361623287200928,5.584593772888184,-5.569376468658447,0.530142605304718,0.5124821066856384,0.32453733682632446,-1.1105482578277588,-0.12847819924354553,1.3036571741104126
201,26467,26466,-0.006713144946843386,-0.01470103021711111,0.9691653847694397,2.0701522827148438,6.475871562957764,-5.0966644287109375,0.5305992960929871,0.512358546257019,0.32452741265296936,-1.1329234838485718,-0.07795136421918869,1.2537188529968262
202,26477,26476,0.0033273245207965374,0.023302285000681877,0.9950820803642273,2.871213912963867,3.460601329803467,-4.998877048492432,0.5338291525840759,0.5167250037193298,0.3241561949253082,-1.4500688314437866,-0.4810429513454437,1.133276343345642
203,26487,26486,0.03982695937156677,0.0449042022228241,0.9770185351371765,4.138607978820801,-0.8958133459091187,-4.230722904205322,0.533795952796936,0.5165159106254578,0.321382999420166,-1.3765968084335327,-0.3747391998767853,1.0951000452041626
204,26497,26496,0.010788890533149242,0.02371172420680523,0.9829076528549194,8.749406814575195,-7.765871524810791,-3.549985647201538,0.5349777936935425,0.5168705582618713,0.3210817575454712,-1.378226637840271,-0.31115633249282837,1.0573409795761108
205,26507,26506,0.010693778283894062,0.032912079244852066,0.9855061173439026,12.733171463012695,-12.824774742126465,-3.5346717834472656,0.5343180298805237,0.516914427280426,0.32102251052856445,-1.1268807649612427,-0.17992821335792542,1.0235317945480347
206,26517,26516,0.005083881318569183,-0.013066033832728863,1.0040596723556519,14.459136009216309,-15.88255786895752,-3.7020890712738037,0.5356150269508362,0.5160490274429321,0.32048577070236206,-1.0416268110275269,0.08158061653375626,1.0116639137268066
207,26527,26526,-0.0037266486324369907,0.021950554102659225,1.0015208721160889,14.130324363708496,-14.76922607421875,-3.403468132019043,0.5368213057518005,0.5181068181991577,0.32014623284339905,-0.9172776937484741,0.04882839322090149,0.9486716985702515
208,26537,26536,0.027929430827498436,-0.01326720044016838,0.9970793724060059,11.310419082641602,-11.04044246673584,-3.256594657897949,0.5367099642753601,0.5172790288925171,0.3199670612812042,-0.6583834290504456,0.32049986720085144,0.9312053322792053
209,26547,26546,-0.005376266781240702,0.043807435780763626,1.0310770273208618,8.064373970031738,-6.098377704620361,-3.2872533798217773,0.5369054675102234,0.5166467428207397,0.3196994364261627,-0.4786483645439148,0.5321263670921326,0.909486711025238
210,26557,26556,0.009955951012670994,-0.033870596438646317,0.9819813370704651,4.657673358917236,-0.2557317912578583,-3.7962887287139893,0.5390037298202515,0.5177485346794128,0.3201758861541748,-0.5509774088859558,0.5281434655189514,0.8663271069526672
211,26567,26566,0.015452209860086441,0.055329564958810806,1.02890145778656,-0.062142513692379,3.948474645614624,-3.903007984161377,0.5407495498657227,0.5176627039909363,0.3198777735233307,-0.6334622502326965,0.6113073825836182,0.8337346315383911
212,26577,26576,-0.0009708066936582327,-0.05269927531480789,0.970207691192627,-1.327962875366211,5.107588291168213,-4.6920599937438965,0.5411818027496338,0.5185307264328003,0.31972020864486694,-0.6178900003433228,0.5478998422622681,0.788883626461029
213,26587,26586,0.0007802170002833009,0.01252119243144989,0.9861937165260315,-3.388021945953369,4.921321868896484,-4.512217044830322,0.5430693030357361,0.5187646150588989,0.3184746503829956,-0.7702351808547974,0.5378694534301758,0.7430846095085144
214,26597,26596,0.022790992632508278,-0.028282474726438522,0.9853391051292419,-1.8042396306991577,1.4108332395553589,-4.339268207550049,0.5432916283607483,0.5189671516418457,0.318255215883255,-0.7288825511932373,0.5159327983856201,0.7005302309989929
215,26607,26606,-0.0015579932369291782,0.05296790972352028,1.0499635934829712,1.2935371398925781,-2.7542777061462402,-4.2173051834106445,0.5439620018005371,0.5189892053604126,0.3179764151573181,-0.701166033744812,0.5293322801589966,0.6618707776069641
216,26617,26616,0.006286005023866892,-0.03684810549020767,1.0468088388442993,3.257628917694092,-11.448143005371094,-2.735887050628662,0.5452212691307068,0.5188515782356262,0.32017844915390015,-0.678737223148346,0.5864161849021912,0.6241011619567871
217,26627,26626,-0.030978932976722717,-0.00562703562900424,1.1202361583709717,4.670644283294678,-13.293329238891602,-2.870129346847534,0.5447136163711548,0.5185505747795105,0.32021060585975647,-0.4261000156402588,0.6743343472480774,0.6017774939537048
218,26637,26636,-0.002978313947096467,-0.049309633672237396,1.0222464799880981,4.445921897888184,-9.358115196228027,-2.646307945251465,0.5463496446609497,0.5182750821113586,0.3201562166213989,-0.38968509435653687,0.7646143436431885,0.5685421824455261
219,26647,26646,-0.0001256420509889722,0.02233833633363247,1.0262527465820312,3.4951272010803223,-7.121801376342773,-2.8539745807647705,0.5466110706329346,0.5187627673149109,0.32027536630630493,-0.23031124472618103,0.7652381062507629,0.5429636836051941
220,26657,26656,0.02759440615773201,0.02512015402317047,1.024354338645935,0.8488490581512451,-3.078124761581421,-2.1275947093963623,0.5470472574234009,0.51863694190979,0.31990286707878113,-0.12278701364994049,0.8207385540008545,0.5184663534164429
221,26667,26666,-0.011882312595844269,-0.01097473781555891,1.0003070831298828,-2.1764087677001953,0.6540127992630005,-2.382892608642578,0.5492186546325684,0.5187300443649292,0.3199094533920288,-0.2342020571231842,0.822681725025177,0.4863639771938324
222,26677,26676,0.01855291984975338,0.03350604698061943,1.0249305963516235,-4.181512832641602,3.5014548301696777,-2.531853199005127,0.5509065389633179,0.5182414054870605,0.31990495324134827,-0.31451359391212463,0.8557748794555664,0.4582332968711853
223,26687,26686,0.01767057739198208,0.0057594869285821915,0.9901151657104492,-4.552652359008789,3.243364095687866,-2.1329336166381836,0.5510433912277222,0.5185491442680359,0.31630635261535645,-0.2656073272228241,0.782016932964325,0.4406525194644928
224,26697,26696,-0.010801351629197598,-0.003922265022993088,1.0152636766433716,-4.369215488433838,0.8587247729301453,-1.9850618839263916,0.5519671440124512,0.5181543827056885,0.3161827325820923,-0.28712162375450134,0.7772859334945679,0.4199100434780121
225,26707,26706,0.03367063030600548,0.01806613616645336,1.0047485828399658,-3.4474079608917236,-1.8996591567993164,-1.7338026762008667,0.5519635081291199,0.5184425711631775,0.31617310643196106,-0.1914294958114624,0.6977869272232056,0.4103482961654663
226,26717,26716,-0.04729346185922623,0.16790266335010529,0.9866646528244019,-0.17200948297977448,-4.8935041427612305,-2.572756767272949,0.552543044090271,0.5186341404914856,0.31674695014953613,-0.13690440356731415,0.6400346755981445,0.3967430293560028
227,26727,26726,-0.06252054125070572,0.31203028559684753,0.9434813857078552,-1.7487540245056152,-4.449305534362793,-1.4264626502990723,0.5544979572296143,0.517975926399231,0.3166114389896393,-0.20533937215805054,0.7015677094459534,0.35967138409614563
228,26737,26736,-0.010347221046686172,0.09906252473592758,1.0130219459533691,-0.45717138051986694,-3.0490758419036865,-1.6866027116775513,0.5550305247306824,0.518060564994812,0.31653985381126404,-0.11555922031402588,0.6678245663642883,0.34951356053352356
229,26747,26746,-0.014888384379446507,0.09709378331899643,0.9315738081932068,-1.1819101572036743,-1.995604157447815,-1.0639348030090332,0.5570458769798279,0.5181562900543213,0.3129034638404846,-0.21886561810970306,0.6471629738807678,0.3205541670322418
230,26757,26756,0.006541946902871132,0.05689099058508873,1.0513383150100708,-1.687943696975708,-0.9842526316642761,-1.5796995162963867,0.5569915175437927,0.5175315141677856,0.3126291334629059,-0.08783258497714996,0.6928160190582275,0.3161689043045044
231,26767,26766,0.01978522352874279,-0.0051656863652169704,0.9463884830474854,-1.600104808807373,3.839949131011963,-2.53401780128479,0.5569705963134766,0.5176888108253479,0.3123421370983124,0.01811450533568859,0.6444401741027832,0.3104599714279175
232,26777,26776,0.008176449686288834,0.09946122765541077,1.018293023109436,-2.715761423110962,1.4531896114349365,-2.089008331298828,0.5585117936134338,0.5171331167221069,0.31191736459732056,-0.07683276385068893,0.6671979427337646,0.27903255820274353
233,26787,26786,0.018245644867420197,0.0020872338209301233,0.9705173373222351,-2.8222134113311768,2.692579507827759,-1.8472424745559692,0.5601767897605896,0.5165829062461853,0.31250593066215515,-0.16456767916679382,0.6744323372840881,0.2492789775133133
234,26797,26796,-0.004779462236911058,0.028707753866910934,1.0534508228302002,-3.1631224155426025,3.073519706726074,-1.2433693408966064,0.5604121685028076,0.5167970061302185,0.3122551739215851,-0.10879319161176682,0.5976061224937439,0.24433980882167816
235,26807,26806,0.031027736142277718,-0.014228769578039646,0.9788438677787781,-3.142632484436035,1.669323205947876,-1.393629550933838,0.5620647072792053,0.5162470936775208,0.3118630051612854,-0.2108432948589325,0.603215754032135,0.22181864082813263
236,26817,26816,-0.013254908844828606,0.03312602639198303,1.0534719228744507,-3.218844413757324,-0.3867282271385193,-1.1406134366989136,0.5622933506965637,0.5156896114349365,0.3145025372505188,-0.14218741655349731,0.6009562015533447,0.2148299515247345
237,26827,26826,0.025365985929965973,0.0022090428974479437,1.0092777013778687,-3.454791307449341,-2.228867769241333,-1.0725629329681396,0.5629608631134033,0.5158878564834595,0.31443271040916443,-0.11388291418552399,0.5191160440444946,0.20853576064109802
238,26837,26836,-0.009328477084636688,0.002539107808843255,1.0264546871185303,-3.3797242641448975,-2.825901985168457,-0.9809169769287109,0.5642477869987488,0.515370786190033,0.3143167197704315,-0.13299386203289032,0.5130149722099304,0.19130900502204895
