,timestamp_start,timestamp_end,acc.x,acc.y,acc.z,gyro.x,gyro.y,gyro.z,stateEstimate.x,stateEstimate.y,stateEstimate.z,stabilizer.pitch,stabilizer.roll,stabilizer.yaw
0,20289,20285,-0.02704571560025215,-0.05672546103596687,1.0689566135406494,-0.9214204549789429,4.918209552764893,-1.9676918983459473,1.9846665859222412,4.044382095336914,0.1656944453716278,0.48523464798927307,-1.168096899986267,1.0630232095718384
1,20299,20295,0.02700410597026348,-0.07859914749860764,1.0543164014816284,-1.1935865879058838,4.399888515472412,-1.4476749897003174,1.983843445777893,4.044768810272217,0.167411208152771,0.5427929162979126,-1.1053049564361572,1.0236570835113525
2,20309,20305,0.02902628853917122,-0.017715880647301674,1.119516372680664,-1.345350980758667,3.0339486598968506,-1.2883636951446533,1.982174038887024,4.042901992797852,0.16907252371311188,0.521239161491394,-1.133554220199585,1.0067524909973145
3,20319,20315,0.001957315718755126,-0.028350796550512314,1.1217284202575684,1.2227271795272827,3.855888605117798,-1.4881397485733032,1.9831058979034424,4.043015956878662,0.17163777351379395,0.43412891030311584,-1.1393896341323853,1.0006576776504517
4,20329,20325,-0.0030631900299340487,0.02293495275080204,1.00559663772583,1.4407360553741455,4.985711097717285,-1.3609414100646973,1.9815505743026733,4.042096138000488,0.1736316978931427,0.34165138006210327,-1.1838958263397217,0.9960212707519531
5,20339,20335,-0.033377423882484436,0.1136334091424942,0.9877700805664062,0.005000051110982895,4.1901421546936035,-0.5801143646240234,1.9808528423309326,4.040177345275879,0.17559434473514557,0.2472028285264969,-1.2196909189224243,0.9895065426826477
6,20349,20345,-0.02258726768195629,0.02205410785973072,1.0913667678833008,2.0046472549438477,2.468761920928955,-1.3669034242630005,1.9810575246810913,4.042207717895508,0.17762649059295654,0.3207496404647827,-1.2434643507003784,0.9638361930847168
7,20359,20355,-0.001398803316988051,-0.00833507813513279,1.0754141807556152,4.073240280151367,0.3364619016647339,-0.9508276581764221,1.9807935953140259,4.041675090789795,0.1796945184469223,0.2591996490955353,-1.2288730144500732,0.9553101062774658
8,20369,20365,0.005131279118359089,0.0247267484664917,1.0439321994781494,4.9404730796813965,1.2326377630233765,-0.4957544505596161,1.976606845855713,4.032773494720459,0.18243052065372467,1.0382142066955566,0.28212061524391174,0.7585930228233337
9,20379,20375,-0.0024372010957449675,-0.02310064807534218,1.0162137746810913,4.026301860809326,4.370873928070068,0.7091832756996155,1.9720321893692017,4.031849384307861,0.18797239661216736,0.8488578200340271,0.1045457050204277,0.7884522676467896
10,20389,20385,0.01014197152107954,-0.04461095482110977,1.024976134300232,-9.156549453735352,12.168245315551758,1.435290813446045,1.9727472066879272,4.030796527862549,0.18893513083457947,0.7645779252052307,-0.09307779371738434,0.814419150352478
11,20399,20395,-0.005996196996420622,-0.017255477607250214,1.0395725965499878,-23.03782081604004,17.36567497253418,0.24279779195785522,1.9705473184585571,4.030259132385254,0.19266653060913086,0.43403276801109314,-0.46729376912117004,0.8644940853118896
12,20409,20405,-0.048629917204380035,-0.002199371112510562,1.0619159936904907,-32.283931732177734,20.445159912109375,-0.391566663980484,1.9718843698501587,4.033008098602295,0.1970573216676712,0.2387228161096573,-0.8462241888046265,0.8792687058448792
13,20419,20415,0.00018036730762105435,0.016523823142051697,1.0339488983154297,-31.602922439575195,23.260190963745117,-0.7499461770057678,1.9704382419586182,4.034278392791748,0.19510146975517273,0.10297125577926636,-1.2696367502212524,0.8752424716949463
14,20429,20425,-0.020707285031676292,-0.0024121489841490984,1.0480589866638184,-22.919269561767578,20.27472496032715,-0.7148729562759399,1.9711371660232544,4.035112380981445,0.19744430482387543,-0.29727238416671753,-1.7849441766738892,0.8826188445091248
15,20439,20435,0.014867454767227173,-0.02867501974105835,1.000499963760376,-7.824713706970215,17.29514503479004,-0.996697187423706,1.970409870147705,4.0355939865112305,0.199914813041687,-0.3835360109806061,-2.1710102558135986,0.8569847941398621
16,20449,20445,0.017618423327803612,0.11488460749387741,1.0025180578231812,8.710378646850586,7.037871837615967,-0.9175123572349548,1.9684935808181763,4.034560680389404,0.20123101770877838,-0.5502206087112427,-2.2938690185546875,0.8427623510360718
17,20459,20455,0.0023367139510810375,0.11729464679956436,0.9575767517089844,21.714399337768555,0.21244338154792786,0.2185596078634262,1.965975284576416,4.037581920623779,0.2036077380180359,-0.6502946019172668,-2.207005500793457,0.8371240496635437
18,20469,20465,0.0007486001122742891,-0.09220941364765167,1.0216660499572754,32.210391998291016,-3.7584049701690674,0.4512568712234497,1.9660415649414062,4.037240505218506,0.20605024695396423,-0.7101331353187561,-1.957059383392334,0.8505491614341736
19,20479,20475,-0.002173767425119877,-0.011334797367453575,1.0204023122787476,33.95570373535156,-7.5777130126953125,0.37947219610214233,1.9657639265060425,4.03702449798584,0.20842225849628448,-0.7615774273872375,-1.5659939050674438,0.8783980011940002
20,20489,20485,-0.05749369040131569,0.015212802216410637,1.0168170928955078,29.641754150390625,-8.83952522277832,0.7501662969589233,1.9658678770065308,4.036755561828613,0.21140602231025696,-0.6800616979598999,-1.333767056465149,0.8751556873321533
21,20499,20495,0.006623116787523031,0.11836006492376328,0.9680806398391724,18.384252548217773,-5.061823844909668,0.7290151715278625,1.9651718139648438,4.036298751831055,0.2138155847787857,-0.5353144407272339,-1.282444953918457,0.8482279777526855
22,20509,20505,0.09489753842353821,0.06943607330322266,0.9413483142852783,7.175354957580566,-2.834449291229248,0.4083666503429413,1.9633703231811523,4.038196086883545,0.21596501767635345,-0.48841479420661926,-1.23195219039917,0.8410239815711975
23,20519,20515,0.039380840957164764,0.06810425966978073,0.9521446824073792,0.3046317398548126,2.8707213401794434,0.05138784274458885,1.9630980491638184,4.038547992706299,0.2162182331085205,-0.6268035173416138,-1.093156099319458,0.8772825002670288
24,20529,20525,-0.015756230801343918,-0.010402292013168335,0.9826822280883789,0.6735407114028931,4.322268962860107,-0.3879939615726471,1.9633489847183228,4.037933349609375,0.2185731828212738,-0.7193494439125061,-1.0372875928878784,0.8934190273284912
25,20539,20535,0.01967662200331688,-0.023787949234247208,0.9670986533164978,3.292951822280884,5.439830303192139,-0.6124981045722961,1.9631855487823486,4.038297653198242,0.22074301540851593,-0.8369708061218262,-1.1261621713638306,0.8909643292427063
26,20549,20545,0.031613510102033615,-0.0478995107114315,0.9571494460105896,8.570627212524414,-0.22770191729068756,-0.0022506280802190304,1.9620939493179321,4.038479328155518,0.22052329778671265,-0.7553057670593262,-0.9842023253440857,0.8762458562850952
27,20559,20555,0.005459156818687916,-0.007188986986875534,0.97931969165802,14.833832740783691,-4.077831268310547,0.5312590003013611,1.9619038105010986,4.038862705230713,0.222488671541214,-0.767289936542511,-0.7580759525299072,0.8942294716835022
28,20569,20565,-0.01512209139764309,-0.014946866780519485,0.9829536080360413,18.49641990661621,-6.635507106781006,0.7694242000579834,1.9601598978042603,4.04070520401001,0.22463487088680267,-0.7120705246925354,-0.5342050790786743,0.9068231582641602
29,20579,20575,0.00942559726536274,-0.002500825095921755,0.9725400805473328,18.806873321533203,-8.96403980255127,1.06182861328125,1.958571195602417,4.041432857513428,0.22657908499240875,-0.4582231044769287,-0.42647242546081543,0.8823353052139282
30,20589,20585,0.011665442027151585,-0.0661032646894455,0.9495925903320312,15.13450813293457,-7.921421527862549,1.1103917360305786,1.9580986499786377,4.041215896606445,0.22754232585430145,-0.9782930612564087,-0.32242950797080994,0.9473468661308289
31,20599,20595,-0.007271625101566315,-0.09084741771221161,0.943194568157196,10.005517959594727,-5.081294536590576,0.588437020778656,1.9616948366165161,4.041395664215088,0.22977158427238464,-0.36414778232574463,-0.42756545543670654,0.8754876852035522
32,20609,20605,0.017917165532708168,-0.054970882833004,0.9675583839416504,6.471767425537109,-4.865597248077393,1.0353490114212036,1.9561916589736938,4.043508052825928,0.23232616484165192,-0.2332352101802826,-0.26890987157821655,0.88334721326828
33,20619,20615,-0.003781657898798585,-0.00022450719552580267,0.9867058992385864,6.611544132232666,-3.3028006553649902,1.502731442451477,1.9561619758605957,4.044102668762207,0.2354142665863037,-0.2770748436450958,-0.23559020459651947,0.8950499296188354
34,20629,20625,-0.034108348190784454,0.037989307194948196,1.014620065689087,6.367997646331787,0.6462511420249939,1.663207769393921,1.957308053970337,4.044966697692871,0.23730649054050446,-0.41661059856414795,-0.1969992071390152,0.914866030216217
35,20639,20635,-0.004240162204951048,0.0018354222411289811,1.0019352436065674,8.661648750305176,1.5678772926330566,2.298875331878662,1.9571452140808105,4.044497489929199,0.23915882408618927,-0.4320336580276489,0.007864966988563538,0.9472704529762268
36,20649,20645,-0.006554753985255957,0.015292643569409847,1.0162972211837769,10.167617797851562,2.1208887100219727,1.959489345550537,1.9579213857650757,4.04379415512085,0.24355894327163696,-0.4689507782459259,0.07087954133749008,0.9681591987609863
37,20659,20655,-0.030045652762055397,-0.016996780410408974,1.0153838396072388,11.101866722106934,-0.37639087438583374,2.034891128540039,1.9591704607009888,4.045778274536133,0.24552612006664276,-0.5624338984489441,0.012633390724658966,0.9723507761955261
38,20669,20665,0.0005287300446070731,-0.023790115490555763,0.9778357148170471,10.94699478149414,-3.6894683837890625,2.3333890438079834,1.9590452909469604,4.046719551086426,0.24762022495269775,-0.5332027673721313,0.1328471601009369,0.993550717830658
39,20679,20675,0.004414778668433428,0.007529731839895248,0.9710426330566406,11.155364036560059,-7.701000213623047,2.133307695388794,1.960279941558838,4.04758882522583,0.249663308262825,-0.5158101916313171,0.2528400123119354,1.0165843963623047
40,20689,20685,0.02446579560637474,0.0320989228785038,0.9247035384178162,10.976112365722656,-9.821036338806152,2.1376776695251465,1.9603904485702515,4.047834396362305,0.25426843762397766,-0.5149828791618347,0.3705633878707886,1.0364991426467896
41,20699,20695,0.07991808652877808,-0.0015935542760416865,0.8918130993843079,10.632403373718262,-11.058021545410156,2.2500290870666504,1.961059808731079,4.048436641693115,0.2562960684299469,-0.4028325080871582,0.555824875831604,1.0651109218597412
42,20709,20705,0.12079379707574844,-0.022280253469944,0.9006328582763672,9.306017875671387,-10.828500747680664,2.1384479999542236,1.9568415880203247,4.051251411437988,0.2582758069038391,-0.19127348065376282,0.5732454657554626,1.0794942378997803
43,20719,20715,0.0973084568977356,-0.03165588155388832,0.9273213744163513,8.541346549987793,-13.657666206359863,1.5140026807785034,1.9576166868209839,4.0546183586120605,0.2610830068588257,-0.137658953666687,0.6531499624252319,1.0947656631469727
44,20729,20725,-0.06026851013302803,-0.02438545785844326,0.9883803129196167,7.3067779541015625,-11.184493064880371,2.1608729362487793,1.9577317237854004,4.0545454025268555,0.26291486620903015,0.14687158167362213,0.8649618625640869,1.1329532861709595
45,20739,20735,-0.09286464005708694,-0.024822847917675972,0.9890909194946289,5.475740909576416,-3.1330525875091553,2.0374228954315186,1.9555141925811768,4.052603244781494,0.2647742033004761,-0.030968129634857178,0.7389088869094849,1.11483895778656
46,20749,20745,-0.01319391094148159,-0.1138371005654335,0.9326081871986389,3.221431016921997,-1.1541825532913208,2.347750186920166,1.9574809074401855,4.052723407745361,0.26543858647346497,-0.02644382044672966,0.8253418803215027,1.1339495182037354
47,20759,20755,0.013378774747252464,0.0716463252902031,0.9309576749801636,3.053234100341797,0.5303330421447754,1.9460293054580688,1.9570064544677734,4.05431604385376,0.2671484351158142,0.018672343343496323,0.9525634050369263,1.1668438911437988
48,20769,20765,0.0072786700911819935,-0.06795118004083633,0.9395024180412292,2.640085458755493,-0.3058893084526062,1.3640965223312378,1.956774115562439,4.053961277008057,0.2688376009464264,0.044140998274087906,0.9861536622047424,1.1900317668914795
49,20779,20775,-0.021630531176924706,-0.12575460970401764,0.9379767179489136,3.582221508026123,-3.285836696624756,0.6735468506813049,1.956896424293518,4.053425312042236,0.2692442536354065,0.08333566039800644,1.097654104232788,1.2118557691574097
50,20789,20785,-0.002195446053519845,-0.06927741318941116,0.9300926327705383,3.8153162002563477,-5.104133605957031,1.1421372890472412,1.9576858282089233,4.054376125335693,0.2706916928291321,0.014833914116024971,1.1292228698730469,1.2045918703079224
51,20799,20795,-0.006332490127533674,-0.01009009312838316,0.9358322024345398,3.070310592651367,-6.991666793823242,0.47282811999320984,1.9575115442276,4.054515838623047,0.2720664143562317,-0.01156592182815075,1.083101511001587,1.1990630626678467
52,20809,20805,-0.05019882693886757,0.029946349561214447,0.939109206199646,1.6208082437515259,-7.51071834564209,0.2906738817691803,1.9563887119293213,4.053914546966553,0.27340224385261536,0.14676062762737274,1.1792242527008057,1.218490481376648
53,20819,20815,-0.06679383665323257,0.1029287651181221,0.9462110996246338,0.32633522152900696,-8.355300903320312,0.07421828806400299,1.9579153060913086,4.053776264190674,0.2755156457424164,0.09155302494764328,1.244950294494629,1.1976851224899292
54,20829,20825,-0.03311023861169815,0.04234902933239937,0.9199476838111877,0.14839471876621246,-10.151773452758789,0.5281134247779846,1.9587972164154053,4.054018497467041,0.2767442762851715,0.2092084437608719,1.2132809162139893,1.2034579515457153
55,20839,20835,-0.018134048208594322,-0.03133925423026085,0.9355117082595825,-1.8052902221679688,-6.529726028442383,-0.18611997365951538,1.9583874940872192,4.05418586730957,0.2779722213745117,0.389627605676651,1.2449997663497925,1.2224844694137573
56,20849,20845,-0.015859024599194527,-0.01304637175053358,0.9445288777351379,-1.9820530414581299,-5.365687370300293,-0.4805554747581482,1.9589989185333252,4.053911209106445,0.28046801686286926,0.37187016010284424,1.2463438510894775,1.2037415504455566
57,20859,20855,-0.031752023845911026,0.020908601582050323,0.9767078161239624,-3.6318511962890625,-3.4389541149139404,-0.7657798528671265,1.9590458869934082,4.0547051429748535,0.28176698088645935,0.49755966663360596,1.231000542640686,1.211167335510254
58,20869,20865,-0.03586724027991295,0.027219412848353386,0.991980254650116,-3.5387039184570312,-2.7021288871765137,-0.7330472469329834,1.9605430364608765,4.055717468261719,0.28289762139320374,0.43194326758384705,1.191786527633667,1.1826366186141968
59,20879,20875,-0.020465295761823654,0.010567883029580116,0.9825720191001892,-3.4222066402435303,-0.09146689623594284,-0.2191547304391861,1.9600909948349,4.0564141273498535,0.2818962633609772,0.5068092346191406,1.155958652496338,1.1861450672149658
60,20889,20885,-0.03972950950264931,-0.024459388107061386,0.9965845346450806,-3.0734190940856934,-2.529869556427002,-0.5472137928009033,1.9604612588882446,4.055993556976318,0.2828793525695801,0.5682308077812195,1.1234811544418335,1.195289969444275
61,20899,20895,-0.07390812039375305,-0.005712402518838644,1.0060553550720215,-2.4155945777893066,-3.2940237522125244,-0.6636849045753479,1.9601398706436157,4.05608606338501,0.2838543653488159,0.5638525485992432,1.0902055501937866,1.1837650537490845
62,20909,20905,-0.07874603569507599,0.016993548721075058,0.9921669363975525,-1.998663306236267,-3.966454029083252,-0.58998042345047,1.9605602025985718,4.055105686187744,0.2848457098007202,0.49942195415496826,1.0638166666030884,1.1557438373565674
63,20919,20915,-0.04727434739470482,0.030195584520697594,0.9693179726600647,-2.2927792072296143,-3.9370830059051514,-0.15337064862251282,1.9597551822662354,4.055087089538574,0.2847948670387268,0.6041760444641113,1.0431190729141235,1.1626839637756348
64,20929,20925,0.008415608666837215,0.03963708132505417,0.9560167789459229,-2.6371757984161377,-2.2636044025421143,0.016360288485884666,1.959539532661438,4.055074214935303,0.285678505897522,0.6156489253044128,1.0146050453186035,1.1541634798049927
65,20939,20935,-0.026738587766885757,-0.05041514337062836,0.9756598472595215,-2.9289515018463135,-5.0172200202941895,0.1829967051744461,1.9598181247711182,4.054826736450195,0.28655171394348145,0.616254448890686,1.0561662912368774,1.1449285745620728
66,20949,20945,0.00218117143958807,0.012286758050322533,0.9546590447425842,-3.4977056980133057,-4.709447860717773,0.4747186005115509,1.9586106538772583,4.054017543792725,0.28751128911972046,0.7337071299552917,1.0083057880401611,1.1606736183166504
67,20959,20955,0.06878549605607986,0.030978545546531677,0.9249832630157471,-5.323854923248291,-3.4359970092773438,0.4926493167877197,1.9580950736999512,4.050820350646973,0.2882820963859558,0.7654433846473694,1.0211060047149658,1.157550573348999
68,20969,20965,0.11083952337503433,0.013303295709192753,0.9267992973327637,-5.8155293464660645,-2.1177077293395996,0.5646279454231262,1.9583189487457275,4.0507588386535645,0.28899142146110535,0.842210590839386,0.9227026700973511,1.174460768699646
69,20979,20975,0.09237883985042572,-0.03820399194955826,0.9495658278465271,-6.487612247467041,-0.3568868339061737,0.1001385822892189,1.9579188823699951,4.05076789855957,0.2903180718421936,0.894985556602478,0.8968560695648193,1.182350754737854
70,20989,20985,0.034171007573604584,-0.08865714818239212,0.9664981961250305,-5.044554710388184,-1.0832628011703491,-0.04802992194890976,1.9578635692596436,4.050450801849365,0.29093611240386963,0.9180197715759277,0.8591799139976501,1.1846948862075806
71,20999,20995,-0.04593375325202942,-0.003577715251594782,0.9737425446510315,-5.418222427368164,2.803722381591797,-0.6080781817436218,1.9571477174758911,4.049853801727295,0.29149577021598816,0.9227344989776611,0.8344424366950989,1.1808902025222778
72,21009,21005,-0.0021289188880473375,-0.05861721932888031,0.9550246000289917,-7.131889343261719,4.616111755371094,-0.43636608123779297,1.9584977626800537,4.050127029418945,0.28960737586021423,0.8036590814590454,0.7193979024887085,1.1670695543289185
73,21019,21015,-0.009954537265002728,-0.046668797731399536,0.9663054943084717,-6.552676200866699,3.8579492568969727,-0.09980041533708572,1.9590463638305664,4.049332141876221,0.28999266028404236,0.7519272565841675,0.5934190154075623,1.1682915687561035
74,21029,21025,-0.02354469895362854,0.008942818269133568,0.998131275177002,-6.011746406555176,5.798962593078613,-0.8645952343940735,1.9591641426086426,4.048913955688477,0.29032930731773376,0.6997875571250916,0.6309998035430908,1.1540217399597168
75,21039,21035,-0.016116220504045486,0.04906543716788292,0.9647740721702576,-6.454510688781738,2.9971818923950195,-0.4394126832485199,1.9593873023986816,4.048612594604492,0.2906326353549957,0.6459261775016785,0.5829759240150452,1.147255778312683
76,21049,21045,0.01883026212453842,-0.026479464024305344,0.9606404900550842,-4.913630962371826,3.6909639835357666,-0.12418253719806671,1.9595283269882202,4.048192501068115,0.29210519790649414,0.6161601543426514,0.540226936340332,1.1421701908111572
77,21059,21055,-0.030942508950829506,0.0037219885271042585,1.0195623636245728,-5.327852725982666,9.069148063659668,0.07593734562397003,1.9578806161880493,4.045852184295654,0.2924511134624481,0.6301698684692383,0.42925989627838135,1.1562494039535522
78,21069,21065,0.020275911316275597,-0.018177255988121033,0.9816118478775024,-4.629767894744873,13.081818580627441,0.2812974452972412,1.9585821628570557,4.046243667602539,0.29276883602142334,0.48262646794319153,0.32021364569664,1.156211018562317
79,21079,21075,0.02450665831565857,-0.0695231705904007,1.0062602758407593,-5.164259910583496,20.52255630493164,-0.6632828116416931,1.9590232372283936,4.0459113121032715,0.294222891330719,0.46526649594306946,0.37170907855033875,1.1614160537719727
80,21089,21085,-0.030145147815346718,-0.00622314028441906,1.020789384841919,-3.330510139465332,20.675926208496094,-0.08247808367013931,1.957855224609375,4.044740676879883,0.29466891288757324,0.11697260290384293,0.2721306383609772,1.1450365781784058
81,21099,21095,0.008722605183720589,0.005039531737565994,1.026735782623291,-2.4266881942749023,21.794265747070312,-1.578182339668274,1.9597833156585693,4.044683933258057,0.2950122654438019,-0.160884290933609,0.2727876603603363,1.1311748027801514
82,21109,21105,-0.010586511343717575,-0.002951079746708274,1.0145235061645508,-1.7835971117019653,20.32967758178711,-1.9752141237258911,1.9579436779022217,4.043782711029053,0.29401564598083496,-0.20492073893547058,0.2847570478916168,1.1287084817886353
83,21119,21115,0.01396073866635561,0.01756523922085762,0.978665828704834,-1.9065077304840088,14.049714088439941,-1.5209884643554688,1.9583282470703125,4.0431671142578125,0.2943522334098816,-0.4400121867656708,0.30108726024627686,1.1056628227233887
84,21129,21125,0.004104437306523323,0.060498885810375214,1.009141206741333,-2.429102897644043,7.656897068023682,-1.4818888902664185,1.9562205076217651,4.041341304779053,0.29471686482429504,-0.5704568028450012,0.312763512134552,1.0910040140151978
85,21139,21135,0.009101048111915588,-0.05568265914916992,0.9924916625022888,-3.323946952819824,3.674544334411621,-1.6664414405822754,1.9563058614730835,4.040987491607666,0.2950615882873535,-0.596226692199707,0.22999148070812225,1.0816493034362793
86,21149,21145,-0.020736610516905785,-0.005917207803577185,1.0443511009216309,-5.124689102172852,0.932934582233429,-1.4983763694763184,1.9543824195861816,4.041225910186768,0.2947399318218231,-0.6476433873176575,0.13449124991893768,1.0643516778945923
87,21159,21155,-0.026681359857320786,-0.09259083867073059,1.0247979164123535,-5.387563228607178,2.598975896835327,-1.5742087364196777,1.9533333778381348,4.0391974449157715,0.29512912034988403,-0.6653767228126526,0.17178857326507568,1.050326943397522
88,21169,21165,0.012460284866392612,-0.09049953520298004,0.992746114730835,-5.0673112869262695,5.972638130187988,-1.4827042818069458,1.9533865451812744,4.038751125335693,0.2954770624637604,-0.7180384397506714,0.12363885343074799,1.0345752239227295
89,21179,21175,0.015885625034570694,0.03344639390707016,1.0157867670059204,-3.7539501190185547,9.731101036071777,-1.3553262948989868,1.9509347677230835,4.036561965942383,0.2953812777996063,-0.6711955666542053,0.008879991248250008,1.020949363708496
90,21189,21185,0.041616518050432205,0.05020356923341751,0.9794902801513672,-3.2467119693756104,10.425829887390137,-1.1368826627731323,1.952042818069458,4.035923957824707,0.295701801776886,-0.8339698314666748,-0.007653020787984133,1.006934642791748
91,21199,21195,0.005426107440143824,0.001611594925634563,1.0094318389892578,-1.6391301155090332,9.904353141784668,-0.965694785118103,1.9508837461471558,4.034540176391602,0.29600828886032104,-0.8449797630310059,-0.011377668008208275,0.9995682239532471
92,21209,21205,-0.00857403501868248,-0.00572579400613904,1.024877905845642,-1.1607966423034668,8.985448837280273,-1.0551469326019287,1.9493228197097778,4.0325846672058105,0.2951885163784027,-0.9336785674095154,0.00575069198384881,0.9926167130470276
93,21219,21215,-0.023096594959497452,-0.07828767597675323,0.9987418055534363,-1.47550368309021,7.1890177726745605,-1.0950679779052734,1.9489816427230835,4.032317638397217,0.2954809069633484,-0.9960130453109741,-0.04919356107711792,0.9788751006126404
94,21229,21225,-0.030774906277656555,-0.11097723245620728,0.993526041507721,-2.3943634033203125,7.975993633270264,-0.9949179887771606,1.9475345611572266,4.031560897827148,0.2957683205604553,-1.0466243028640747,-0.10901319980621338,0.9629526734352112
95,21239,21235,-0.013297371566295624,-0.042259134352207184,1.0129365921020508,-2.923341989517212,7.028733730316162,-1.070969820022583,1.9480531215667725,4.030211448669434,0.2960081398487091,-1.248216152191162,-0.10704582184553146,0.9564270973205566
96,21249,21245,0.012779578566551208,-0.049388401210308075,1.004721760749817,-3.4666266441345215,6.919826030731201,-1.218641757965088,1.94582200050354,4.030459880828857,0.29415521025657654,-1.2008475065231323,-0.19020044803619385,0.93758225440979
97,21259,21255,0.03501959145069122,-0.07229556143283844,0.9952829480171204,-3.744832992553711,6.172105312347412,-1.142919659614563,1.945681095123291,4.0293869972229,0.29428917169570923,-1.3872591257095337,-0.20017461478710175,0.9306792616844177
98,21269,21265,0.027392767369747162,-0.01680419221520424,1.0420258045196533,-2.6324057579040527,4.305901527404785,-1.526665449142456,1.9464290142059326,4.028994560241699,0.2944665551185608,-1.4600639343261719,-0.2865622937679291,0.9112721681594849
99,21279,21275,-0.017593497410416603,0.04289519786834717,1.0181862115859985,-1.2690855264663696,2.535168409347534,-1.3890860080718994,1.946775197982788,4.028580188751221,0.29554104804992676,-1.4832013845443726,-0.18970702588558197,0.9154319763183594
100,21289,21285,-0.023508423939347267,0.025805482640862465,1.0110454559326172,-0.5057553648948669,1.5328689813613892,-1.5283616781234741,1.947371482849121,4.027583122253418,0.295848548412323,-1.493359088897705,-0.23903360962867737,0.8943434953689575
101,21299,21295,-0.015047143213450909,0.07251560688018799,1.008752703666687,-0.6245877146720886,1.5188055038452148,-1.1403495073318481,1.9470847845077515,4.027604103088379,0.2961350083351135,-1.4951671361923218,-0.27818426489830017,0.8725190162658691
102,21309,21305,0.006776057183742523,-0.019601328298449516,0.9712607264518738,-1.2235372066497803,1.3935561180114746,-0.41716551780700684,1.9471046924591064,4.027816295623779,0.29633551836013794,-1.4960044622421265,-0.31968584656715393,0.8536816835403442
103,21319,21315,0.00497002387419343,-0.05716150999069214,1.0508811473846436,-1.6719099283218384,3.2719597816467285,-0.572727620601654,1.9472657442092896,4.026350498199463,0.29654061794281006,-1.581571340560913,-0.2197643369436264,0.8747889995574951
104,21329,21325,0.02365732379257679,-0.11921337246894836,1.0276072025299072,-1.1958218812942505,1.4243649244308472,-0.746558666229248,1.9458181858062744,4.024507522583008,0.2968275249004364,-1.6660168170928955,-0.28008586168289185,0.8623966574668884
105,21339,21335,-0.007197730243206024,-0.09209480881690979,1.0494554042816162,-0.054673463106155396,-2.8346869945526123,-1.1181330680847168,1.94613778591156,4.024213790893555,0.29715001583099365,-1.6320908069610596,-0.2512505054473877,0.8601642847061157
106,21349,21345,-0.028925156220793724,-0.010349342599511147,1.0475544929504395,0.30967625975608826,-3.9347400665283203,-0.9270301461219788,1.9447383880615234,4.022932052612305,0.2986101806163788,-1.5551689863204956,-0.29204562306404114,0.8385152816772461
107,21359,21355,-0.06530676037073135,0.025959966704249382,1.045831561088562,-2.4804093837738037,-0.011638674885034561,-0.4423958361148834,1.944806694984436,4.020636081695557,0.29908517003059387,-1.5308483839035034,-0.24902689456939697,0.8410136103630066
108,21369,21365,0.05115833505988121,-0.014275798574090004,1.0170129537582397,-2.2959208488464355,-3.477630376815796,-0.22727462649345398,1.9446426630020142,4.019878387451172,0.29957687854766846,-1.5222351551055908,-0.23552115261554718,0.8443898558616638
109,21379,21375,0.05822337046265602,0.027261581271886826,0.9953123331069946,-3.7475900650024414,-1.6515569686889648,-0.6789873242378235,1.9441518783569336,4.018610954284668,0.300258994102478,-1.4243930578231812,-0.24149298667907715,0.8402012586593628
110,21389,21385,0.060041483491659164,-0.04688265174627304,1.006671667098999,-2.1927642822265625,-2.2728047370910645,-1.3031367063522339,1.9454206228256226,4.0181379318237305,0.30079683661460876,-1.50345778465271,-0.3381650745868683,0.8253978490829468
111,21399,21395,-0.017438367009162903,-0.012760378420352936,1.0092424154281616,-3.5641074180603027,-0.9642990231513977,-0.8583008050918579,1.9460655450820923,4.017178535461426,0.30125105381011963,-1.5702908039093018,-0.3415355086326599,0.8249956369400024
112,21409,21405,-0.007954166270792484,-0.07042635232210159,0.9855443835258484,-1.9640204906463623,-1.2343668937683105,-1.2481614351272583,1.9460270404815674,4.017316818237305,0.3007212281227112,-1.475288987159729,-0.42467567324638367,0.7995460629463196
113,21419,21415,0.005067013204097748,-0.056986745446920395,0.9860207438468933,-0.09259868413209915,-2.865910291671753,-0.9423877000808716,1.9472297430038452,4.016241550445557,0.3012182414531708,-1.6858752965927124,-0.40256041288375854,0.8143097162246704
114,21429,21425,-0.05386468023061752,0.03387068957090378,0.9936866760253906,0.4881584644317627,-4.27561092376709,-0.13971754908561707,1.949839472770691,4.014345169067383,0.3014586269855499,-1.5437631607055664,-0.4289669394493103,0.7936570048332214
115,21439,21435,-0.007456521969288588,0.04581444337964058,0.973006010055542,2.4082770347595215,-7.6179280281066895,0.8329288959503174,1.9502009153366089,4.014095306396484,0.3030897378921509,-1.3735939264297485,-0.4343772232532501,0.7799084186553955
116,21449,21445,-0.010622495785355568,0.010721744038164616,1.004143476486206,3.966348171234131,-10.818462371826172,0.42319416999816895,1.9511289596557617,4.013304233551025,0.30356913805007935,-1.479588270187378,-0.3322748839855194,0.816376268863678
117,21459,21455,0.0008518579415977001,-0.05268334969878197,1.0123010873794556,2.5295679569244385,-10.288917541503906,1.3082953691482544,1.9521706104278564,4.0132246017456055,0.30407828092575073,-1.3140323162078857,-0.31427058577537537,0.813081681728363
118,21469,21465,-0.023104535415768623,-0.08956227451562881,1.0632632970809937,1.4165713787078857,-7.856235980987549,0.6330887675285339,1.9521960020065308,4.013280391693115,0.30469459295272827,-1.151296615600586,-0.30912068486213684,0.816595733165741
119,21479,21475,-0.033436257392168045,-0.08265934884548187,1.045972228050232,-0.15858379006385803,-6.627692699432373,0.39824560284614563,1.9519412517547607,4.012186527252197,0.30721548199653625,-1.2562133073806763,-0.31912747025489807,0.8320828080177307
120,21489,21485,-0.005440855398774147,-0.09713475406169891,0.9937183856964111,-2.212653398513794,-3.9756247997283936,-0.1982029378414154,1.954591155052185,4.011668682098389,0.3078530430793762,-1.060046911239624,-0.36290115118026733,0.8193073868751526
121,21499,21495,0.023505548015236855,-0.06044255569577217,0.9758629202842712,-2.652005672454834,-2.4763593673706055,0.4961724281311035,1.9550974369049072,4.012710094451904,0.30878129601478577,-0.9919867515563965,-0.4205356240272522,0.8110274076461792
122,21509,21505,-0.0006240029470063746,0.022483162581920624,1.0009396076202393,-0.6168596148490906,-4.757381439208984,0.7268455028533936,1.9561737775802612,4.012277126312256,0.30606985092163086,-1.0014431476593018,-0.393404096364975,0.8288792967796326
123,21519,21515,0.0219764094799757,-0.015462605282664299,0.9622013568878174,1.1551637649536133,-6.846278190612793,0.7750824689865112,1.956779956817627,4.011459827423096,0.30663084983825684,-0.8897399306297302,-0.3361508250236511,0.8437437415122986
124,21529,21525,-0.0021409729961305857,-0.04147256538271904,0.9818209409713745,0.8764300346374512,-3.537651777267456,0.7720025777816772,1.9576163291931152,4.010373115539551,0.3071727752685547,-0.8416775465011597,-0.3384911119937897,0.8514872193336487
125,21539,21535,0.028745824471116066,0.015146850608289242,0.9888335466384888,1.45869779586792,-4.966175556182861,0.381327360868454,1.9590948820114136,4.010397434234619,0.30600032210350037,-0.7268882989883423,-0.3401513695716858,0.8529639840126038
126,21549,21545,0.015659436583518982,0.015460357069969177,0.9941771030426025,0.9669122695922852,-6.257452487945557,0.349105566740036,1.9594240188598633,4.011077404022217,0.3064127564430237,-0.8441411256790161,-0.34088581800460815,0.867831289768219
127,21559,21555,-0.03417219966650009,-0.007457622326910496,0.998263418674469,-0.21190887689590454,-7.546438217163086,0.7425709366798401,1.962834119796753,4.009564399719238,0.30668455362319946,-0.7761496305465698,-0.27647796273231506,0.8821737766265869
128,21569,21565,0.0519656278192997,-0.05444865673780441,0.9895063042640686,-1.093764305114746,-6.616094589233398,0.6047550439834595,1.9644825458526611,4.009374618530273,0.30704396963119507,-0.7036809325218201,-0.2358824610710144,0.8985735774040222
129,21579,21575,0.019821977242827415,-0.013018358498811722,0.9942346811294556,-1.7474085092544556,-5.499514102935791,0.6767611503601074,1.9656345844268799,4.0100789070129395,0.3059518337249756,-0.6500241756439209,-0.28944748640060425,0.9007408618927002
130,21589,21585,-0.01283286139369011,-0.014608955942094326,0.9837181568145752,-2.4548938274383545,-4.195135593414307,0.31431904435157776,1.9675438404083252,4.01025390625,0.30611374974250793,-0.6875436902046204,-0.34792765974998474,0.9082407355308533
131,21599,21595,-0.03491883724927902,0.05013861507177353,0.9794409871101379,-1.7751721143722534,-4.619321346282959,0.760765790939331,1.9670135974884033,4.0099077224731445,0.3064514696598053,-0.5649386644363403,-0.41132426261901855,0.9035521149635315
132,21609,21605,-0.04331236705183983,0.035937048494815826,1.0160430669784546,-1.2974638938903809,-6.258340835571289,1.4003809690475464,1.9682338237762451,4.009778022766113,0.3089365065097809,-0.4496861696243286,-0.460043728351593,0.9034647345542908
133,21619,21615,-0.028507670387625694,-0.028164688497781754,1.0248593091964722,0.46524426341056824,-6.029904842376709,0.5930635333061218,1.9705849885940552,4.0095133781433105,0.30926936864852905,-0.5521695017814636,-0.4818253815174103,0.9243115186691284
134,21629,21625,0.014792499132454395,-0.02464006468653679,0.9938767552375793,1.9705688953399658,-4.9589972496032715,0.7482972145080566,1.9714641571044922,4.007302761077881,0.3096991777420044,-0.484939843416214,-0.32139620184898376,0.9421974420547485
135,21639,21635,-0.00020152989600319415,0.0023912370670586824,0.9967669248580933,3.1344947814941406,-4.89931583404541,0.888326108455658,1.973219633102417,4.008022308349609,0.30851560831069946,-0.42692485451698303,-0.38574695587158203,0.9446431994438171
136,21649,21645,-0.01967235840857029,-0.04397996515035629,1.0138424634933472,3.450453996658325,-8.532155990600586,0.6343774795532227,1.9744795560836792,4.007838726043701,0.3088005483150482,-0.3184913992881775,-0.33976954221725464,0.95329350233078
137,21659,21655,-0.0261000394821167,-0.03267093747854233,1.003748893737793,2.82157826423645,-4.299781799316406,1.0037665367126465,1.975019931793213,4.005918502807617,0.30916324257850647,-0.06381341069936752,-0.29956886172294617,0.951950192451477
138,21669,21665,0.03922903165221214,-0.01300120260566473,0.9447051882743835,1.565415382385254,-1.259135365486145,1.28144109249115,1.974254846572876,4.005989074707031,0.3096281588077545,-0.26556429266929626,-0.26935914158821106,0.9795318841934204
139,21679,21675,0.0783580020070076,-0.021382663398981094,0.9548339247703552,1.5162793397903442,-4.140362739562988,1.4010319709777832,1.9755303859710693,4.0053863525390625,0.3074943721294403,-0.07897961884737015,-0.2596866190433502,0.9804627299308777
140,21689,21685,-0.04594475403428078,-0.015381257981061935,1.0192056894302368,-0.8829384446144104,1.3876359462738037,1.34014093875885,1.9766476154327393,4.0052642822265625,0.307561457157135,-0.15727795660495758,-0.2642652988433838,1.0019253492355347
141,21699,21695,-0.016116535291075706,-0.11051826924085617,1.005288004875183,-1.2627795934677124,-2.1934921741485596,1.670093297958374,1.9789758920669556,4.005918979644775,0.30752861499786377,-0.1769278347492218,-0.29068607091903687,1.0169316530227661
142,21709,21705,0.059815943241119385,-0.029348377138376236,0.9806669354438782,-0.5456967353820801,-3.266059637069702,1.1037817001342773,1.9804024696350098,4.005849361419678,0.31128230690956116,-0.25009864568710327,-0.3167153000831604,1.0370025634765625
143,21719,21715,-0.022661423310637474,-0.013776288367807865,1.0087664127349854,-0.3618026673793793,-2.0099596977233887,1.3023594617843628,1.9822512865066528,4.005709648132324,0.31158334016799927,-0.14097341895103455,-0.3318344056606293,1.0445421934127808
144,21729,21725,0.01565377600491047,-0.1276520937681198,0.9856364130973816,1.379945993423462,-7.711158275604248,1.8725695610046387,1.9835323095321655,4.0056681632995605,0.3118578791618347,0.05772511288523674,-0.3316667675971985,1.0485001802444458
145,21739,21735,-0.01209547370672226,0.0435505248606205,1.0175572633743286,1.7726188898086548,-8.934157371520996,2.192351818084717,1.9829295873641968,4.005386829376221,0.3103081285953522,0.07707944512367249,-0.3086189925670624,1.0703094005584717
146,21749,21745,-0.026042373850941658,0.06761317700147629,1.0268831253051758,3.118809461593628,-8.728772163391113,1.7420574426651,1.9836088418960571,4.005509376525879,0.3102712631225586,0.19514678418636322,-0.27601590752601624,1.0899393558502197
147,21759,21755,0.0012409966439008713,-0.009780422784388065,1.0147405862808228,3.944650173187256,-4.430377960205078,1.6688320636749268,1.9852676391601562,4.0053205490112305,0.3105236887931824,0.28500428795814514,-0.21906059980392456,1.119574785232544
148,21769,21765,-0.0031778118573129177,0.03174496069550514,1.041128396987915,3.8869335651397705,-2.6946070194244385,1.5414888858795166,1.98736572265625,4.007318019866943,0.31023791432380676,0.2476172149181366,-0.16323204338550568,1.139826774597168
149,21779,21775,0.01274220272898674,-0.009956235066056252,0.9966126084327698,3.3042540550231934,-0.45373213291168213,1.5152209997177124,1.9888134002685547,4.006586074829102,0.31044095754623413,0.10936528444290161,-0.10789740830659866,1.1628162860870361
150,21789,21785,-0.006420170422643423,-0.033394526690244675,0.9505420923233032,1.2724730968475342,1.2988195419311523,1.640599250793457,1.9924736022949219,4.0065598487854,0.310558557510376,0.23847731947898865,-0.07986202090978622,1.1728148460388184
151,21799,21795,0.00928889587521553,-0.07069600373506546,0.9551666378974915,0.009759526699781418,0.6300559639930725,1.9281187057495117,1.9924179315567017,4.005599498748779,0.31096935272216797,0.19813232123851776,-0.22234134376049042,1.2004969120025635
152,21809,21805,0.018522212281823158,-0.0284573957324028,0.9897858500480652,-1.036737322807312,-0.9629366993904114,1.3644956350326538,1.9942325353622437,4.005987644195557,0.31286880373954773,0.324679970741272,-0.2171703279018402,1.209580898284912
153,21819,21815,-0.018361153081059456,-0.09282015264034271,1.0255763530731201,1.5191487073898315,-4.841180801391602,1.2437028884887695,1.9939178228378296,4.006267547607422,0.31325316429138184,0.3309088945388794,-0.21944096684455872,1.2239298820495605
154,21829,21825,-0.0038350995164364576,-0.13783858716487885,1.0067028999328613,2.500763416290283,-2.218862771987915,1.256087303161621,1.9946504831314087,4.0055999755859375,0.3135643005371094,0.420048326253891,-0.17909371852874756,1.2334636449813843
155,21839,21835,-0.00925634428858757,-0.040371209383010864,1.0264350175857544,3.5521469116210938,-1.4513075351715088,1.290091633796692,1.9952207803726196,4.005345344543457,0.31222641468048096,0.4239603877067566,-0.1278539001941681,1.245362639427185
156,21849,21845,0.022806532680988312,0.052445534616708755,0.9827268123626709,3.7007827758789062,-0.3376448154449463,1.48042631149292,1.9963895082473755,4.0048508644104,0.3124177157878876,0.47359180450439453,-0.060714248567819595,1.2567354440689087
157,21859,21855,0.02584981918334961,-0.03956982120871544,0.9676806330680847,1.7520219087600708,5.076289176940918,1.4604790210723877,1.997118353843689,4.004587173461914,0.3126470148563385,0.40983083844184875,-0.005914382170885801,1.273078203201294
158,21869,21865,0.028264688327908516,-0.0016398420557379723,1.008981704711914,0.5576867461204529,4.62885046005249,1.2545113563537598,1.998528003692627,4.0042595863342285,0.3128545880317688,0.31348541378974915,0.024825867265462875,1.2885957956314087
159,21879,21875,0.01814349740743637,-0.019251840189099312,1.011784315109253,-0.3371713161468506,1.958940029144287,0.7812749743461609,2.0005760192871094,4.003921031951904,0.3130432367324829,0.23713132739067078,0.02305448427796364,1.3023325204849243
160,21889,21885,-0.0139624597504735,-0.014280618168413639,0.9997397065162659,-2.6262271404266357,-0.46203699707984924,1.4550586938858032,2.0021324157714844,4.003844738006592,0.31328994035720825,0.2677749991416931,0.0008117718389257789,1.3141120672225952
161,21899,21895,-0.01686965487897396,-0.009711668826639652,0.9957235455513,-3.4244511127471924,-1.3263466358184814,1.9756797552108765,2.0034945011138916,4.004411697387695,0.31349852681159973,0.3901240825653076,-0.05199979618191719,1.3310773372650146
162,21909,21905,0.004896343685686588,0.039893314242362976,0.9811780452728271,-3.455805540084839,-2.764536142349243,2.1105337142944336,2.003750801086426,4.004706382751465,0.3146675229072571,0.4426847994327545,-0.11781825125217438,1.3506861925125122
163,21919,21915,-0.021255934610962868,0.08223117142915726,1.0425543785095215,-1.5670382976531982,-2.481259822845459,1.9878699779510498,2.001779794692993,4.003170967102051,0.31510820984840393,0.5859251022338867,-0.157465860247612,1.3668203353881836
164,21929,21925,0.0010181227698922157,0.029603691771626472,1.0283255577087402,1.356399655342102,-2.2601828575134277,2.106848955154419,2.002636671066284,4.003227233886719,0.31538212299346924,0.4120374321937561,-0.1579565703868866,1.38755464553833
165,21939,21935,-0.03322209045290947,0.020610909909009933,1.0380563735961914,3.2121081352233887,1.3588424921035767,1.2987462282180786,2.0056474208831787,4.003316402435303,0.3150250017642975,0.5086838603019714,-0.04804570972919464,1.3925817012786865
166,21949,21945,-0.03755490854382515,0.019489726051688194,1.0027159452438354,4.603150844573975,4.148757457733154,1.767501950263977,2.0054900646209717,4.002734184265137,0.31541895866394043,0.47229015827178955,0.009636906906962395,1.4048757553100586
167,21959,21955,-0.03043210692703724,0.05236360803246498,0.9724380970001221,3.285958766937256,5.640881538391113,1.4880563020706177,2.0039749145507812,4.001842021942139,0.31571292877197266,0.4765709936618805,0.06827721744775772,1.4217647314071655
168,21969,21965,-0.027560899034142494,0.07091518491506577,0.9404881000518799,-0.0175289586186409,7.880016803741455,2.462357759475708,2.004356622695923,4.001387119293213,0.31671151518821716,0.29554009437561035,0.0816955417394638,1.4402871131896973
169,21979,21975,-0.041600119322538376,0.03143146634101868,0.9495930671691895,-1.6413829326629639,4.510340213775635,1.2249302864074707,2.0065500736236572,4.0009989738464355,0.3169496953487396,0.2965575158596039,0.05989506468176842,1.461265206336975
170,21989,21985,-0.0014615432592108846,0.006551520898938179,0.9887233972549438,-3.211595058441162,0.7590057849884033,2.0148425102233887,2.0072274208068848,4.0015339851379395,0.3172833025455475,0.15444134175777435,-0.0040875268168747425,1.481353521347046
171,21999,21995,-0.04889177903532982,-0.02535632625222206,1.059790849685669,-3.0442955493927,-3.0668375492095947,1.4865449666976929,2.007361888885498,4.001246929168701,0.3175041377544403,0.2526882290840149,0.010005784220993519,1.4898353815078735
172,22009,22005,-0.015721525996923447,-0.07713870704174042,1.005058765411377,-1.9242295026779175,-2.8752193450927734,1.6466833353042603,2.0079643726348877,4.000643253326416,0.31661927700042725,0.3655283451080322,-0.04809403419494629,1.5099339485168457
173,22019,22015,-0.011085469275712967,-0.003963031806051731,0.9828172326087952,-2.0693812370300293,-0.8404560089111328,1.2392290830612183,2.006552219390869,4.0001115798950195,0.31695592403411865,0.31469836831092834,-0.08216537535190582,1.5256561040878296
174,22029,22025,0.03747177869081497,0.027316320687532425,0.9334506392478943,-2.5774717330932617,2.802563428878784,1.3485084772109985,2.0083773136138916,4.0013556480407715,0.3171484172344208,0.30541375279426575,-0.052131492644548416,1.5427521467208862
175,22039,22035,0.045271262526512146,0.08381292968988419,0.949489176273346,-2.254312753677368,4.894139289855957,1.6511884927749634,2.00956130027771,4.000759601593018,0.31972596049308777,0.3031100332736969,-0.07871828228235245,1.5459891557693481
176,22049,22045,0.04161743447184563,-0.05197438225150108,0.9447371959686279,-2.5096020698547363,6.238290309906006,1.521545171737671,2.0104470252990723,4.00112771987915,0.32002851366996765,0.3313378393650055,-0.12606948614120483,1.5617924928665161
177,22059,22055,0.028080035001039505,-0.27909713983535767,0.9517870545387268,-1.6526246070861816,4.181599140167236,1.1389402151107788,2.0108704566955566,4.0009894371032715,0.3202728033065796,0.25101926922798157,-0.09096315503120422,1.5792924165725708
178,22069,22065,-0.00455280439928174,-0.22618630528450012,0.9967740774154663,0.3806931972503662,3.0973260402679443,1.2561225891113281,2.0118727684020996,4.001735210418701,0.31851187348365784,0.21724918484687805,-0.12844400107860565,1.6152280569076538
179,22079,22075,-0.007026577368378639,-0.15038622915744781,0.988221287727356,0.08645033091306686,4.0198798179626465,1.6271913051605225,2.0125434398651123,4.001871109008789,0.3185666501522064,0.18591539561748505,-0.139134481549263,1.613082766532898
180,22089,22085,0.01397932879626751,-0.062232911586761475,0.9676861763000488,-1.4897161722183228,4.031646728515625,2.055431365966797,2.0132863521575928,4.002023220062256,0.3186062276363373,0.19270266592502594,-0.07663334161043167,1.6193816661834717
181,22099,22095,0.10748011618852615,-0.07318773865699768,0.9569714069366455,-2.8279974460601807,5.9708991050720215,1.9272832870483398,2.0134615898132324,4.000850677490234,0.31908589601516724,0.19233554601669312,-0.11515376716852188,1.639830231666565
182,22109,22105,0.10989350080490112,-0.08652151376008987,0.9900125861167908,-3.1014316082000732,4.8655571937561035,1.1640663146972656,2.0139966011047363,4.000845909118652,0.31913521885871887,0.033174850046634674,-0.0926680788397789,1.6384620666503906
183,22119,22115,0.10745464265346527,-0.15814822912216187,1.016013741493225,-4.84311580657959,4.862362861633301,0.669735312461853,2.014583110809326,3.9982106685638428,0.31902965903282166,0.03960590437054634,-0.16821181774139404,1.6568543910980225
184,22129,22125,0.08193038403987885,-0.12532800436019897,0.9572523236274719,-4.090106010437012,4.6489434242248535,1.371201992034912,2.0149199962615967,3.9979875087738037,0.3190555274486542,0.0010171133326366544,-0.2980264723300934,1.668045997619629
185,22139,22135,0.004558082204312086,-0.015735412016510963,0.9745949506759644,-3.720412015914917,5.216695785522461,1.6227900981903076,2.0139963626861572,3.997076988220215,0.3207734227180481,0.04051940143108368,-0.2572440207004547,1.664865255355835
186,22149,22145,0.007381014991551638,-0.014048409648239613,0.9411574006080627,-2.092564821243286,5.603352069854736,2.0185866355895996,2.014110803604126,3.996033191680908,0.3207949995994568,0.029996559023857117,-0.32270848751068115,1.6831914186477661
187,22159,22155,0.0023779685143381357,-0.0029322109185159206,0.9887975454330444,0.5677898526191711,4.365408897399902,1.946736216545105,2.015056610107422,3.9967706203460693,0.32074740529060364,-0.060290317982435226,-0.3548682630062103,1.7020524740219116
188,22169,22165,0.00520536582916975,0.03657279163599014,1.0380549430847168,2.018207311630249,3.1032652854919434,1.7448601722717285,2.0162851810455322,3.9954466819763184,0.3200664520263672,-0.14842656254768372,-0.35280999541282654,1.706888198852539
189,22179,22175,-0.011281677521765232,0.05635470524430275,1.0480152368545532,3.2455174922943115,3.3589327335357666,1.8654026985168457,2.0165693759918213,3.9953088760375977,0.3200094997882843,-0.146961972117424,-0.32834306359291077,1.7238045930862427
190,22189,22185,-0.023725705221295357,0.07672015577554703,1.0046579837799072,0.6269780993461609,4.846991062164307,2.112208366394043,2.017594337463379,3.995008707046509,0.3199746608734131,-0.22519628703594208,-0.29819658398628235,1.74132239818573
191,22199,22195,-0.027399476617574692,-0.020648831501603127,0.9962368607521057,0.6328748464584351,7.698324680328369,1.391350507736206,2.018629550933838,3.9959330558776855,0.32032233476638794,-0.3901366889476776,-0.27917808294296265,1.772314190864563
192,22209,22205,-0.04191484674811363,0.18024815618991852,0.9408017992973328,-0.011855118907988071,3.9617972373962402,1.5222721099853516,2.0207931995391846,3.9964699745178223,0.3202912509441376,-0.4021036922931671,-0.2727372944355011,1.7886228561401367
193,22219,22215,-0.047156188637018204,0.11898491531610489,0.9846823215484619,-0.07727468013763428,1.7891286611557007,1.431160569190979,2.0219666957855225,3.996169328689575,0.32016071677207947,-0.5562564730644226,-0.2778696119785309,1.8102580308914185
194,22229,22225,-0.0386432409286499,0.002511858707293868,1.0487632751464844,0.7003984451293945,-4.870465278625488,1.376041054725647,2.021972179412842,3.996195077896118,0.3202153444290161,-0.48416396975517273,-0.2851455807685852,1.8283318281173706
195,22239,22235,-0.05766674131155014,-0.025470618158578873,1.043758511543274,1.3798472881317139,-6.530903339385986,1.1552985906600952,2.0216994285583496,3.9958183765411377,0.3194647431373596,-0.42683741450309753,-0.282315194606781,1.8401999473571777
196,22249,22245,-0.03672576695680618,0.04488563910126686,1.013513445854187,0.3399825990200043,-3.7813732624053955,1.2936614751815796,2.0235702991485596,3.9958903789520264,0.3193601071834564,-0.5086873769760132,-0.27577781677246094,1.8534302711486816
197,22259,22255,0.026339838281273842,0.08599502593278885,0.9719151854515076,-1.5550448894500732,-0.7619754672050476,1.4314913749694824,2.0216310024261475,3.995652675628662,0.3192918598651886,-0.43784451484680176,-0.2770923674106598,1.8648899793624878
198,22269,22265,0.0149166164919734,0.07428375631570816,0.9837208390235901,-2.4511096477508545,-0.35594043135643005,0.5072133541107178,2.021289587020874,3.9960312843322754,0.3164081275463104,-0.31654858589172363,-0.30207887291908264,1.8849903345108032
199,22279,22275,0.029604002833366394,-0.11461688578128815,0.9576777219772339,0.29175081849098206,-2.9951529502868652,0.7169815897941589,2.0223324298858643,3.9957170486450195,0.31618210673332214,-0.28113165497779846,-0.3151950538158417,1.8717032670974731
200,22289,22285,-0.04525613412261009,-0.13672155141830444,1.046478509902954,3.242304801940918,-4.816757678985596,0.39679569005966187,2.0210623741149902,3.99463152885437,0.31598472595214844,-0.16124460101127625,-0.3828592598438263,1.8790967464447021
201,22299,22295,0.008427439257502556,-0.1560673862695694,0.9950518608093262,5.272184371948242,-3.0395562648773193,0.9631510376930237,2.021069049835205,3.993588447570801,0.31513717770576477,-0.20876482129096985,-0.3243827521800995,1.8853782415390015
202,22309,22305,-0.0008640814921818674,-0.04656660929322243,0.9869195222854614,3.7859933376312256,4.235241889953613,0.9666751027107239,2.021973133087158,3.993335247039795,0.31487804651260376,-0.21145300567150116,-0.2415054440498352,1.8938758373260498
203,22319,22315,0.06058003008365631,-0.00015130774409044534,0.9691509008407593,1.0902167558670044,8.213140487670898,0.36834773421287537,2.022502899169922,3.993809938430786,0.3146023452281952,-0.20330889523029327,-0.18027114868164062,1.9094407558441162
204,22329,22325,0.08271154761314392,-0.05261531099677086,0.9816374182701111,-0.24606232345104218,6.685970306396484,-0.05675078555941582,2.02378249168396,3.9936907291412354,0.31429868936538696,-0.3122517466545105,-0.1526118814945221,1.9006915092468262
205,22339,22335,0.004104599356651306,-0.13683749735355377,1.0127966403961182,-0.7993378043174744,3.0485761165618896,0.10682176053524017,2.0242435932159424,3.9927220344543457,0.31565266847610474,-0.40223178267478943,-0.15682506561279297,1.8933063745498657
206,22349,22345,0.008365212008357048,-0.034009236842393875,1.005035638809204,-1.1323527097702026,0.22092892229557037,-0.22092609107494354,2.023733139038086,3.9945790767669678,0.3156292140483856,-0.365333616733551,-0.17147855460643768,1.9332798719406128
207,22359,22355,-0.0016356020933017135,-0.052926063537597656,0.9960468411445618,-1.217824101448059,0.009579234756529331,0.18187691271305084,2.0255002975463867,3.995155096054077,0.31529393792152405,-0.5238392949104309,-0.18894456326961517,1.9346370697021484
208,22369,22365,0.01956663653254509,0.013771395199000835,1.0181050300598145,-0.22999872267246246,-0.23005521297454834,-0.3524554669857025,2.027406692504883,3.9969780445098877,0.3167193531990051,-0.5676494240760803,-0.2005751132965088,1.955069661140442
209,22379,22375,0.025657327845692635,0.03503522276878357,1.0473555326461792,0.5856126546859741,-2.079900026321411,-1.277045488357544,2.027491569519043,3.9966185092926025,0.31676363945007324,-0.43326133489608765,-0.20111976563930511,1.9506139755249023
210,22389,22385,-0.005201888270676136,-0.0010085650719702244,1.0305688381195068,1.1788967847824097,-4.830233573913574,-0.9522866010665894,2.0293076038360596,3.996161937713623,0.3166130483150482,-0.5096890926361084,-0.1822696179151535,1.9447789192199707
211,22399,22395,-0.024142423644661903,0.0699765682220459,0.9954091310501099,1.2522317171096802,-5.637232780456543,-0.362526535987854,2.0295376777648926,3.9962034225463867,0.3150727450847626,-0.3104987144470215,-0.16006121039390564,1.9363824129104614
212,22409,22405,-0.008178558200597763,0.06689666956663132,1.0181574821472168,1.416581630706787,-5.022308826446533,0.8898155689239502,2.030432939529419,3.996030330657959,0.3149913549423218,-0.21558479964733124,-0.13209691643714905,1.93247389793396
213,22419,22415,-0.008267330005764961,0.06085231527686119,1.032906174659729,2.110090732574463,-4.414249420166016,0.36104878783226013,2.0335206985473633,3.9954299926757812,0.3147241175174713,-0.45813876390457153,-0.10143080353736877,1.9322693347930908
214,22429,22425,-0.008321895264089108,0.02692812867462635,1.0611366033554077,2.4547812938690186,-2.364039421081543,-0.816810667514801,2.0335640907287598,3.9953131675720215,0.3158973157405853,-0.3011845052242279,-0.06943165510892868,1.9323135614395142
215,22439,22435,-0.0157084371894598,0.012379728257656097,1.0136818885803223,0.7828733921051025,-0.8027348518371582,-1.0563642978668213,2.034195899963379,3.995567798614502,0.31597059965133667,-0.26545068621635437,-0.04401473328471184,1.9259004592895508
216,22449,22445,-0.02645745687186718,0.0038458844646811485,0.970234215259552,-1.7899707555770874,-0.0715268924832344,-0.4966919422149658,2.0352566242218018,3.9954254627227783,0.31611374020576477,-0.24473334848880768,-0.04352404922246933,1.9125597476959229
217,22459,22455,-0.03190489113330841,-0.03969823196530342,0.985185444355011,-3.524160146713257,-1.7860106229782104,-0.36493948101997375,2.0347273349761963,3.996072769165039,0.31625887751579285,-0.1400308758020401,-0.07930201292037964,1.9055917263031006
218,22469,22465,0.018076112493872643,-0.10934768617153168,1.0152826309204102,-2.675689220428467,-1.8285496234893799,-1.4655245542526245,2.036914825439453,3.9971466064453125,0.314035564661026,-0.2658095955848694,-0.2093261480331421,1.895218849182129
219,22479,22475,-0.009556649252772331,-0.018727872520685196,1.0285871028900146,-0.5140581130981445,-0.9883664846420288,-0.955238401889801,2.0383353233337402,3.996917963027954,0.3139200508594513,-0.29544389247894287,-0.23815998435020447,1.8697949647903442
220,22489,22485,-0.014542021788656712,0.029411619529128075,1.0068014860153198,1.3745274543762207,-0.9900497198104858,-1.1312576532363892,2.037266969680786,3.996011734008789,0.31400904059410095,-0.17491263151168823,-0.2383718341588974,1.8647692203521729
221,22499,22495,-0.011581926606595516,0.01757822185754776,1.023559331893921,3.301658868789673,2.0878853797912598,-1.5670677423477173,2.038261890411377,3.995516300201416,0.31195154786109924,-0.1387585997581482,-0.193072110414505,1.8550444841384888
222,22509,22505,0.03534085676074028,-0.02173723094165325,0.9798510670661926,4.845096588134766,-1.8016712665557861,-1.1104013919830322,2.040137767791748,3.9948763847351074,0.31172406673431396,-0.2771328389644623,-0.11875618249177933,1.8391506671905518
223,22519,22515,-0.01911298744380474,0.027867089956998825,1.0317025184631348,3.610384702682495,1.426628589630127,-0.593525767326355,2.0398354530334473,3.9941725730895996,0.311708927154541,-0.14732180535793304,-0.03125273808836937,1.8332773447036743
224,22529,22525,0.0014583264710381627,-0.06501813977956772,1.053816556930542,3.118407726287842,-1.7158669233322144,-1.0633528232574463,2.040414810180664,3.9947588443756104,0.3125142753124237,-0.040303487330675125,-0.03943914547562599,1.8235491514205933
225,22539,22535,0.017895616590976715,-0.023539796471595764,1.0092389583587646,0.3143530786037445,-1.4048678874969482,-0.6172531247138977,2.040086507797241,3.9944093227386475,0.31256383657455444,0.07608882337808609,0.09261567145586014,1.8239564895629883
226,22549,22545,0.008628340438008308,-0.14583998918533325,1.0318214893341064,-2.2179696559906006,1.680761456489563,-0.9326238632202148,2.0422747135162354,3.9960083961486816,0.3125617802143097,-0.06392598152160645,-0.06707603484392166,1.835375428199768
227,22559,22555,-0.012263927608728409,-0.06186879426240921,1.0179412364959717,-2.9996767044067383,6.567676067352295,-1.9957951307296753,2.042485475540161,3.9974424839019775,0.3126893639564514,0.009064252488315105,-0.08483781665563583,1.827691674232483
228,22569,22565,-0.012555624358355999,0.08181042224168777,1.0161672830581665,-1.6498256921768188,3.84645676612854,-1.6520321369171143,2.0452375411987305,3.999298572540283,0.31489184498786926,-0.21264339983463287,-0.1950158178806305,1.8223950862884521
229,22579,22575,0.018929706886410713,-0.005343349650502205,0.9889425039291382,0.6789222359657288,3.9344897270202637,-2.1952381134033203,2.0450432300567627,3.9990475177764893,0.3151739239692688,-0.1747419834136963,-0.19234345853328705,1.8060719966888428
230,22589,22585,-0.015072181820869446,-0.017741968855261803,1.0132211446762085,3.1493186950683594,1.62856125831604,-2.085123300552368,2.0474495887756348,3.998875141143799,0.3152259588241577,-0.3776315748691559,-0.15516021847724915,1.7785807847976685
231,22599,22595,-0.0011132118524983525,-0.028531182557344437,1.0018267631530762,5.721342086791992,-0.2273273468017578,-1.6706156730651855,2.047830581665039,3.9982974529266357,0.3161543607711792,-0.29545947909355164,-0.07742512971162796,1.766310691833496
232,22609,22605,-0.0008527826867066324,0.0015003401786088943,1.005074381828308,6.881195068359375,-2.7061705589294434,-1.7301373481750488,2.0478267669677734,3.9990484714508057,0.316525399684906,-0.18547609448432922,-0.04291703552007675,1.779813528060913
233,22619,22615,0.010704993270337582,0.00026050928863696754,1.0030943155288696,4.886756896972656,-3.4109275341033936,-1.3172959089279175,2.0481488704681396,4.000959873199463,0.31673774123191833,-0.19884534180164337,0.0016811280511319637,1.7627637386322021
234,22629,22625,0.014214236289262772,0.017364604398608208,0.9732886552810669,4.659706115722656,-5.027649402618408,-0.8790073990821838,2.048588514328003,4.001904010772705,0.3169762194156647,-0.18038634955883026,0.10957393050193787,1.7746034860610962
235,22639,22635,0.016600746661424637,-0.0593317411839962,0.9640257358551025,3.3198604583740234,-4.459150314331055,-1.408955454826355,2.0484204292297363,4.002400875091553,0.3173031806945801,0.0023039220832288265,0.11868607252836227,1.765237808227539
236,22649,22645,-0.039078161120414734,-0.10227041691541672,1.0130374431610107,1.1639734506607056,-2.263469696044922,-1.6271705627441406,2.0513813495635986,4.003180027008057,0.3174223303794861,-0.16148383915424347,0.09954182058572769,1.7579118013381958
237,22659,22655,0.02637343853712082,0.006485345773398876,0.965057909488678,0.5444194078445435,-2.9655404090881348,-1.6647330522537231,2.0518672466278076,4.003836631774902,0.3164093792438507,-0.1321525126695633,0.05148756876587868,1.7366232872009277
238,22669,22665,0.009997790679335594,-0.0380425862967968,0.9730682373046875,-0.5971534252166748,1.6327847242355347,-2.0070998668670654,2.052743434906006,4.003921985626221,0.3165363073348999,-0.11678091436624527,0.0792108029127121,1.7224936485290527
