,timestamp_start,timestamp_end,acc.x,acc.y,acc.z,gyro.x,gyro.y,gyro.z,stateEstimate.x,stateEstimate.y,stateEstimate.z,stabilizer.pitch,stabilizer.roll,stabilizer.yaw
0,19613,19611,0.03669607639312744,-0.04877227172255516,1.050046443939209,-2.3853373527526855,-8.465489387512207,-1.0516804456710815,1.8429319858551025,3.84493350982666,0.1608678251504898,0.3748941123485565,-0.4343303442001343,1.8654447793960571
1,19623,19621,0.009159720502793789,-0.04084980487823486,1.020679235458374,-1.7845786809921265,-5.947849273681641,-1.1427801847457886,1.844373345375061,3.8452610969543457,0.1631431132555008,0.359589546918869,-0.42183923721313477,1.8647066354751587
2,19633,19631,-0.019416311755776405,0.04138235002756119,1.0684270858764648,-1.2670965194702148,-4.778472423553467,-1.7170615196228027,1.8449643850326538,3.8462882041931152,0.1652507781982422,0.40642380714416504,-0.362835168838501,1.8505641222000122
3,19643,19641,-0.03946376591920853,0.11359675228595734,1.0140002965927124,-0.28041207790374756,-2.9892690181732178,-1.5930794477462769,1.8462474346160889,3.845531940460205,0.16660186648368835,0.560876727104187,-0.43110424280166626,1.839744210243225
4,19653,19651,0.0038265890907496214,0.10335299372673035,0.9846967458724976,-0.42733994126319885,-1.411543607711792,-1.4678785800933838,1.8455185890197754,3.8457062244415283,0.1688530296087265,0.6678190231323242,-0.6185488700866699,1.8309087753295898
5,19663,19661,0.04736541584134102,-0.07448623329401016,0.9962031841278076,-1.5458916425704956,-2.1210246086120605,-1.6440986394882202,1.8451428413391113,3.847132682800293,0.17102964222431183,0.8124394416809082,-0.5824393033981323,1.8102824687957764
6,19673,19671,0.028878023847937584,-0.14840136468410492,1.0645558834075928,1.701586127281189,-2.3835999965667725,-1.5834404230117798,1.8446959257125854,3.8467836380004883,0.1731986552476883,0.8724613785743713,-0.4694755971431732,1.7825418710708618
7,19683,19681,-0.00022602814715355635,-0.12033427506685257,1.0346448421478271,6.731112957000732,-4.051548957824707,-1.899206280708313,1.8444901704788208,3.846048355102539,0.17385517060756683,1.0769236087799072,-0.7363055348396301,1.7823891639709473
8,19693,19691,-0.05595708638429642,0.024110637605190277,1.0550870895385742,6.468692302703857,-2.028977870941162,-2.345813512802124,1.8439559936523438,3.8499763011932373,0.17578820884227753,1.113524079322815,-0.704921543598175,1.7676581144332886
9,19703,19701,-0.014216466806828976,0.022357508540153503,1.0133230686187744,5.405328750610352,2.9355356693267822,-2.368990421295166,1.8451712131500244,3.8505640029907227,0.17797449231147766,1.8077541589736938,-0.8674038052558899,1.7320353984832764
10,19713,19711,0.04521450400352478,0.024246696382761,1.0470659732818604,5.214406490325928,6.899324893951416,-2.0798304080963135,1.8404746055603027,3.852735996246338,0.18017984926700592,0.9244280457496643,-0.5176647901535034,1.7272270917892456
11,19723,19721,0.010452073067426682,0.0019227539887651801,1.0187909603118896,6.176675319671631,13.547914505004883,-2.2555441856384277,1.8442869186401367,3.8512954711914062,0.18746106326580048,1.3466233015060425,-0.6991845965385437,1.7065725326538086
12,19733,19731,0.013084964826703072,-0.10360626131296158,1.0249618291854858,7.456026554107666,16.782272338867188,-3.070841073989868,1.8420844078063965,3.8555727005004883,0.1902361661195755,0.5769437551498413,-0.48212942481040955,1.7089197635650635
13,19743,19741,-0.04145698621869087,-0.0854564905166626,0.9811217188835144,8.465938568115234,16.81244659423828,-3.910487651824951,1.846578598022461,3.8546557426452637,0.19193726778030396,1.8956835269927979,-1.0476021766662598,1.6601448059082031
14,19753,19751,0.029060011729598045,-0.0469391793012619,0.9663718938827515,10.132454872131348,11.55916976928711,-3.360772132873535,1.8369228839874268,3.859135150909424,0.196515291929245,1.5362423658370972,-0.8559451103210449,1.6173146963119507
15,19763,19761,-0.006227397825568914,0.05394215136766434,1.0137821435928345,12.205223083496094,8.465909957885742,-3.02325177192688,1.8369064331054688,3.859866142272949,0.20069503784179688,1.1894370317459106,-0.7241190075874329,1.5946686267852783
16,19773,19771,0.03760577738285065,0.012119725346565247,1.0026777982711792,15.408130645751953,10.21996784210205,-2.588559150695801,1.8372654914855957,3.860191583633423,0.2045149952173233,0.8915591239929199,-0.5529056191444397,1.5725550651550293
17,19783,19781,0.005813105963170528,-0.014431748539209366,1.0112509727478027,17.515249252319336,14.924039840698242,-3.0572030544281006,1.8377708196640015,3.8605685234069824,0.20358625054359436,0.7412943243980408,-0.20378871262073517,1.5169352293014526
18,19793,19791,-0.009343535639345646,-0.06491456925868988,1.0137343406677246,18.850736618041992,15.152737617492676,-2.8520383834838867,1.8380062580108643,3.8596837520599365,0.20651330053806305,0.4063428044319153,0.08069322258234024,1.484575629234314
19,19803,19801,0.018846329301595688,-0.11377494782209396,0.9843007326126099,16.238365173339844,15.102975845336914,-3.5074591636657715,1.8387300968170166,3.859309196472168,0.20934607088565826,0.15536406636238098,0.4203965961933136,1.4441112279891968
20,19813,19811,0.009475533850491047,-0.06982462853193283,0.9727575778961182,11.410558700561523,12.86752986907959,-3.8635129928588867,1.8405827283859253,3.8597471714019775,0.20874802768230438,-0.002654594834893942,0.5490537881851196,1.4174823760986328
21,19823,19821,0.016855787485837936,-0.05475365370512009,0.9215409755706787,3.7587192058563232,7.29105281829834,-3.57197904586792,1.8406881093978882,3.8602254390716553,0.21120741963386536,-0.2540695369243622,0.5909935235977173,1.3902438879013062
22,19833,19831,-0.04536563158035278,-0.09743835777044296,0.9854879975318909,-1.4840772151947021,-2.8291127681732178,-3.5529794692993164,1.840766191482544,3.8610222339630127,0.21360808610916138,-0.3806122839450836,0.4651865065097809,1.3655056953430176
23,19843,19841,0.028554003685712814,0.0069159590639173985,0.9832271337509155,-5.9274420738220215,-3.8088276386260986,-3.3344082832336426,1.841631531715393,3.862717390060425,0.21466466784477234,-0.9376421570777893,0.9418652057647705,1.3105766773223877
24,19853,19851,0.1044330820441246,0.07859393954277039,0.9652210474014282,-5.95753288269043,-9.067855834960938,-2.826176404953003,1.8457152843475342,3.859431028366089,0.21672874689102173,-0.30341994762420654,1.0025297403335571,1.2950819730758667
25,19863,19861,0.078787662088871,0.0636754259467125,0.9789657592773438,-4.812132835388184,-14.501483917236328,-2.387530565261841,1.8412235975265503,3.8596489429473877,0.22044894099235535,-1.2927736043930054,-0.3629918098449707,1.1804698705673218
26,19873,19871,0.020041685551404953,0.05980467051267624,1.0045804977416992,-5.208393573760986,-16.978527069091797,-1.2365226745605469,1.8491429090499878,3.870129346847534,0.22085022926330566,-1.0315841436386108,-0.2920072078704834,1.169252872467041
27,19883,19881,-0.02202475443482399,0.0745442733168602,1.0110267400741577,-0.955274760723114,-16.63068389892578,-0.2378694862127304,1.849509358406067,3.87066388130188,0.22376498579978943,-0.9724169373512268,-0.1360369622707367,1.1650835275650024
28,19893,19891,-0.04171989485621452,0.03714164346456528,0.9835656881332397,9.152379989624023,-18.238372802734375,0.6311758756637573,1.8522639274597168,3.870546340942383,0.2262282371520996,-0.6639770865440369,0.002874565776437521,1.1797071695327759
29,19903,19901,-0.009694041684269905,-0.03478017449378967,0.9403107166290283,19.526411056518555,-18.429094314575195,0.7979857325553894,1.8516360521316528,3.8694067001342773,0.22913986444473267,-0.5097764730453491,0.2739487588405609,1.2032195329666138
30,19913,19911,-0.019815197214484215,-0.06469808518886566,0.9537773132324219,24.222278594970703,-18.924177169799805,0.6663186550140381,1.853188157081604,3.868915557861328,0.22787898778915405,-0.2647533118724823,0.4342193007469177,1.2118347883224487
31,19923,19921,0.00834108330309391,-0.06754115968942642,0.9317746758460999,21.67742347717285,-16.356958389282227,1.0122731924057007,1.8534303903579712,3.8691813945770264,0.2299254983663559,-0.26520803570747375,0.7194458246231079,1.2152814865112305
32,19933,19931,0.00656511913985014,-0.029723292216658592,0.9481772780418396,15.529473304748535,-13.664423942565918,1.7397669553756714,1.856900691986084,3.8701865673065186,0.231667160987854,0.026604050770401955,1.0334136486053467,1.2360206842422485
33,19943,19941,-0.0043574427254498005,-0.010829014703631401,0.9583856463432312,6.585160255432129,-11.544999122619629,1.881361484527588,1.8569273948669434,3.869863986968994,0.2324303537607193,0.03664796054363251,1.2203986644744873,1.2424157857894897
34,19953,19951,0.00680211465805769,-0.021304406225681305,0.9461668133735657,-3.297395706176758,-9.43935489654541,1.747554898262024,1.8588804006576538,3.869798183441162,0.23412688076496124,0.3278088867664337,1.3326493501663208,1.2729847431182861
35,19963,19961,0.039994560182094574,-0.028802428394556046,0.9109994769096375,-11.017826080322266,-8.086555480957031,1.5809406042099,1.8582419157028198,3.869903087615967,0.23597455024719238,0.4921291470527649,1.364446759223938,1.2968318462371826
36,19973,19971,0.07267093658447266,-0.08548678457736969,0.8863410949707031,-14.1846923828125,-7.534561634063721,1.6611624956130981,1.857614517211914,3.8698277473449707,0.23508547246456146,0.4725204110145569,1.2844431400299072,1.3009260892868042
37,19983,19981,0.06854686141014099,-0.13301417231559753,0.9183620810508728,-14.426247596740723,-5.964090347290039,2.1202683448791504,1.8590401411056519,3.869960308074951,0.23646022379398346,0.6009559631347656,1.2974252700805664,1.3283333778381348
38,19993,19991,0.013231680728495121,-0.040116578340530396,0.9811637997627258,-11.525482177734375,-5.377593994140625,2.6050338745117188,1.8584939241409302,3.868898630142212,0.23766328394412994,0.6271800994873047,1.221070647239685,1.3415064811706543
39,20003,20001,-0.006982308346778154,0.008076848462224007,0.9799006581306458,-8.624316215515137,-4.150940895080566,2.8613996505737305,1.8590515851974487,3.8681139945983887,0.23882824182510376,0.7935277819633484,1.023746132850647,1.3782578706741333
40,20013,20011,0.03096027486026287,-0.059696704149246216,0.9398888349533081,-6.18071985244751,-4.979264259338379,3.13567852973938,1.859882116317749,3.8687267303466797,0.24077889323234558,0.7117394208908081,0.9535594582557678,1.3855724334716797
41,20023,20021,0.010584707371890545,-0.14577719569206238,0.9877043962478638,-2.5026750564575195,-2.7399792671203613,3.394800901412964,1.861680507659912,3.8681042194366455,0.24197924137115479,0.8528264164924622,1.0070953369140625,1.4269956350326538
42,20033,20031,-0.016513587906956673,-0.032590486109256744,0.9953698515892029,-1.1902297735214233,-2.883056640625,2.9799323081970215,1.8617063760757446,3.8668487071990967,0.24314647912979126,0.894921600818634,1.0876089334487915,1.4564589262008667
43,20043,20041,0.029969125986099243,-0.04355055093765259,0.9334550499916077,-1.0392836332321167,-2.8478851318359375,2.7143325805664062,1.8629106283187866,3.865511417388916,0.24479998648166656,1.007242202758789,1.0944350957870483,1.4976574182510376
44,20053,20051,0.02630268596112728,0.09339985996484756,0.9503258466720581,-4.920925140380859,-1.3182798624038696,3.1543450355529785,1.8627201318740845,3.8649423122406006,0.2459380030632019,1.089013934135437,1.071926474571228,1.5328153371810913
45,20063,20061,0.01507970504462719,0.03613016754388809,0.9876950979232788,-10.105905532836914,-1.7443053722381592,2.9064488410949707,1.8635586500167847,3.8644497394561768,0.24708160758018494,1.157394528388977,0.918290913105011,1.5805425643920898
46,20073,20071,0.009758076630532742,0.03367561101913452,1.0174057483673096,-14.093536376953125,-1.5245648622512817,2.6928699016571045,1.8632926940917969,3.8652291297912598,0.24591638147830963,1.066927194595337,0.8513329029083252,1.591192364692688
47,20083,20081,0.036240000277757645,-0.019039766862988472,1.0223885774612427,-16.457313537597656,0.13851551711559296,3.143737554550171,1.8651026487350464,3.866347074508667,0.24688629806041718,1.1250098943710327,0.9446306824684143,1.6043357849121094
48,20093,20091,0.012944309040904045,-0.007239191792905331,0.9623525142669678,-16.53447914123535,1.7697147130966187,2.708273410797119,1.8651518821716309,3.8638670444488525,0.2477375864982605,1.151776671409607,0.7535946369171143,1.6409797668457031
49,20103,20101,-0.02736445516347885,0.04564659669995308,0.9880426526069641,-15.227927207946777,2.1758768558502197,3.3280603885650635,1.8645869493484497,3.863595962524414,0.2487562745809555,1.1568032503128052,0.5692750215530396,1.6726951599121094
50,20113,20111,0.03953060135245323,-0.07767251133918762,0.9798036217689514,-13.030736923217773,3.328791618347168,2.931485176086426,1.8644893169403076,3.8632078170776367,0.2501002550125122,1.1396387815475464,0.5533265471458435,1.6899217367172241
51,20123,20121,-0.0025543970987200737,-0.008994683623313904,1.0071039199829102,-11.623969078063965,5.994169235229492,2.6658942699432373,1.8652418851852417,3.861255645751953,0.2509819567203522,1.0940271615982056,0.32645153999328613,1.72859787940979
52,20133,20131,0.012824660167098045,-0.05481303110718727,1.0078039169311523,-10.518648147583008,4.206697463989258,2.5759263038635254,1.865440011024475,3.861621618270874,0.2520124614238739,1.033126711845398,0.28202223777770996,1.7454701662063599
53,20143,20141,0.014736708253622055,-0.05357109382748604,0.9859151244163513,-10.142871856689453,4.882869243621826,2.774513006210327,1.8642216920852661,3.860389471054077,0.2532190978527069,1.0484075546264648,0.23895135521888733,1.7703832387924194
54,20153,20151,-0.0031366837210953236,0.011251281946897507,1.0570884943008423,-8.842215538024902,4.167026042938232,2.8535423278808594,1.8649474382400513,3.8621697425842285,0.25414934754371643,0.9154321551322937,-0.012769297696650028,1.8099592924118042
55,20163,20161,0.056001223623752594,0.019003290683031082,0.9541330933570862,-8.52698802947998,4.178652286529541,3.3700454235076904,1.8663493394851685,3.862833261489868,0.2552879750728607,1.0846985578536987,0.06075962632894516,1.8336005210876465
56,20173,20171,-0.01045196782797575,0.04605605825781822,1.0691509246826172,-10.159037590026855,0.5718949437141418,3.033832550048828,1.8641390800476074,3.860804319381714,0.25783610343933105,0.9478697180747986,0.030773188918828964,1.8504021167755127
57,20183,20181,-0.026201406493782997,-0.013487599790096283,1.0361995697021484,-10.702898025512695,-3.2839345932006836,3.1987905502319336,1.865110158920288,3.8612496852874756,0.25895956158638,1.02776300907135,-0.15926069021224976,1.9011454582214355
58,20193,20191,-0.027147551998496056,-0.03598564863204956,1.0071334838867188,-12.612622261047363,-0.1849762201309204,3.7816851139068604,1.864270567893982,3.861088514328003,0.2601664960384369,1.039549708366394,-0.28574466705322266,1.9349933862686157
59,20203,20201,0.012175479903817177,-0.03521294519305229,0.9990906715393066,-13.541427612304688,2.0090699195861816,3.8936784267425537,1.865359902381897,3.863518714904785,0.2606033980846405,1.0173249244689941,-0.4379906952381134,1.9801634550094604
60,20213,20211,0.009504904970526695,0.009138946421444416,1.0255467891693115,-12.66054630279541,5.8547234535217285,4.302922248840332,1.865565299987793,3.8629443645477295,0.26175880432128906,0.9541780948638916,-0.5906773209571838,2.020354986190796
61,20223,20221,0.030888134613633156,-0.11699459701776505,0.987590491771698,-11.071695327758789,14.018850326538086,4.535221099853516,1.866215467453003,3.8622405529022217,0.26293355226516724,0.8884152770042419,-0.43028271198272705,2.0242679119110107
62,20233,20231,0.020639706403017044,-0.07401888817548752,1.0070115327835083,-7.960529327392578,21.15699577331543,4.638814449310303,1.8664220571517944,3.858719825744629,0.2640305161476135,0.70554518699646,-0.5641509294509888,2.073152542114258
63,20243,20241,0.014384419657289982,-0.09708893299102783,0.9731388688087463,-7.2696027755737305,25.707983016967773,4.523080825805664,1.8673758506774902,3.8577773571014404,0.26857107877731323,0.5673180818557739,-0.8060753345489502,2.1316843032836914
64,20253,20251,0.004569918382912874,-0.06565630435943604,0.9904031753540039,-6.402925968170166,26.57293128967285,4.673776149749756,1.8667274713516235,3.858977794647217,0.27005475759506226,0.2871016263961792,-0.7896867394447327,2.1673130989074707
65,20263,20261,0.06307119131088257,-0.02837761864066124,0.9918380975723267,-6.243111610412598,25.053478240966797,4.673523426055908,1.8673352003097534,3.8573107719421387,0.27136746048927307,-0.006488994229584932,-0.9903299808502197,2.223863363265991
66,20273,20271,0.08704152703285217,-0.0481531098484993,1.0255943536758423,-4.82322359085083,19.874834060668945,4.843668460845947,1.867446780204773,3.8586881160736084,0.2731825113296509,-0.18783985078334808,-0.944490373134613,2.2532997131347656
67,20283,20281,0.06683428585529327,-0.06504474580287933,0.9948447346687317,-3.7941410541534424,14.456480979919434,4.511319160461426,1.8667383193969727,3.8576295375823975,0.2745557725429535,-0.1508907973766327,-1.108798861503601,2.279517650604248
68,20293,20291,0.01166607066988945,0.03442498296499252,0.9693536162376404,-2.673386812210083,10.305377006530762,4.5658183097839355,1.864827275276184,3.858097791671753,0.2761213183403015,-0.4259738326072693,-1.0993283987045288,2.329770565032959
69,20303,20301,0.026068804785609245,0.007681079208850861,0.9514538049697876,-2.302971601486206,7.205817699432373,4.322015285491943,1.865719199180603,3.856468677520752,0.2763569951057434,-0.5461627244949341,-1.22291898727417,2.373072624206543
70,20313,20311,0.0002843315596692264,0.00857569370418787,0.9953655004501343,-2.7652485370635986,7.460769176483154,4.292365074157715,1.8658000230789185,3.8566832542419434,0.2776588797569275,-0.6192165017127991,-1.2555835247039795,2.41684627532959
71,20323,20321,0.023257043212652206,-0.04709401726722717,1.0053482055664062,-2.487870693206787,9.085590362548828,4.630052089691162,1.8653162717819214,3.8567278385162354,0.27890998125076294,-0.699913501739502,-1.2850552797317505,2.4611401557922363
72,20333,20331,0.018855832517147064,-0.03395425155758858,0.9786615371704102,-0.6093664765357971,9.275521278381348,4.444250583648682,1.8658254146575928,3.8572609424591064,0.2801511287689209,-0.7973538637161255,-1.370176076889038,2.5039567947387695
73,20343,20341,-0.0017475567292422056,-0.03435104712843895,1.0072615146636963,0.6828632950782776,9.716431617736816,4.827242374420166,1.8656786680221558,3.857508420944214,0.28155726194381714,-0.9000312685966492,-1.3520721197128296,2.5507333278656006
74,20353,20351,-0.011398287490010262,0.0070597706362605095,0.9831892848014832,2.220569610595703,12.734565734863281,4.894882678985596,1.8662080764770508,3.857860565185547,0.28274816274642944,-1.0234640836715698,-1.3840646743774414,2.596405029296875
75,20363,20361,0.0700903832912445,-0.029623040929436684,0.8909322023391724,3.54392409324646,15.373615264892578,4.111039161682129,1.8671261072158813,3.857511281967163,0.28392308950424194,-1.1875977516174316,-1.387089729309082,2.6491382122039795
76,20373,20371,0.020730584859848022,0.013947054743766785,0.9565905928611755,4.000914573669434,13.589836120605469,4.095633029937744,1.8666895627975464,3.857671022415161,0.2869955003261566,-1.2189759016036987,-1.366615653038025,2.6646430492401123
77,20383,20381,0.09318996220827103,-0.10570230334997177,0.9390888214111328,3.867767095565796,13.621810913085938,4.376027584075928,1.8656800985336304,3.8574862480163574,0.2882566750049591,-1.3975874185562134,-1.334670066833496,2.707202434539795
78,20393,20391,0.07658563554286957,-0.20441752672195435,0.9803044199943542,4.868598461151123,7.877964019775391,4.617493629455566,1.8658760786056519,3.8573696613311768,0.28940093517303467,-1.542495846748352,-1.2969955205917358,2.747185707092285
79,20403,20401,0.040024228394031525,-0.27731144428253174,0.9562502503395081,5.506860256195068,4.143967628479004,4.441827297210693,1.8661530017852783,3.857828378677368,0.2905961275100708,-1.681754469871521,-1.2425481081008911,2.8001792430877686
80,20413,20411,-0.0017657233402132988,-0.1030210480093956,0.9621685147285461,6.455296516418457,2.398897647857666,3.7653253078460693,1.8666672706604004,3.857542037963867,0.29166266322135925,-1.7260000705718994,-1.1143908500671387,2.8809902667999268
81,20423,20421,-0.007317285053431988,-0.019583119079470634,0.9348827004432678,5.9262518882751465,0.6776823997497559,3.676999568939209,1.8668664693832397,3.8576953411102295,0.29273033142089844,-1.7365416288375854,-1.1010379791259766,2.8861443996429443
82,20433,20431,0.07327452301979065,-0.06962379068136215,0.94101881980896,4.043451309204102,0.33298608660697937,3.058961868286133,1.8667153120040894,3.857362985610962,0.2937135398387909,-1.7616759538650513,-1.0607367753982544,2.9426262378692627
83,20443,20441,0.039816584438085556,-0.040131665766239166,1.0010278224945068,4.287600994110107,0.02244470827281475,2.437223434448242,1.8672164678573608,3.8587725162506104,0.2960938811302185,-1.692297101020813,-1.0032297372817993,2.9582645893096924
84,20453,20451,-0.05498676747083664,0.013336204923689365,0.9792605638504028,4.035729885101318,0.651100754737854,2.4061455726623535,1.8663324117660522,3.8588781356811523,0.2971459627151489,-1.6999324560165405,-0.9910656213760376,2.961784601211548
85,20463,20461,-0.048456571996212006,0.01910497061908245,0.9760546684265137,3.8369851112365723,3.5898118019104004,2.690520763397217,1.8663214445114136,3.8582568168640137,0.2981204092502594,-1.7266573905944824,-0.9373992085456848,2.992865562438965
86,20473,20471,0.017580674961209297,0.05744573101401329,0.904022216796875,2.939517021179199,8.170008659362793,1.7569241523742676,1.867112159729004,3.8591976165771484,0.2982797920703888,-1.8020031452178955,-0.8921467661857605,3.028047561645508
87,20483,20481,0.01404806412756443,0.021702058613300323,0.930375337600708,3.7258269786834717,6.664498805999756,1.9922184944152832,1.8688995838165283,3.859910488128662,0.2991044223308563,-1.9661399126052856,-0.8882743120193481,3.0518581867218018
88,20493,20491,-0.007039574906229973,-0.02812921069562435,0.959420382976532,4.97376823425293,5.727503776550293,2.334157943725586,1.8702380657196045,3.861192464828491,0.29989999532699585,-1.982240080833435,-0.8591497540473938,3.0633559226989746
89,20503,20501,-0.007952466607093811,-0.01981610432267189,0.9543682336807251,5.592275619506836,2.8895325660705566,2.162294864654541,1.8708524703979492,3.861431121826172,0.3006712794303894,-2.0079803466796875,-0.7265520095825195,3.104611396789551
90,20513,20511,0.04534433037042618,-0.1721058189868927,0.9722824096679688,5.460208892822266,-0.694800615310669,1.8997645378112793,1.87037193775177,3.8608129024505615,0.301413893699646,-1.9880895614624023,-0.698946475982666,3.110271453857422
91,20523,20521,-0.005972852930426598,-0.17542779445648193,1.0464383363723755,7.369213581085205,-3.5333282947540283,1.379934310913086,1.8708168268203735,3.8614914417266846,0.30208250880241394,-1.9240241050720215,-0.6821988821029663,3.1062920093536377
92,20533,20531,0.0052630784921348095,-0.09138526022434235,0.9277499318122864,6.728468418121338,-2.898545026779175,0.8109368681907654,1.8708375692367554,3.8623766899108887,0.30280908942222595,-2.0307395458221436,-0.6346435546875,3.135471820831299
93,20543,20541,0.020132845267653465,0.03841886296868324,0.9151763319969177,6.494180202484131,-2.9778263568878174,0.4019501507282257,1.8720444440841675,3.861729383468628,0.3034527003765106,-1.9432220458984375,-0.5905959606170654,3.1290547847747803
94,20553,20551,0.033022377640008926,0.10589365661144257,0.945377767086029,3.813094139099121,-1.9912896156311035,0.2565423548221588,1.872369647026062,3.8623476028442383,0.3040884733200073,-1.8689066171646118,-0.49296844005584717,3.139051914215088
95,20563,20561,-0.036507561802864075,0.0826910063624382,0.9934696555137634,4.060077667236328,-2.6645851135253906,0.04037869721651077,1.8725814819335938,3.8620355129241943,0.3046758472919464,-1.9462522268295288,-0.4929196238517761,3.1382906436920166
96,20573,20571,-0.03086499497294426,0.01903020218014717,1.000024676322937,4.445171356201172,-3.5548136234283447,-0.908160924911499,1.8740675449371338,3.863163471221924,0.3067778944969177,-1.9813859462738037,-0.4526439309120178,3.132112979888916
97,20583,20581,-0.10190611332654953,0.09985362738370895,0.9073577523231506,2.937832832336426,-1.6857917308807373,-1.4719361066818237,1.8760912418365479,3.8637330532073975,0.3073238134384155,-1.885755181312561,-0.38766276836395264,3.122447967529297
98,20593,20591,-0.031361695379018784,0.05260872840881348,0.9749107956886292,3.053826332092285,-4.661995887756348,-1.8075382709503174,1.8765252828598022,3.863406181335449,0.30798980593681335,-1.9495422840118408,-0.3579898178577423,3.1381618976593018
99,20603,20601,0.03541337698698044,-0.006259961053729057,0.9669666290283203,2.973320960998535,-4.96884822845459,-1.819484829902649,1.8781646490097046,3.863293170928955,0.30924317240715027,-1.77450430393219,-0.2742678225040436,3.105692148208618
100,20613,20611,0.04758676886558533,-0.05283522605895996,1.007676124572754,3.2541866302490234,-6.555142879486084,-2.252424478530884,1.878577709197998,3.863429546356201,0.3098587393760681,-1.749622106552124,-0.32166624069213867,3.0883195400238037
101,20623,20621,0.03815923631191254,-0.03321300074458122,0.9772710800170898,3.842118978500366,-7.606528282165527,-2.5351309776306152,1.8792656660079956,3.864417552947998,0.31035032868385315,-1.8038445711135864,-0.2589813768863678,3.0870418548583984
102,20633,20631,0.009352875873446465,-0.03409132733941078,0.9725887179374695,3.78256893157959,-7.538722038269043,-3.2368228435516357,1.8814862966537476,3.864105701446533,0.3061770498752594,-1.8299764394760132,-0.2638678550720215,3.0539870262145996
103,20643,20641,0.05241027846932411,-0.05054190382361412,0.9001849293708801,3.669343948364258,-5.931410312652588,-3.7728958129882812,1.8840183019638062,3.8652005195617676,0.30630457401275635,-1.7027630805969238,-0.2642194926738739,3.0110301971435547
104,20653,20651,0.08630101382732391,-0.036407243460416794,0.8723955154418945,5.109062671661377,-5.62227725982666,-3.2215847969055176,1.8842064142227173,3.8657073974609375,0.3064541220664978,-1.7403314113616943,-0.18007245659828186,2.9949021339416504
105,20663,20661,0.09973136335611343,-0.11297448724508286,0.9100035429000854,5.10976505279541,-6.848567008972168,-2.740231513977051,1.8865785598754883,3.865872859954834,0.3063907325267792,-1.6920517683029175,-0.1633986532688141,2.952996253967285
106,20673,20671,0.024733712896704674,-0.04917147010564804,0.9835337996482849,5.354816913604736,-9.216629981994629,-2.7229249477386475,1.8882124423980713,3.867893934249878,0.3071974813938141,-1.5381001234054565,-0.0645543709397316,2.936741828918457
107,20683,20681,0.043240372091531754,-0.05806902050971985,0.9319353103637695,4.943744659423828,-10.043206214904785,-3.1520071029663086,1.8899335861206055,3.8681068420410156,0.3072248101234436,-1.5121251344680786,-0.11997413635253906,2.88100528717041
108,20693,20691,-0.03973044082522392,-0.0640762448310852,1.0431907176971436,4.4174323081970215,-12.006514549255371,-3.1313695907592773,1.8919371366500854,3.8697829246520996,0.3070414364337921,-1.2260953187942505,-0.017103247344493866,2.8637614250183105
109,20703,20701,0.035245031118392944,-0.08449938893318176,0.9361404776573181,3.6033544540405273,-9.692710876464844,-3.5301389694213867,1.891591191291809,3.8695762157440186,0.3047160804271698,-1.328309178352356,0.0724259614944458,2.845696449279785
110,20713,20711,0.059139546006917953,-0.07055114209651947,0.9610440135002136,1.5256237983703613,-6.1642656326293945,-2.9512510299682617,1.8954097032546997,3.869718074798584,0.30434688925743103,-1.2200510501861572,0.056154098361730576,2.7981765270233154
111,20723,20721,0.061094980686903,-0.12987691164016724,0.9905113577842712,1.5369596481323242,-5.668853282928467,-3.4242544174194336,1.896164059638977,3.871290683746338,0.30406951904296875,-1.144981861114502,0.10444673150777817,2.7733631134033203
112,20733,20731,0.03946375101804733,-0.1560543179512024,1.0143654346466064,0.6529350280761719,-6.7343430519104,-3.548886775970459,1.8973551988601685,3.8712317943573,0.3051099479198456,-1.1543090343475342,0.1361743062734604,2.7443158626556396
113,20743,20741,0.016217362135648727,-0.15750345587730408,0.9404810667037964,0.6147480607032776,-7.280521392822266,-3.9779233932495117,1.899409532546997,3.872582197189331,0.30479690432548523,-0.9871369004249573,0.16395451128482819,2.7118194103240967
114,20753,20751,-0.009531187824904919,-0.04779141768813133,1.0033527612686157,0.759520947933197,-9.307185173034668,-4.022982597351074,1.8997451066970825,3.8733115196228027,0.30462566018104553,-0.8145731091499329,0.1823716014623642,2.6781835556030273
115,20763,20761,0.006844467017799616,0.007195933256298304,1.0413652658462524,0.9570454955101013,-10.923446655273438,-3.977710008621216,1.899963140487671,3.872917652130127,0.30444157123565674,-1.0019570589065552,0.20530851185321808,2.6337637901306152
116,20773,20771,0.03266728296875954,-0.04034958407282829,1.0145288705825806,1.176314353942871,-11.172955513000488,-3.816868305206299,1.9045649766921997,3.874330759048462,0.3034888803958893,-0.8346712589263916,0.1517382264137268,2.585369348526001
117,20783,20781,-0.01924148201942444,-0.015032387338578701,1.05320405960083,0.018001768738031387,-9.748560905456543,-3.6887447834014893,1.9054888486862183,3.875070810317993,0.303279310464859,-0.6737681031227112,0.17719140648841858,2.5514943599700928
118,20793,20791,0.01399101223796606,0.0009534260607324541,1.034037470817566,0.2929874360561371,-9.18950080871582,-3.6824049949645996,1.906301736831665,3.8754193782806396,0.30305734276771545,-0.6870771050453186,0.11920536309480667,2.499896764755249
119,20803,20801,0.01496123243123293,-0.01863970048725605,1.0524553060531616,0.01740340329706669,-6.348564624786377,-3.7117531299591064,1.909682035446167,3.877683401107788,0.3017713129520416,-0.4075016677379608,0.13884277641773224,2.4795799255371094
120,20813,20811,0.011436139233410358,-0.011969469487667084,1.106024146080017,0.6323898434638977,-9.132884979248047,-3.1637070178985596,1.9079967737197876,3.877999782562256,0.30168989300727844,-0.30494946241378784,0.16070100665092468,2.445972442626953
121,20823,20821,-0.031708065420389175,0.04222112149000168,1.1148788928985596,3.438565731048584,-9.848506927490234,-2.954512119293213,1.909531593322754,3.8785288333892822,0.30153369903564453,-0.4120589792728424,0.2023841142654419,2.408249616622925
122,20833,20831,-0.019338060170412064,-0.030313696712255478,1.026397705078125,2.790113925933838,-5.085938453674316,-3.107867479324341,1.9135690927505493,3.878466844558716,0.2995370924472809,-0.286634624004364,0.25792938470840454,2.383578062057495
123,20843,20841,0.06077420711517334,-0.08502666652202606,1.0120189189910889,2.4207496643066406,-5.331165313720703,-2.4054558277130127,1.914953589439392,3.878664970397949,0.29943448305130005,-0.19825178384780884,0.3141469657421112,2.3540961742401123
124,20853,20851,0.0003935266868211329,-0.17680977284908295,1.0591830015182495,0.9621120095252991,-6.734588623046875,-2.1318109035491943,1.9165048599243164,3.878911018371582,0.2994063198566437,-0.12875325977802277,0.34126874804496765,2.331716537475586
125,20863,20861,0.010150467976927757,-0.1991639882326126,1.0650004148483276,0.5697138905525208,-9.963728904724121,-2.7889206409454346,1.9177418947219849,3.878436326980591,0.29940125346183777,-0.014168811030685902,0.3603092432022095,2.312715530395508
126,20873,20871,0.011668283492326736,-0.0851280465722084,1.0339821577072144,-1.9779824018478394,-9.137730598449707,-2.8021321296691895,1.9189605712890625,3.879157304763794,0.29721078276634216,0.11923927813768387,0.35573938488960266,2.2893311977386475
127,20883,20881,0.030647100880742073,0.01540378388017416,1.062087059020996,-4.112202167510986,-6.740508556365967,-2.704915761947632,1.9205073118209839,3.8793039321899414,0.2971987724304199,-0.004898599814623594,0.31563785672187805,2.2431607246398926
128,20893,20891,0.039879050105810165,0.014537014998495579,1.0537309646606445,-6.018340110778809,-5.76139497756958,-3.586909532546997,1.9240565299987793,3.8801631927490234,0.29700157046318054,0.18052691221237183,0.24314385652542114,2.223170757293701
129,20903,20901,0.009321290999650955,0.002818006556481123,1.0557957887649536,-5.124640464782715,-5.494198322296143,-3.0873517990112305,1.9254863262176514,3.88080096244812,0.29958024621009827,0.19141967594623566,0.1652664989233017,2.1852173805236816
130,20913,20911,0.002647342858836055,-0.04030090197920799,1.0985225439071655,-3.4964191913604736,-6.145013809204102,-2.122422933578491,1.9277639389038086,3.881669282913208,0.29978618025779724,0.2765783369541168,0.17221836745738983,2.1539828777313232
131,20923,20921,0.05797364190220833,-0.09090918302536011,1.0155390501022339,-0.13118495047092438,-4.2031569480896,-2.5719828605651855,1.9291703701019287,3.88188099861145,0.30011263489723206,0.35027849674224854,0.06074352189898491,2.13299298286438
132,20933,20931,-0.024958400055766106,0.009312222711741924,1.0685710906982422,2.416156768798828,-3.34067702293396,-2.4835424423217773,1.9309881925582886,3.8826587200164795,0.30066752433776855,0.48097431659698486,0.07916418462991714,2.1105403900146484
133,20943,20941,0.015489950776100159,-0.005687735043466091,1.0492874383926392,4.646241188049316,-3.874300479888916,-1.5523236989974976,1.931592583656311,3.8830628395080566,0.301143079996109,0.4416476786136627,0.1311422735452652,2.0772311687469482
134,20953,20951,0.020127762109041214,-0.005985178053379059,1.0213849544525146,4.655018329620361,-1.2581547498703003,-2.0630202293395996,1.9344487190246582,3.8827731609344482,0.30159416794776917,0.5434969067573547,0.2090659886598587,2.0564627647399902
135,20963,20961,-0.005891851615160704,-0.04495101794600487,0.9704483151435852,3.7215194702148438,-1.7201218605041504,-1.60343599319458,1.9354580640792847,3.882385492324829,0.303755521774292,0.4679061472415924,0.12629064917564392,2.0414750576019287
136,20973,20971,0.0021250853314995766,-0.0049220966175198555,1.0366365909576416,1.7821182012557983,-1.085452914237976,-1.3870586156845093,1.9381871223449707,3.8841662406921387,0.3043171763420105,0.5465857982635498,0.11468269675970078,2.0341148376464844
137,20983,20981,0.030469559133052826,-0.02857177145779133,1.0071039199829102,-0.006867086980491877,-1.0155067443847656,-1.4480520486831665,1.9394205808639526,3.8844690322875977,0.3050065338611603,0.68916255235672,0.15488776564598083,2.0192854404449463
138,20993,20991,-0.012407560832798481,-0.01816427893936634,1.0015451908111572,0.6216016411781311,-0.8470726013183594,-1.536826252937317,1.9392708539962769,3.884666919708252,0.3057704269886017,0.6645033359527588,0.18032391369342804,1.9998959302902222
139,21003,21001,0.001904980861581862,0.16450196504592896,0.98119056224823,0.6248961687088013,0.2571646273136139,-1.8402013778686523,1.9412214756011963,3.8846898078918457,0.3086833357810974,0.7039510011672974,0.2005465030670166,1.9847209453582764
140,21013,21011,0.018351638689637184,0.16207018494606018,1.005881905555725,1.0656673908233643,1.5521745681762695,-2.522392988204956,1.9419132471084595,3.885105848312378,0.3094884157180786,0.797173023223877,0.22778445482254028,1.9701240062713623
141,21023,21021,0.03660157322883606,0.03801322728395462,0.9685785174369812,0.17413799464702606,0.6771815419197083,-3.486480236053467,1.9425054788589478,3.885005235671997,0.3103503882884979,0.5738046765327454,0.17262448370456696,1.9426504373550415
142,21033,21031,-0.03278210386633873,0.01570283994078636,1.0183106660842896,-0.16972649097442627,1.2795897722244263,-3.548959493637085,1.9447002410888672,3.886082649230957,0.30962610244750977,0.5960385799407959,0.18566963076591492,1.9112943410873413
143,21043,21041,-0.01714249700307846,-0.0060132090002298355,0.9939777851104736,1.781011939048767,-0.930829644203186,-4.224575996398926,1.9453285932540894,3.886301279067993,0.3103317320346832,0.7032269835472107,0.21282216906547546,1.8777002096176147
144,21053,21051,-0.0011177792912349105,-0.01550306100398302,0.9962027668952942,0.7086247801780701,-0.3682843744754791,-4.285240173339844,1.9455630779266357,3.8861324787139893,0.31112927198410034,0.5045146942138672,0.24014124274253845,1.825426697731018
145,21063,21061,-0.04585956409573555,0.12982343137264252,0.9741697311401367,0.6545001268386841,-0.23349307477474213,-4.672593593597412,1.9491994380950928,3.886660575866699,0.31313905119895935,0.6264280080795288,0.2583865225315094,1.7802740335464478
146,21073,21071,0.01981372758746147,0.030966665595769882,0.9232957363128662,1.2840430736541748,-0.3935447335243225,-4.8024115562438965,1.9495527744293213,3.886967658996582,0.31396037340164185,0.6495242714881897,0.3540341556072235,1.7190070152282715
147,21083,21081,0.01064283773303032,-0.013784738257527351,0.9844356179237366,0.19692714512348175,-0.24754391610622406,-4.465804100036621,1.9509100914001465,3.8862226009368896,0.31467434763908386,0.6794835925102234,0.3615678548812866,1.6752915382385254
148,21093,21091,-0.04010439291596413,-0.016258563846349716,1.0190117359161377,-0.16108711063861847,-0.8852837085723877,-4.072490215301514,1.9516786336898804,3.8865604400634766,0.31534895300865173,0.7226823568344116,0.2905988395214081,1.6470463275909424
149,21103,21101,-0.08452438563108444,-0.0013612696202471852,1.0279459953308105,-1.1972172260284424,0.7591022253036499,-4.0851311683654785,1.9524844884872437,3.887338876724243,0.3145621716976166,0.8208489418029785,0.2871345281600952,1.6124708652496338
150,21113,21111,-0.04064600542187691,0.008043039590120316,0.9861342310905457,-3.8779640197753906,5.437030792236328,-3.766144037246704,1.9526035785675049,3.8886334896087646,0.3152002990245819,0.7105185985565186,0.33486679196357727,1.5646439790725708
151,21123,21121,-0.044054292142391205,0.007286873180419207,1.005237340927124,-4.0244598388671875,7.576674461364746,-3.5175819396972656,1.9549551010131836,3.889033555984497,0.31574907898902893,0.7050571441650391,0.274030476808548,1.5443885326385498
152,21133,21131,-0.016420278698205948,0.017992913722991943,0.9962127208709717,-4.410978317260742,8.93062686920166,-3.5064947605133057,1.955388069152832,3.890317916870117,0.3189758062362671,0.5914617776870728,0.20815519988536835,1.533856987953186
153,21143,21141,0.021418804302811623,0.08778766542673111,0.9322488903999329,-5.562190055847168,9.686375617980957,-3.176616668701172,1.9570733308792114,3.8920884132385254,0.3196903169155121,0.5223782658576965,0.12454817444086075,1.5080938339233398
154,21153,21151,0.05655213072896004,0.0985293760895729,0.8975306749343872,-3.602141857147217,8.319400787353516,-3.400592088699341,1.9574154615402222,3.8932745456695557,0.32040491700172424,0.4502738416194916,0.048342153429985046,1.496298909187317
155,21163,21161,0.02581695280969143,0.055383794009685516,0.9553259611129761,-0.5931028723716736,4.89293098449707,-3.002345085144043,1.9581302404403687,3.893681526184082,0.31774964928627014,0.4117332398891449,0.08816360682249069,1.4529807567596436
156,21173,21171,0.001719433581456542,-0.01966293901205063,0.986470103263855,1.8123459815979004,2.363797664642334,-3.686361074447632,1.9586697816848755,3.8944854736328125,0.3181931674480438,0.41432681679725647,0.08866973221302032,1.4467147588729858
157,21183,21181,-0.025414977222681046,-0.177642360329628,0.9513348340988159,2.925143241882324,1.2405532598495483,-3.6292781829833984,1.9592260122299194,3.894857168197632,0.31866776943206787,0.29136547446250916,0.12013857811689377,1.415915846824646
158,21193,21191,-0.037459831684827805,-0.1184745654463768,0.9557318687438965,3.1121907234191895,0.3987812101840973,-3.139171600341797,1.9604843854904175,3.895725965499878,0.3192799985408783,0.28455203771591187,0.1705687940120697,1.375970721244812
159,21203,21201,-0.02380635403096676,-0.06760656833648682,0.9361945986747742,1.1194361448287964,1.218542456626892,-2.9793879985809326,1.9614779949188232,3.8954102993011475,0.31959155201911926,0.3512912392616272,0.20743870735168457,1.3482768535614014
160,21213,21211,0.012927594594657421,-0.024571295827627182,0.9486568570137024,-1.7517812252044678,2.745687246322632,-2.958021879196167,1.9614592790603638,3.8950910568237305,0.3198632597923279,0.38938868045806885,0.20638726651668549,1.3228228092193604
161,21223,21221,0.026187999173998833,-0.06289633363485336,0.9769404530525208,-4.207420349121094,3.693002939224243,-2.488206386566162,1.961824655532837,3.8951995372772217,0.3200756013393402,0.25114303827285767,0.23362386226654053,1.2826645374298096
162,21233,21231,0.05379462242126465,-0.17386294901371002,0.9677423238754272,-7.318976879119873,6.226264476776123,-2.549888849258423,1.9635387659072876,3.8949902057647705,0.32086122035980225,0.24534648656845093,0.13440106809139252,1.2664434909820557
163,21243,21241,0.03286077082157135,-0.21477460861206055,0.9870123863220215,-5.406731128692627,6.315872669219971,-2.0723764896392822,1.9637492895126343,3.895946979522705,0.32106831669807434,0.06823335587978363,0.10239585489034653,1.2297390699386597
164,21253,21251,0.0034450700040906668,-0.08854080736637115,1.0143123865127563,-3.2231662273406982,6.172080039978027,-2.540254592895508,1.965777039527893,3.895615577697754,0.32113713026046753,0.044535063207149506,0.016323108226060867,1.2134901285171509
165,21263,21261,0.012825596146285534,-0.06114683672785759,1.0070903301239014,-2.6874938011169434,4.058028697967529,-2.324138879776001,1.966446876525879,3.89705753326416,0.3198566734790802,0.03461205214262009,0.031603358685970306,1.1984533071517944
166,21273,21271,-0.01082470454275608,-0.08218175917863846,1.025164246559143,-0.8618807792663574,1.0750055313110352,-1.8165444135665894,1.9669991731643677,3.896393299102783,0.31997770071029663,0.05995293706655502,-0.008647325448691845,1.1789050102233887
167,21283,21281,-0.003308687126263976,-0.07411450147628784,0.9692599177360535,-0.6293923258781433,0.6815984845161438,-1.756435751914978,1.9666377305984497,3.896815061569214,0.3201713562011719,0.10336731374263763,-0.031006865203380585,1.1631947755813599
168,21293,21291,0.044983476400375366,-0.016099298372864723,0.915883481502533,-0.34951052069664,1.6442853212356567,-1.326235294342041,1.9665895700454712,3.8970465660095215,0.31790706515312195,-0.006971172988414764,-0.04720085486769676,1.1501367092132568
169,21303,21301,0.022411471232771873,0.15061745047569275,0.9880898594856262,0.37416088581085205,3.9926016330718994,-1.4050480127334595,1.9687473773956299,3.8969247341156006,0.31776881217956543,0.014668220654129982,-0.05568594112992287,1.1369906663894653
170,21313,21311,0.0017950331093743443,0.10429270565509796,1.008683443069458,0.7563111186027527,2.972508430480957,-0.802333414554596,1.9688814878463745,3.896860122680664,0.3176431953907013,0.020097944885492325,0.019257865846157074,1.1190357208251953
171,21323,21321,0.04560418799519539,0.024655058979988098,0.9700220823287964,-0.05540011450648308,6.004122257232666,-0.9033138155937195,1.9692292213439941,3.8962626457214355,0.3174966871738434,-0.06623074412345886,0.011539065279066563,1.1097030639648438
172,21333,21331,-0.009039744734764099,0.051997676491737366,1.0534145832061768,-0.7741842269897461,3.758807897567749,-0.7109845280647278,1.9707173109054565,3.8963916301727295,0.31816938519477844,-0.15165361762046814,0.07293108105659485,1.0968214273452759
173,21343,21341,-0.04644284024834633,0.018471289426088333,1.0473759174346924,-2.1429874897003174,1.7485108375549316,-0.6682807207107544,1.9717429876327515,3.895564556121826,0.3180233836174011,-0.1280621737241745,0.04145462065935135,1.093792200088501
174,21353,21351,-0.08665359020233154,-0.0016006474616006017,0.9884799122810364,-2.8697261810302734,1.606031894683838,-0.14180999994277954,1.9723024368286133,3.895906448364258,0.3180270195007324,-0.16917340457439423,-0.009632986970245838,1.088637113571167
175,21363,21361,-0.09164100885391235,0.05057930201292038,1.0012493133544922,-4.604106903076172,1.1282155513763428,0.22052033245563507,1.9730924367904663,3.896475315093994,0.3183306157588959,-0.2745268642902374,-0.07885877788066864,1.0865206718444824
176,21373,21371,0.008194916881620884,0.00020078533270861953,0.9792163968086243,-4.065662384033203,1.0423414707183838,0.42859524488449097,1.9749915599822998,3.8968617916107178,0.3182356655597687,-0.21708345413208008,-0.15689343214035034,1.0888481140136719
177,21383,21381,-0.008367669768631458,-0.01021531131118536,1.0480294227600098,-2.5161595344543457,0.5124706625938416,0.10422015190124512,1.974170446395874,3.8973629474639893,0.31832030415534973,-0.16287848353385925,-0.14511120319366455,1.1256158351898193
178,21393,21391,0.034000981599092484,-0.08227308094501495,1.0150712728500366,0.2856893241405487,-0.8189949989318848,0.3014228045940399,1.9744747877120972,3.898118257522583,0.31995803117752075,-0.10120860487222672,-0.1071167066693306,1.1324045658111572
179,21403,21401,0.027911191806197166,-0.11569508910179138,1.0239945650100708,2.150522232055664,0.7970985770225525,-0.2993519902229309,1.9758450984954834,3.9017231464385986,0.32016250491142273,-0.11871496587991714,-0.11063063889741898,1.1982641220092773
180,21413,21411,-0.004981235135346651,-0.13865813612937927,1.004826307296753,2.7190005779266357,3.2215468883514404,-0.7670299410820007,1.9765515327453613,3.9018890857696533,0.3202986419200897,-0.15604481101036072,-0.15830473601818085,1.204609751701355
181,21423,21421,0.030490394681692123,-0.09983915835618973,0.9229298233985901,1.7607041597366333,7.532895088195801,-0.8207882046699524,1.9779736995697021,3.9027249813079834,0.32044723629951477,-0.16711172461509705,-0.12548226118087769,1.198225736618042
182,21433,21431,0.05281727761030197,-0.04655658081173897,0.975082278251648,0.7526378631591797,6.935615539550781,-0.7688183188438416,1.9783790111541748,3.902790069580078,0.322174996137619,-0.295612633228302,-0.1109231635928154,1.1892658472061157
183,21443,21441,0.06874200701713562,-0.08507955074310303,1.020459532737732,-0.43321138620376587,5.570192813873291,-0.5885031819343567,1.9799144268035889,3.9028189182281494,0.3223086893558502,-0.33160141110420227,-0.11207716912031174,1.1837084293365479
184,21453,21451,0.025379154831171036,-0.14966927468776703,1.0425236225128174,0.35209906101226807,1.7058086395263672,-0.504686713218689,1.9804719686508179,3.9051871299743652,0.3224966526031494,-0.4052349925041199,-0.1172678992152214,1.210039496421814
185,21463,21461,-0.025871679186820984,-0.060074128210544586,1.0461052656173706,1.0092753171920776,0.20289571583271027,-0.5879060626029968,1.9819109439849854,3.9063165187835693,0.32251712679862976,-0.36179304122924805,-0.1124388724565506,1.2176456451416016
186,21473,21471,0.005378578789532185,0.03586076945066452,0.9797800183296204,2.3615710735321045,-1.83720064163208,-1.4129552841186523,1.9835700988769531,3.910360097885132,0.3228483200073242,-0.2953793704509735,-0.09569037705659866,1.2828513383865356
187,21483,21481,-0.0136440210044384,0.16229259967803955,1.0072959661483765,1.919826865196228,0.2970137596130371,-1.8177672624588013,1.9836775064468384,3.91166090965271,0.3231840133666992,-0.44893714785575867,-0.07052848488092422,1.288465976715088
188,21493,21491,-0.027286922559142113,0.1062367781996727,1.030200481414795,1.173263430595398,-1.3439311981201172,-1.1806237697601318,1.986122727394104,3.9115495681762695,0.3197075426578522,-0.3651040196418762,-0.05065969377756119,1.271806240081787
189,21503,21501,0.042311303317546844,-0.027083775028586388,0.9722914099693298,-0.04103055223822594,4.266834735870361,-1.615481972694397,1.9860807657241821,3.912794828414917,0.3197917342185974,-0.4070946276187897,-0.046198900789022446,1.2833755016326904
190,21513,21511,-0.00020498651429079473,0.05250280722975731,1.035459041595459,-0.447039395570755,3.093069076538086,-1.5849212408065796,1.9873385429382324,3.912719964981079,0.31979021430015564,-0.4741232097148895,-0.12569688260555267,1.2647813558578491
191,21523,21521,-0.031594716012477875,0.039020128548145294,1.027674913406372,0.008253050036728382,-1.1220215559005737,-0.9764828085899353,1.9885333776474,3.9135499000549316,0.3164988160133362,-0.568392276763916,-0.12498114258050919,1.2504218816757202
192,21533,21531,-0.046456433832645416,0.029161999002099037,0.9538694620132446,-2.1152234077453613,0.6211190819740295,-1.7809265851974487,1.9900089502334595,3.9135653972625732,0.316298246383667,-0.5653537511825562,-0.06431784480810165,1.2424858808517456
193,21543,21541,-0.10666749626398087,0.1299993097782135,0.9743919968605042,-2.0340397357940674,0.21749526262283325,-1.50362229347229,1.990931510925293,3.9142873287200928,0.31613269448280334,-0.6458652019500732,-0.10152222961187363,1.2504674196243286
194,21553,21551,-0.05522435903549194,0.1114916130900383,0.9803763628005981,0.3002782166004181,-3.2579643726348877,-0.6740069389343262,1.9926438331604004,3.9158575534820557,0.3158394992351532,-0.540299654006958,-0.11865165084600449,1.2597510814666748
195,21563,21561,-0.022309258580207825,0.11887667328119278,1.0099201202392578,1.1622027158737183,-4.416492462158203,-0.18222734332084656,1.9924888610839844,3.9165663719177246,0.31648266315460205,-0.47933879494667053,-0.10921745002269745,1.2636890411376953
196,21573,21571,-0.04750807210803032,0.04230383783578873,1.0806756019592285,1.9103657007217407,-5.044512748718262,-0.24978530406951904,1.9930484294891357,3.917929172515869,0.3163037598133087,-0.39249494671821594,-0.1602843552827835,1.2823208570480347
197,21583,21581,-0.027972891926765442,-0.04847171902656555,1.0327867269515991,3.2420411109924316,-4.909136772155762,-0.5147156119346619,1.9927140474319458,3.91837739944458,0.31622835993766785,-0.38169488310813904,-0.10913240909576416,1.2804151773452759
198,21593,21591,-0.04189426824450493,0.012193860486149788,1.0180166959762573,3.2057433128356934,0.10808869451284409,-1.1609792709350586,1.9941457509994507,3.919870138168335,0.3167860805988312,-0.34592369198799133,-0.057873085141181946,1.3036428689956665
199,21603,21601,-0.0019622964318841696,0.04198538139462471,1.0228221416473389,0.8541348576545715,4.486939907073975,-0.5301596522331238,1.9957832098007202,3.9215645790100098,0.3167968988418579,-0.3005632162094116,-0.0977763906121254,1.33021879196167
200,21613,21611,-0.014511410146951675,0.07720183581113815,0.9321999549865723,-1.7527987957000732,6.546236991882324,-0.548608660697937,1.9962875843048096,3.92404842376709,0.31687819957733154,-0.3824331760406494,-0.09164340794086456,1.3578909635543823
201,21623,21621,0.04875670745968819,-0.23250466585159302,1.0047518014907837,-2.2878828048706055,4.872287273406982,-0.46921488642692566,1.9985114336013794,3.924182891845703,0.3186231553554535,-0.542470395565033,-0.11224665492773056,1.3532397747039795
202,21633,21631,0.059339627623558044,-0.14496134221553802,0.9745955467224121,-0.6389081478118896,4.740097999572754,-0.9165131449699402,2.0006022453308105,3.9247212409973145,0.31861358880996704,-0.5289188623428345,-0.12562228739261627,1.3349618911743164
203,21643,21641,-0.00718029635027051,-0.12495242804288864,1.0558127164840698,1.0271941423416138,-1.3462474346160889,-0.27719640731811523,2.000835657119751,3.9238250255584717,0.318732887506485,-0.4705304801464081,-0.11776909977197647,1.3267560005187988
204,21653,21651,0.015075476840138435,-0.16271774470806122,0.9771469831466675,2.511906623840332,-1.941420316696167,-0.15301182866096497,2.0008678436279297,3.923485040664673,0.318925678730011,-0.6709102988243103,-0.08276943862438202,1.3199936151504517
205,21663,21661,0.04289565980434418,0.012284010648727417,0.9601116180419922,3.798534393310547,-1.267302393913269,0.19486762583255768,2.0042595863342285,3.9245524406433105,0.3181927800178528,-0.5373189449310303,0.04991869255900383,1.3449164628982544
206,21673,21671,0.028508374467492104,0.04682057723402977,0.9847273826599121,2.917623281478882,-5.4226508140563965,-0.17640671133995056,2.003746747970581,3.9255733489990234,0.3183137774467468,-0.5359569191932678,0.023481734097003937,1.4056428670883179
207,21683,21681,-0.032206784933805466,-0.036493267863988876,0.9794270396232605,2.1504225730895996,-6.929337024688721,-0.7138081192970276,2.005183458328247,3.926936149597168,0.3182925581932068,-0.4830534756183624,0.06840604543685913,1.4055721759796143
208,21693,21691,-0.02262972854077816,0.0031044939532876015,1.0012016296386719,-1.3522127866744995,-4.839395999908447,-1.2196857929229736,2.006845474243164,3.9266912937164307,0.31887829303741455,-0.2856152355670929,0.0742226094007492,1.3979135751724243
209,21703,21701,-0.012714936397969723,0.007747387979179621,0.9602009057998657,-4.493500232696533,-2.9275453090667725,-0.5695990324020386,2.006596803665161,3.928722381591797,0.3189946115016937,-0.43687278032302856,0.025668464601039886,1.4268765449523926
210,21713,21711,-0.05300017446279526,0.07816993445158005,1.0490868091583252,-4.356786251068115,-6.229560852050781,0.19476719200611115,2.009373664855957,3.9288690090179443,0.3188660740852356,-0.2598987817764282,-0.04541212320327759,1.416610836982727
211,21723,21721,0.01104453019797802,0.04809767007827759,1.0220091342926025,-1.7624258995056152,-3.178819417953491,-0.18368956446647644,2.0102312564849854,3.932704448699951,0.3187255561351776,-0.2536372244358063,-0.015079057775437832,1.4902364015579224
212,21733,21731,-0.018286414444446564,0.09547270834445953,1.0982874631881714,1.4268313646316528,-1.768064260482788,-0.08871407806873322,2.011139392852783,3.9317843914031982,0.3187474012374878,-0.349185585975647,-0.09577977657318115,1.4933444261550903
213,21743,21741,0.01414004061371088,0.03240188583731651,1.0414127111434937,1.5878325700759888,1.4747560024261475,0.3118739724159241,2.0131876468658447,3.9323906898498535,0.3187684118747711,-0.24004460871219635,-0.0641922876238823,1.4794107675552368
214,21753,21751,0.03865702077746391,-0.03343742713332176,1.0173064470291138,1.6926603317260742,0.7987261414527893,-0.7456300258636475,2.013354778289795,3.932572364807129,0.3190549910068512,-0.30743205547332764,-0.03197766840457916,1.4875023365020752
215,21763,21761,-0.014225262217223644,0.04517923295497894,0.9550116062164307,3.32635498046875,-1.0537440776824951,-0.9388876557350159,2.0148327350616455,3.932297468185425,0.3151536285877228,-0.352579802274704,0.013970350846648216,1.4819408655166626
216,21773,21771,-0.04980263486504555,0.13995610177516937,0.9774914383888245,1.02982759475708,-2.2593448162078857,-0.8441256880760193,2.016256093978882,3.9318959712982178,0.3150256872177124,-0.21325454115867615,0.05115395039319992,1.4724677801132202
217,21783,21781,-0.011612639762461185,0.06024324893951416,0.9789296984672546,2.002788782119751,-7.374001979827881,-0.6384145021438599,2.015796422958374,3.932180881500244,0.3150806128978729,-0.0433029904961586,0.07977806776762009,1.470011591911316
218,21793,21791,-0.050901930779218674,-0.045340396463871,1.0676145553588867,0.6272552609443665,-9.438568115234375,-0.43339696526527405,2.0153627395629883,3.9319725036621094,0.31220895051956177,-0.14690479636192322,0.09755080193281174,1.461570382118225
219,21803,21801,-0.08166343718767166,-0.03879936411976814,1.0799823999404907,1.123805284500122,-8.595036506652832,-1.4145127534866333,2.0177414417266846,3.932204008102417,0.3119056224822998,0.09211422502994537,0.10792763531208038,1.4940190315246582
220,21813,21811,-0.052192769944667816,0.03317568823695183,0.9931067228317261,-0.9353426098823547,-1.6373875141143799,-1.642433762550354,2.0169999599456787,3.9333062171936035,0.3118685483932495,0.17530497908592224,0.1016022190451622,1.4876749515533447
221,21823,21821,-0.021307701244950294,0.07416939735412598,1.0122618675231934,-2.3595402240753174,2.0050222873687744,-0.8307273387908936,2.0176076889038086,3.935316562652588,0.3143251836299896,0.02812841907143593,0.07254983484745026,1.5107401609420776
222,21833,21831,0.03047318384051323,-0.051481589674949646,0.9900453090667725,-5.035565376281738,6.715187072753906,-0.9553267359733582,2.0201492309570312,3.936643600463867,0.314331591129303,0.06130748242139816,0.012740176171064377,1.533003807067871
223,21843,21841,0.015777451917529106,-0.1260540634393692,1.028067708015442,-2.8118464946746826,4.094027996063232,-0.9045507311820984,2.020630121231079,3.936990261077881,0.3143976330757141,-0.013155062682926655,-0.04512041434645653,1.522596836090088
224,21853,21851,0.015034991316497326,-0.2633846402168274,1.0375192165374756,-0.8460727334022522,2.1321353912353516,-0.9867486357688904,2.021944046020508,3.93804931640625,0.3166632354259491,-0.062304481863975525,-0.07083415985107422,1.5310873985290527
225,21863,21861,-0.013660297729074955,-0.1534702479839325,1.0411263704299927,2.476231575012207,2.523284673690796,-1.2583266496658325,2.022984743118286,3.938055992126465,0.3168722689151764,-0.0941612496972084,-0.053420305252075195,1.5013113021850586
226,21873,21871,0.007229288574308157,-0.09364277124404907,0.9697926044464111,3.2045726776123047,2.8315224647521973,-1.2313294410705566,2.023826837539673,3.938784599304199,0.31707683205604553,-0.043440982699394226,-0.0035744928754866123,1.5318440198898315
227,21883,21881,0.0380735881626606,-0.01759565994143486,1.0085241794586182,2.5671706199645996,2.851987600326538,-1.785439372062683,2.023765802383423,3.938685894012451,0.31740427017211914,-0.15432579815387726,-0.03161483258008957,1.527519702911377
228,21893,21891,0.08447089046239853,-0.0198688842356205,0.9971704483032227,1.6238081455230713,-1.2113037109375,-1.3638544082641602,2.026583194732666,3.942251205444336,0.31713682413101196,-0.06243395432829857,0.014029771089553833,1.5755316019058228
229,21903,21901,-0.007655302062630653,0.005489124916493893,1.0068589448928833,1.3776308298110962,-2.977261543273926,-1.8517684936523438,2.026383876800537,3.942861557006836,0.31746140122413635,-0.17902979254722595,0.042629387229681015,1.5650473833084106
230,21913,21911,0.018069755285978317,-0.04462146386504173,0.9748958349227905,1.5467222929000854,-3.436793327331543,-2.2683286666870117,2.028362274169922,3.941977024078369,0.3175865411758423,-0.10116162896156311,0.07470479607582092,1.545230507850647
231,21923,21921,0.0025549433194100857,0.01306246779859066,1.0040758848190308,0.37106990814208984,-3.0541770458221436,-1.9940478801727295,2.0290660858154297,3.9417898654937744,0.3175621032714844,0.05387001857161522,0.016192035749554634,1.523513674736023
232,21933,21931,0.047625765204429626,-0.043352384120225906,0.9689333438873291,-0.4359753429889679,-2.019162654876709,-1.5329478979110718,2.029038667678833,3.9430460929870605,0.31782230734825134,-0.052161701023578644,0.02618435211479664,1.513744831085205
233,21943,21941,0.03306300938129425,-0.03717918321490288,0.9951258301734924,-0.09952844679355621,-1.3127140998840332,-1.9868851900100708,2.0316367149353027,3.9427249431610107,0.31792333722114563,-0.08241450786590576,0.03105645440518856,1.4841735363006592
234,21953,21951,-0.0028814468532800674,-0.02671230211853981,0.997189998626709,-0.45493239164352417,-0.12745307385921478,-2.257336378097534,2.0325615406036377,3.9425957202911377,0.31771621108055115,-0.04337938129901886,0.032501690089702606,1.465410590171814
235,21963,21961,-0.00841604731976986,-0.012227287515997887,0.9891132116317749,0.7169753909111023,-1.0415475368499756,-1.542494773864746,2.033249616622925,3.942650318145752,0.3178626596927643,0.06425274163484573,0.04088780656456947,1.4448212385177612
236,21973,21971,0.035436391830444336,-0.13798336684703827,0.9897083044052124,0.7376946210861206,1.2133814096450806,-2.369042158126831,2.032883644104004,3.9416089057922363,0.3180946707725525,-0.09505457431077957,0.06100345030426979,1.39956796169281
237,21983,21981,-0.009892881847918034,-0.0076446919701993465,1.018659234046936,1.6634026765823364,1.7641801834106445,-2.2013401985168457,2.0356414318084717,3.9417216777801514,0.3181252181529999,-0.09483179450035095,0.08581756800413132,1.3820202350616455
238,21993,21991,0.017173822969198227,-0.030606543645262718,0.9631315469741821,1.9233152866363525,0.12816545367240906,-2.2961161136627197,2.037108898162842,3.941924571990967,0.32201823592185974,-0.0891876146197319,-0.03512447327375412,1.3631417751312256
239,22003,22001,-0.004751924425363541,-0.023085853084921837,0.971735954284668,1.6713391542434692,-2.072686195373535,-2.2942090034484863,2.0378735065460205,3.9433369636535645,0.3223826289176941,-0.05585714802145958,0.014018292538821697,1.3412669897079468
