,timestamp_start,timestamp_end,acc.x,acc.y,acc.z,gyro.x,gyro.y,gyro.z,stateEstimate.x,stateEstimate.y,stateEstimate.z,stabilizer.pitch,stabilizer.roll,stabilizer.yaw
0,21746,21745,-0.027599584311246872,-0.021341973915696144,1.0004774332046509,8.399798393249512,7.3557820320129395,2.8449535369873047,1.8611725568771362,3.882392644882202,0.17753969132900238,0.7358309030532837,0.06891948729753494,2.993889570236206
1,21756,21755,-0.027809778228402138,-0.019051294773817062,1.02499520778656,6.054015159606934,9.714322090148926,2.4183576107025146,1.8606822490692139,3.8821096420288086,0.1781468689441681,0.7525016665458679,0.23410968482494354,3.0246877670288086
2,21766,21765,0.04428619146347046,-0.018204770982265472,0.9809010028839111,2.758364677429199,8.048009872436523,2.6732122898101807,1.8608168363571167,3.88103985786438,0.1796969324350357,0.7301136255264282,0.42210233211517334,3.051194906234741
3,21776,21775,-0.007469345349818468,0.021227795630693436,1.048823595046997,-1.4405416250228882,8.414735794067383,3.187586784362793,1.8620470762252808,3.881897211074829,0.18139797449111938,0.5626795291900635,0.4656732678413391,3.073456287384033
4,21786,21785,0.0466747060418129,-0.0036622059997171164,0.9811187982559204,-4.417196273803711,6.364341735839844,3.366133213043213,1.8612112998962402,3.8838441371917725,0.18310390412807465,0.4051513373851776,0.37565383315086365,3.101722240447998
5,21796,21795,0.08913277089595795,-0.07287981361150742,0.9958721995353699,-7.951486587524414,8.265417098999023,4.1781134605407715,1.8628308773040771,3.884648084640503,0.1830098032951355,0.28567180037498474,0.3133871555328369,3.132809638977051
6,21806,21805,0.08525947481393814,-0.061953913420438766,1.017218828201294,-6.767760276794434,3.613797426223755,4.38080358505249,1.8652814626693726,3.886404514312744,0.1845216006040573,0.1755409985780716,0.20935815572738647,3.1704680919647217
7,21816,21815,-0.03022957034409046,0.10046728700399399,1.039011001586914,-4.157418251037598,-0.10121701657772064,4.688716888427734,1.8652793169021606,3.8889927864074707,0.18590135872364044,0.1303524523973465,-0.23315703868865967,3.2184102535247803
8,21826,21825,-0.06831547617912292,-0.14264483749866486,1.07229745388031,-0.23048114776611328,-3.7903573513031006,5.175011157989502,1.8662471771240234,3.894120454788208,0.1866762489080429,0.13450315594673157,-0.7242268919944763,3.2643141746520996
9,21836,21835,0.058645136654376984,-0.017215820029377937,1.0267910957336426,6.437976837158203,-0.3943262994289398,5.810136795043945,1.8637975454330444,3.894530773162842,0.1889038383960724,0.1678287237882614,-0.5796224474906921,3.31726336479187
10,21846,21845,0.04281480237841606,0.026838738471269608,1.0537270307540894,15.745697021484375,0.15161864459514618,6.386147499084473,1.861954927444458,3.894045352935791,0.19124913215637207,0.18209445476531982,-0.3412672281265259,3.3767738342285156
11,21856,21855,0.03360516205430031,-0.004032379947602749,1.0570861101150513,22.495342254638672,-1.6484308242797852,6.434490203857422,1.8635390996932983,3.89434814453125,0.19133326411247253,0.19169145822525024,-0.2027195543050766,3.438326358795166
12,21866,21865,0.043695177882909775,-0.012228038161993027,1.0285847187042236,22.888423919677734,-0.7140858769416809,5.993623733520508,1.8656657934188843,3.8943073749542236,0.19322238862514496,0.20677518844604492,0.1812445968389511,3.505232334136963
13,21876,21875,0.013324875384569168,-0.04315289482474327,1.0067434310913086,19.00101089477539,-0.6713920831680298,5.96864652633667,1.8663352727890015,3.8949780464172363,0.19495758414268494,0.2844283878803253,0.6189871430397034,3.5715579986572266
14,21886,21885,-0.009945209138095379,0.03968410566449165,1.085891604423523,10.04073429107666,1.486589789390564,5.227682590484619,1.8655792474746704,3.8938889503479004,0.19653119146823883,0.4950222074985504,0.8856557011604309,3.634222984313965
15,21896,21895,-0.026886247098445892,0.09146500378847122,0.997366189956665,0.014450352638959885,4.009225368499756,4.22061824798584,1.863288164138794,3.89469051361084,0.20137865841388702,0.43247339129447937,1.0026793479919434,3.6874051094055176
16,21906,21905,-0.026134906336665154,0.011308948509395123,0.9750710129737854,-11.276651382446289,7.078310966491699,4.265218734741211,1.8623028993606567,3.896531343460083,0.2034122347831726,0.3976893723011017,1.0208073854446411,3.7313761711120605
17,21916,21915,0.04072956740856171,0.030606847256422043,1.024399995803833,-17.235801696777344,14.741068840026855,4.677427291870117,1.86172616481781,3.895671844482422,0.20556505024433136,0.24263373017311096,0.864062488079071,3.766953229904175
18,21926,21925,0.13835765421390533,-0.07672617584466934,0.9948563575744629,-19.78425407409668,12.91001033782959,4.650906085968018,1.8608380556106567,3.8971152305603027,0.20674636960029602,0.03431059420108795,0.6136103272438049,3.803158760070801
19,21936,21935,0.044194914400577545,-0.0949510782957077,1.0588881969451904,-14.022867202758789,7.615333080291748,5.119679927825928,1.8602330684661865,3.8966166973114014,0.20866912603378296,-0.15922409296035767,0.4218563139438629,3.8411672115325928
20,21946,21945,0.046888548880815506,-0.07943236827850342,0.963507890701294,-6.987219333648682,3.83030366897583,5.266923427581787,1.8601175546646118,3.897386074066162,0.21063925325870514,-0.2161664366722107,0.23066911101341248,3.8933894634246826
21,21956,21955,-1.3018421668675728e-05,0.02898307330906391,1.0327117443084717,1.8204121589660645,-0.8028214573860168,5.067290782928467,1.8602596521377563,3.896555185317993,0.2131703644990921,-0.28145524859428406,0.3068408668041229,3.9516794681549072
22,21966,21965,0.020767996087670326,-0.01866513304412365,1.0076172351837158,8.033863067626953,-5.232419490814209,4.666205406188965,1.8666390180587769,3.897792339324951,0.214715376496315,-1.3513622283935547,0.27910175919532776,3.908768892288208
23,21976,21975,0.017737602815032005,-0.054214198142290115,0.9619287848472595,11.834110260009766,-11.175544738769531,4.705326557159424,1.8698590993881226,3.8910577297210693,0.2158438116312027,-1.482149600982666,1.5263310670852661,4.06117057800293
24,21986,21985,-0.0002987572515849024,-0.05480372533202171,1.006959319114685,8.468811988830566,-21.261228561401367,3.349186420440674,1.868843674659729,3.8911283016204834,0.2204740345478058,-1.1193523406982422,1.5702731609344482,4.119256973266602
25,21996,21995,0.009691065177321434,-0.016417311504483223,0.9465303421020508,-4.093145370483398,-32.03218460083008,3.261789560317993,1.8670945167541504,3.8929824829101562,0.2239583432674408,-0.6983913779258728,1.4908556938171387,4.152950763702393
26,22006,22005,-0.01594400964677334,0.00355010898783803,0.9604007005691528,-19.54986000061035,-34.20075607299805,2.869556427001953,1.8688147068023682,3.8953850269317627,0.22664442658424377,-0.4403068423271179,1.3081871271133423,4.146603584289551
27,22016,22015,0.019854314625263214,-0.029901757836341858,0.9901596903800964,-31.245927810668945,-31.377891540527344,2.540626049041748,1.868739366531372,3.8945095539093018,0.22918283939361572,0.07670410722494125,1.1169202327728271,4.190314292907715
28,22026,22025,0.0224872175604105,-0.0302483718842268,0.9388570785522461,-35.70528030395508,-25.1347713470459,2.074295997619629,1.8685272932052612,3.895820379257202,0.22966863214969635,0.3137613832950592,0.6665695309638977,4.175830841064453
29,22036,22035,0.018462739884853363,-0.010336380451917648,0.9803937077522278,-35.43391418457031,-16.69550132751465,2.496669292449951,1.8670622110366821,3.897179126739502,0.23182955384254456,0.7505088448524475,0.23054029047489166,4.2114057540893555
30,22046,22045,0.04114007577300072,-0.03336164727807045,0.9446347951889038,-27.686967849731445,-6.988138675689697,2.7091076374053955,1.867167353630066,3.8998618125915527,0.2338247001171112,1.0255842208862305,-0.25651809573173523,4.238029479980469
31,22056,22055,-0.030026020482182503,0.027177195996046066,1.0258424282073975,-16.934974670410156,1.9858508110046387,3.011103391647339,1.8686150312423706,3.8979222774505615,0.23593278229236603,1.1322587728500366,-0.46462899446487427,4.270988464355469
32,22066,22065,0.0010855834698304534,-0.050148855894804,0.957585334777832,-3.587368965148926,8.56680679321289,2.954129695892334,1.8665368556976318,3.8927297592163086,0.23793548345565796,1.1612012386322021,-0.565388023853302,4.305299282073975
33,22076,22075,0.0061058285646140575,-0.014538279734551907,0.9500717520713806,4.979883670806885,11.896984100341797,2.6961710453033447,1.867051601409912,3.8927290439605713,0.23994024097919464,1.0779906511306763,-0.7063266634941101,4.33397102355957
34,22086,22085,0.031990956515073776,-0.032609742134809494,0.9685947895050049,9.504277229309082,11.156488418579102,2.7308804988861084,1.865368366241455,3.895258665084839,0.2398928850889206,1.1665542125701904,-0.9805288910865784,4.3753180503845215
35,22096,22095,0.09337201714515686,0.037740692496299744,0.9380699396133423,10.256564140319824,11.4531888961792,2.056187152862549,1.8641767501831055,3.892397880554199,0.24184833467006683,1.2414578199386597,-0.6202508211135864,4.391679286956787
36,22106,22105,0.09223200380802155,-0.02091929316520691,0.896455705165863,9.7178373336792,4.514944553375244,2.120751142501831,1.8625355958938599,3.8926782608032227,0.24359667301177979,1.1763296127319336,-0.5664580464363098,4.418323040008545
37,22116,22115,0.02584952674806118,0.015476114116609097,0.9702664017677307,4.386040210723877,2.579890489578247,1.8624821901321411,1.8628102540969849,3.893678903579712,0.24526719748973846,1.1698575019836426,-0.603927493095398,4.448747634887695
38,22126,22125,-0.014987257309257984,0.0752340704202652,0.9808855056762695,-0.9679803252220154,1.0397542715072632,1.0127935409545898,1.8632832765579224,3.8964431285858154,0.2479351907968521,0.969655454158783,-0.7041649222373962,4.484158039093018
39,22136,22135,-0.003856760449707508,0.02166302129626274,1.0044690370559692,-5.213541030883789,1.318907618522644,1.381164312362671,1.8626084327697754,3.897306442260742,0.249574214220047,1.0273256301879883,-0.7268582582473755,4.495575904846191
40,22146,22145,0.0546407587826252,-0.02594940923154354,0.9600013494491577,-5.719641208648682,3.89882230758667,1.1775155067443848,1.8641701936721802,3.899925947189331,0.25122448801994324,1.0665310621261597,-0.7319886088371277,4.502387523651123
41,22156,22155,-0.051131509244441986,0.009257810190320015,1.0003770589828491,-2.2825987339019775,4.640051364898682,1.0739537477493286,1.866220474243164,3.89644718170166,0.25383129715919495,1.0629897117614746,-0.23712381720542908,4.459236145019531
42,22166,22165,-0.029747148975729942,-0.00043499746243469417,0.98193359375,0.3682391941547394,9.190512657165527,0.9427639842033386,1.8666588068008423,3.896150827407837,0.255574107170105,0.9538960456848145,-0.2702156603336334,4.47459602355957
43,22176,22175,0.05619276687502861,-0.016645045951008797,0.8897396922111511,-0.8460184931755066,11.836976051330566,0.9062650203704834,1.8644558191299438,3.8979861736297607,0.25737646222114563,0.9524953365325928,-0.32933688163757324,4.487604141235352
44,22186,22185,0.029590854421257973,0.05375295132398605,0.9916554093360901,-2.0248465538024902,7.185673713684082,0.16231870651245117,1.8623443841934204,3.8983263969421387,0.2570517361164093,0.8409636616706848,-0.3911982774734497,4.50383186340332
45,22196,22195,0.03865676373243332,-0.02815045230090618,0.9879216551780701,-5.965484619140625,10.386555671691895,0.2749060094356537,1.8621907234191895,3.8991570472717285,0.258544921875,0.7543415427207947,-0.40661484003067017,4.509267330169678
46,22206,22205,-0.0027058867271989584,-0.10499732941389084,0.9829815030097961,-6.602202892303467,5.992447853088379,0.34528258442878723,1.861825942993164,3.900737762451172,0.25999149680137634,0.7138586044311523,-0.4756089448928833,4.5083160400390625
47,22216,22215,0.055015742778778076,-0.12580826878547668,0.9328978061676025,-8.290946006774902,8.419581413269043,-0.44704312086105347,1.8611377477645874,3.900742530822754,0.26152148842811584,0.5460078120231628,-0.6386629343032837,4.523646831512451
48,22226,22225,0.08332762867212296,0.002161618322134018,0.9425687789916992,-6.556373119354248,8.454873085021973,-0.28484365344047546,1.8602116107940674,3.905308961868286,0.26445695757865906,0.5324484705924988,-0.7997592687606812,4.524852275848389
49,22236,22235,0.04736893251538277,-0.0179276280105114,0.9530875086784363,-4.294656276702881,6.8593950271606445,-0.04222311079502106,1.8596973419189453,3.9053213596343994,0.26591217517852783,0.3617684245109558,-0.8552449941635132,4.526397228240967
50,22246,22245,0.03208325803279877,-0.014935504645109177,0.9282699823379517,0.1751995086669922,4.221466541290283,-0.40120774507522583,1.8592954874038696,3.905425786972046,0.2672746777534485,0.3686855733394623,-0.8691814541816711,4.5146331787109375
51,22256,22255,0.04625635966658592,-0.03506632521748543,0.9350780844688416,3.9302985668182373,4.130205154418945,-0.6583068370819092,1.8572717905044556,3.904836893081665,0.2676197290420532,0.47870269417762756,-0.8903419971466064,4.498297691345215
52,22266,22265,0.0613127164542675,-0.07727763056755066,0.9583626389503479,5.6880574226379395,5.952034950256348,-0.754596471786499,1.8562520742416382,3.904632329940796,0.2687506079673767,0.5047466158866882,-0.8513977527618408,4.48517370223999
53,22276,22275,0.030557705089449883,-0.048134945333004,0.9584601521492004,6.304237365722656,4.764087200164795,-0.6322901248931885,1.8564311265945435,3.9049437046051025,0.2700694501399994,0.36020392179489136,-0.8487981557846069,4.48944091796875
54,22286,22285,-0.05629591643810272,-0.002474074251949787,0.9829041361808777,5.814302921295166,6.527726650238037,-1.051883578300476,1.8551933765411377,3.903893232345581,0.27205178141593933,0.37228524684906006,-0.9057480096817017,4.478992938995361
55,22296,22295,0.01887652277946472,-0.06340328603982925,0.9651044607162476,5.004103660583496,8.596441268920898,-0.6133387088775635,1.8556289672851562,3.9042246341705322,0.27320483326911926,0.1955863982439041,-0.8824530839920044,4.48175573348999
56,22306,22305,0.06904104351997375,-0.018328964710235596,1.019873857498169,3.7931437492370605,9.535127639770508,-1.5744489431381226,1.854534387588501,3.902254819869995,0.27429303526878357,0.1452755331993103,-0.7955995202064514,4.4661478996276855
57,22316,22315,0.054197896271944046,-0.03369304537773132,0.939490020275116,3.9763522148132324,9.952675819396973,-1.5355949401855469,1.8541556596755981,3.9007725715637207,0.2753825783729553,-0.0002305776724824682,-0.7313120365142822,4.455586910247803
58,22326,22325,-0.007070155814290047,0.0036029466427862644,0.9753991365432739,4.000245571136475,8.772432327270508,-1.599957823753357,1.8540124893188477,3.9002840518951416,0.27733293175697327,-0.13577629625797272,-0.7351166009902954,4.443808555603027
59,22336,22335,-0.01733080856502056,0.01709195040166378,0.9942493438720703,4.8721771240234375,5.027796268463135,-1.9141483306884766,1.8535188436508179,3.899940013885498,0.27851203083992004,-0.17914770543575287,-0.6515713334083557,4.4203619956970215
60,22346,22345,-0.09440859407186508,-0.0038671691436320543,1.018181562423706,5.162325382232666,3.6465020179748535,-1.7500337362289429,1.8530629873275757,3.9002721309661865,0.2796453535556793,-0.25461605191230774,-0.6302676200866699,4.399831771850586
61,22356,22355,-0.014704789966344833,-0.05648946762084961,1.0353907346725464,4.510706424713135,6.474377632141113,-1.4660263061523438,1.851259469985962,3.8987934589385986,0.27973634004592896,-0.22061079740524292,-0.5233598351478577,4.375596523284912
62,22366,22365,0.12055281549692154,-0.11621812731027603,0.947403609752655,6.217750549316406,2.071326971054077,-1.4951796531677246,1.8514505624771118,3.899754047393799,0.2807500660419464,-0.353269100189209,-0.5768085718154907,4.3631815910339355
63,22376,22375,-0.045843515545129776,0.01088673248887062,1.0424327850341797,6.699827671051025,-0.011105048470199108,-1.7181119918823242,1.8507541418075562,3.9006147384643555,0.28174808621406555,-0.28794220089912415,-0.4584043323993683,4.342174053192139
64,22386,22385,-0.13284242153167725,-0.07057719677686691,0.9751355051994324,7.138638973236084,0.9001789093017578,-2.243971824645996,1.850355863571167,3.9019181728363037,0.28248390555381775,-0.37402501702308655,-0.48614829778671265,4.3255295753479
65,22396,22395,-0.06494232267141342,0.046474162489175797,1.0226244926452637,6.517126083374023,0.9066143035888672,-1.6257960796356201,1.8503443002700806,3.908085823059082,0.28345271944999695,-0.4526928663253784,-0.49934855103492737,4.302797794342041
66,22406,22405,0.0317591093480587,0.16710738837718964,1.0000600814819336,4.0047926902771,4.625107765197754,-1.7503293752670288,1.849094271659851,3.906386613845825,0.28443431854248047,-0.31032297015190125,-0.36902371048927307,4.275661945343018
67,22416,22415,0.0880558043718338,0.07385079562664032,0.9362689256668091,4.772610664367676,6.512240409851074,-1.556341290473938,1.8478245735168457,3.9071216583251953,0.2824547290802002,-0.2923155725002289,-0.4138637185096741,4.245600700378418
68,22426,22425,0.07561807334423065,-0.0017997607355937362,0.9488065242767334,6.635722637176514,5.3853912353515625,-2.1856744289398193,1.8487606048583984,3.9070913791656494,0.2832542955875397,-0.43468376994132996,-0.2710088789463043,4.243008613586426
69,22436,22435,0.07935615628957748,0.005580147262662649,0.9418376684188843,6.94878625869751,4.657216548919678,-2.0938398838043213,1.846937894821167,3.9060494899749756,0.28386834263801575,-0.42482298612594604,-0.20421907305717468,4.215872287750244
70,22446,22445,0.0012768685119226575,-0.0034247059375047684,0.9709013104438782,7.861637592315674,0.0876389816403389,-2.082036256790161,1.8463562726974487,3.906278371810913,0.28448939323425293,-0.5509012341499329,-0.20359759032726288,4.192780017852783
71,22456,22455,-0.012940087355673313,-0.03691774979233742,0.9632005095481873,7.266880512237549,3.759490489959717,-1.6786779165267944,1.8463577032089233,3.9069318771362305,0.2834709584712982,-0.5583921074867249,-0.04118401184678078,4.1808085441589355
72,22466,22465,0.04411258175969124,0.022315174341201782,0.9359224438667297,5.723916530609131,5.614505767822266,-2.3552491664886475,1.845810890197754,3.9071431159973145,0.283895343542099,-0.5816002488136292,0.034744758158922195,4.162513732910156
73,22476,22475,-0.06693480908870697,0.06192922219634056,0.979279637336731,5.974395751953125,-0.7119460701942444,-1.6334559917449951,1.8453000783920288,3.9083399772644043,0.2842654883861542,-0.6107291579246521,0.1649748682975769,4.150365352630615
74,22486,22485,-0.007716406602412462,-0.05814022198319435,0.9962281584739685,4.798276424407959,1.2454562187194824,-2.0333850383758545,1.8445228338241577,3.9099838733673096,0.28620874881744385,-0.6581031084060669,0.057924214750528336,4.113800048828125
75,22496,22495,0.012925541959702969,-0.027993876487016678,0.9826081395149231,2.4156763553619385,1.5857633352279663,-2.0056490898132324,1.843584418296814,3.9106626510620117,0.28664276003837585,-0.790300190448761,0.02496974542737007,4.086759090423584
76,22506,22505,-0.022262416779994965,0.020995840430259705,1.0179650783538818,2.0699403285980225,1.2903939485549927,-1.8410762548446655,1.8431506156921387,3.910214424133301,0.28716397285461426,-0.7687962055206299,0.18597868084907532,4.0861077308654785
77,22516,22515,0.02592630311846733,0.03679218888282776,0.9730660915374756,2.938354253768921,1.7460561990737915,-1.9741989374160767,1.8417468070983887,3.910707473754883,0.28772658109664917,-0.6696390509605408,0.17745883762836456,4.06395149230957
78,22526,22525,-0.03593815118074417,0.08758482336997986,1.054380178451538,3.7848756313323975,-1.7635022401809692,-2.0726187229156494,1.84084951877594,3.911073684692383,0.2881282866001129,-0.7301563024520874,0.11043907701969147,4.03060245513916
79,22536,22535,-0.007441346999257803,0.009654377587139606,0.9684593677520752,3.686431884765625,-2.156986713409424,-2.3980674743652344,1.8405319452285767,3.9099578857421875,0.28858682513237,-0.7436983585357666,0.22123613953590393,4.021580219268799
80,22546,22545,-0.03528071567416191,0.06701424717903137,1.0371438264846802,5.2928290367126465,-2.812946081161499,-1.6859620809555054,1.8402814865112305,3.912201404571533,0.2890551686286926,-0.6615508794784546,0.25446298718452454,3.999526262283325
81,22556,22555,0.03909286484122276,-0.042794663459062576,0.9534724354743958,6.122371196746826,-2.615673065185547,-2.0639610290527344,1.8392797708511353,3.913273811340332,0.2908706068992615,-0.6546660661697388,0.30407318472862244,3.9808990955352783
82,22566,22565,0.023304566740989685,-0.027046605944633484,0.9914258718490601,5.8903632164001465,-2.1920180320739746,-2.354091167449951,1.8390579223632812,3.91338849067688,0.2914026081562042,-0.6442607641220093,0.36618852615356445,3.960622549057007
83,22576,22575,-0.01655270718038082,0.003364001167938113,1.0190367698669434,4.847386360168457,-1.4217772483825684,-2.1252894401550293,1.838128685951233,3.913712501525879,0.2918923795223236,-0.5590561628341675,0.4213475286960602,3.939941883087158
84,22586,22585,0.082370825111866,-0.06914866715669632,0.9427250027656555,3.3571579456329346,-1.4428051710128784,-2.4488916397094727,1.8392233848571777,3.91400146484375,0.2941855192184448,-0.7320754528045654,0.45307090878486633,3.9081506729125977
85,22596,22595,-0.0006103406194597483,-0.002185124671086669,1.000056505203247,2.4619979858398438,-0.8332452178001404,-2.306161880493164,1.8392181396484375,3.912696361541748,0.2947794198989868,-0.7269837260246277,0.5418827533721924,3.892340660095215
86,22606,22605,-0.005534525029361248,-0.023130180314183235,0.9974251389503479,1.786543369293213,4.326595783233643,-2.2266182899475098,1.8362818956375122,3.9137942790985107,0.2953650951385498,-0.588925838470459,0.5370870232582092,3.8725805282592773
87,22616,22615,0.03108450397849083,-0.024517342448234558,0.9912756085395813,-0.3896307945251465,11.600110054016113,-2.501934289932251,1.8373632431030273,3.9150071144104004,0.2973337173461914,-0.7000101804733276,0.5883011221885681,3.851954460144043
88,22626,22625,-0.0018612425774335861,-0.016134755685925484,0.9881582856178284,-0.49527740478515625,16.49265480041504,-2.764113426208496,1.8370305299758911,3.9162838459014893,0.2979579269886017,-0.9242129921913147,0.5342698693275452,3.812601089477539
89,22636,22635,0.04177464172244072,-0.017931152135133743,0.9604856371879578,-1.8126038312911987,20.492666244506836,-2.515754461288452,1.8375180959701538,3.91715669631958,0.29853305220603943,-1.1502772569656372,0.47078394889831543,3.7739417552948
90,22646,22645,0.03716309368610382,0.008997886441648006,0.9912341237068176,-1.3899919986724854,20.52313232421875,-2.4048972129821777,1.8363405466079712,3.917058229446411,0.2991810739040375,-1.3347347974777222,0.48044806718826294,3.756423234939575
91,22656,22655,0.009211830794811249,0.08396422863006592,0.9895290732383728,-1.3599292039871216,18.30723762512207,-2.3400771617889404,1.8360800743103027,3.9171314239501953,0.30072852969169617,-1.5008083581924438,0.4917057156562805,3.7420763969421387
92,22666,22665,0.07723870128393173,0.03230905905365944,0.8790940642356873,1.00972580909729,10.132801055908203,-1.9219059944152832,1.834702491760254,3.9175477027893066,0.3013766407966614,-1.6089707612991333,0.5090116262435913,3.7319395542144775
93,22676,22675,0.025735478848218918,0.0057626692578196526,0.9543675780296326,2.208350658416748,5.465744495391846,-2.082942008972168,1.8343735933303833,3.9163405895233154,0.30194443464279175,-1.6641501188278198,0.5634739995002747,3.7252955436706543
94,22686,22685,0.025592127814888954,-0.04908863455057144,0.9304478168487549,2.874051094055176,0.2517455816268921,-2.7397654056549072,1.8351424932479858,3.917060136795044,0.30096539855003357,-1.8096601963043213,0.5477196574211121,3.687379837036133
95,22696,22695,0.017480729147791862,0.007578949443995953,1.0022239685058594,2.1533195972442627,-3.1113533973693848,-2.6408188343048096,1.8363122940063477,3.9176547527313232,0.30134475231170654,-1.7995508909225464,0.5423758029937744,3.654311180114746
96,22706,22705,-0.02464500442147255,-0.00619883555918932,0.9743472933769226,1.9715334177017212,-5.244518756866455,-2.854360818862915,1.8364900350570679,3.916635036468506,0.3017116189002991,-1.7278294563293457,0.5993738770484924,3.640531063079834
97,22716,22715,-0.08333675563335419,0.056781359016895294,0.982344388961792,1.0197049379348755,-4.894242763519287,-3.0127158164978027,1.8359501361846924,3.9184560775756836,0.3006012737751007,-1.6285499334335327,0.6428330540657043,3.6244029998779297
98,22726,22725,-0.0514679029583931,0.048113107681274414,1.0117714405059814,-0.2311343401670456,-6.940452575683594,-1.9637688398361206,1.8364144563674927,3.9185147285461426,0.3007943630218506,-1.6201356649398804,0.6612794399261475,3.59572172164917
99,22736,22735,-0.026196647435426712,-0.0064982641488313675,1.033506155014038,-2.868633985519409,0.7002871036529541,-2.2071714401245117,1.8362888097763062,3.9199318885803223,0.30102771520614624,-1.5420061349868774,0.5864698886871338,3.5600409507751465
100,22746,22745,-0.050918836146593094,-0.01919092796742916,1.0691124200820923,-3.9626340866088867,3.7947137355804443,-1.6355663537979126,1.8365012407302856,3.9203057289123535,0.30112847685813904,-1.5264660120010376,0.5607717037200928,3.5404481887817383
101,22756,22755,-0.014091572724282742,-0.04805423691868782,1.0469114780426025,-2.9724457263946533,6.073948383331299,-1.9373176097869873,1.837022066116333,3.921466112136841,0.30140194296836853,-1.5863615274429321,0.5182223916053772,3.520308017730713
102,22766,22765,-0.005008488427847624,0.0007053445442579687,1.0078321695327759,-2.5076794624328613,8.458972930908203,-2.1850380897521973,1.8376046419143677,3.9218060970306396,0.30170324444770813,-1.6725335121154785,0.4883381724357605,3.5006206035614014
103,22776,22775,0.05027496814727783,-0.01874353550374508,0.942496120929718,-1.25303316116333,5.612444877624512,-2.057248592376709,1.8369269371032715,3.922492742538452,0.3020327389240265,-1.7559056282043457,0.47270455956459045,3.4818925857543945
104,22786,22785,0.012938369065523148,0.018956810235977173,0.963222086429596,0.2837046980857849,2.315962314605713,-1.8716683387756348,1.8378736972808838,3.9220831394195557,0.3025731146335602,-1.882546067237854,0.47254955768585205,3.4586241245269775
105,22796,22795,0.006057198159396648,0.03593674674630165,0.9929271340370178,0.6264576315879822,-3.1269278526306152,-2.0748438835144043,1.8381009101867676,3.9215571880340576,0.3029007315635681,-1.8704133033752441,0.4935978353023529,3.4481658935546875
106,22806,22805,0.011232303455471992,0.036455102264881134,1.0047885179519653,0.18687595427036285,-4.308523654937744,-1.5830823183059692,1.8391778469085693,3.9217169284820557,0.30315858125686646,-1.8597935438156128,0.5132954716682434,3.4327805042266846
107,22816,22815,0.008218762464821339,-0.04859541356563568,0.9801343679428101,-0.49846959114074707,-7.3082780838012695,-1.3912568092346191,1.839287281036377,3.9218358993530273,0.30362430214881897,-1.7264721393585205,0.5269003510475159,3.4278578758239746
108,22826,22825,0.08228396624326706,-0.05210443586111069,0.950897753238678,-0.681760847568512,-6.173744201660156,-1.8158155679702759,1.8404393196105957,3.921708106994629,0.3038921058177948,-1.6967432498931885,0.5318280458450317,3.4071428775787354
109,22836,22835,0.025143938139081,-0.0013058106414973736,0.9790537357330322,-1.8049592971801758,-7.005833625793457,-2.0510776042938232,1.8416039943695068,3.9219300746917725,0.3041229844093323,-1.6653900146484375,0.5235950946807861,3.3810667991638184
110,22846,22845,0.014545610174536705,-0.009962400421500206,0.9876880645751953,-2.6332106590270996,-7.744475364685059,-2.566880226135254,1.8411234617233276,3.9209823608398438,0.3076184093952179,-1.5601718425750732,0.4935493767261505,3.3585586547851562
111,22856,22855,0.032938964664936066,-0.02985067293047905,1.0309380292892456,-3.8368005752563477,-5.994286060333252,-2.8032145500183105,1.8414407968521118,3.9204416275024414,0.3080291152000427,-1.4587137699127197,0.5204783082008362,3.3490922451019287
112,22866,22865,0.0183858759701252,0.04998531937599182,1.000386118888855,-4.181771278381348,-4.693849086761475,-2.4879088401794434,1.8425525426864624,3.920766592025757,0.3083999752998352,-1.4494516849517822,0.4549778699874878,3.3094091415405273
113,22876,22875,0.06624586135149002,-0.046731580048799515,0.9845218062400818,-4.591432094573975,-2.7036221027374268,-2.4069974422454834,1.8439183235168457,3.9202468395233154,0.30875182151794434,-1.4548734426498413,0.4553211033344269,3.2892003059387207
114,22886,22885,0.06520894914865494,-0.0821971446275711,1.030260443687439,-3.7442150115966797,-3.5459048748016357,-2.9082789421081543,1.844098687171936,3.9218759536743164,0.3078738749027252,-1.3334933519363403,0.37625837326049805,3.2630865573883057
115,22896,22895,0.054539237171411514,-0.15206974744796753,0.9192492365837097,-3.798402786254883,-4.607857704162598,-2.6661794185638428,1.8429663181304932,3.9212136268615723,0.308240681886673,-1.2012429237365723,0.4549054503440857,3.2720370292663574
116,22906,22905,0.019709795713424683,-0.07184644043445587,0.9689863920211792,-3.1861844062805176,-5.009606838226318,-2.3498682975769043,1.8449351787567139,3.9219467639923096,0.30856385827064514,-1.2082899808883667,0.38279616832733154,3.229623556137085
117,22916,22915,0.02840653993189335,-0.039689503610134125,0.974997341632843,-2.7608633041381836,-4.282303333282471,-2.6506173610687256,1.8445008993148804,3.922248125076294,0.31107088923454285,-1.0717861652374268,0.3253813683986664,3.204556703567505
118,22926,22925,0.0022578835487365723,-0.030777934938669205,1.0122612714767456,-3.5710766315460205,-3.9700584411621094,-2.8978679180145264,1.8472105264663696,3.9225857257843018,0.31134679913520813,-1.221244215965271,0.26782041788101196,3.158271074295044
119,22936,22935,0.034923575818538666,-0.0027538323774933815,1.0085581541061401,-4.915563583374023,-1.435793399810791,-2.55608868598938,1.8468626737594604,3.9237968921661377,0.3118172585964203,-1.1002365350723267,0.19221307337284088,3.129625082015991
120,22946,22945,0.0019313672091811895,0.049832865595817566,1.0213572978973389,-3.2169461250305176,-3.0312318801879883,-2.5947868824005127,1.849303960800171,3.9255993366241455,0.3086794316768646,-1.2934876680374146,0.11228882521390915,3.085819959640503
121,22956,22955,0.02355159819126129,-0.0572969913482666,0.9866561889648438,-2.2415432929992676,-3.393385410308838,-2.229006290435791,1.851385474205017,3.926476001739502,0.30880776047706604,-1.3050707578659058,0.05689917504787445,3.055117130279541
122,22966,22965,-0.026661833748221397,0.04071023315191269,0.9351344108581543,-1.0257022380828857,-6.874425888061523,-2.3442041873931885,1.850790023803711,3.92586612701416,0.30914273858070374,-1.1288456916809082,0.10666605085134506,3.051602363586426
123,22976,22975,-0.07370087504386902,0.04589039832353592,1.0285422801971436,0.5750531554222107,-12.7748384475708,-2.0926504135131836,1.8513556718826294,3.925585985183716,0.30924859642982483,-1.0581969022750854,0.09292759746313095,3.0272889137268066
124,22986,22985,-0.023411184549331665,-0.039717141538858414,1.003987193107605,1.4354149103164673,-10.919236183166504,-2.4205269813537598,1.8504852056503296,3.9254562854766846,0.3060172498226166,-0.8549043536186218,0.10276059061288834,3.0075652599334717
125,22996,22995,0.010288027115166187,-0.024192169308662415,0.9842193722724915,0.666172444820404,-10.783370018005371,-2.3512227535247803,1.8514113426208496,3.9253203868865967,0.30590176582336426,-0.8186895847320557,0.11953286826610565,2.9822046756744385
126,23006,23005,-0.01797974854707718,0.004725298844277859,1.0241694450378418,-0.040579091757535934,-9.408890724182129,-1.9740248918533325,1.853143572807312,3.925656318664551,0.30574268102645874,-0.7725862264633179,0.04607916995882988,2.9429564476013184
127,23016,23015,0.05246889591217041,-0.16009952127933502,0.9455580115318298,-1.3665918111801147,-6.319289207458496,-2.4228639602661133,1.8526198863983154,3.9249298572540283,0.3072243332862854,-0.6827393174171448,0.11183618754148483,2.9319586753845215
128,23026,23025,-0.03872557729482651,0.06985793262720108,1.097525954246521,-2.550644636154175,-2.593618631362915,-2.6696343421936035,1.8526958227157593,3.924680233001709,0.30740976333618164,-0.48328953981399536,0.07924734801054001,2.9107208251953125
129,23036,23035,-0.007738994434475899,0.004721608012914658,1.0075117349624634,-1.712536334991455,-3.8988800048828125,-2.591449499130249,1.8565257787704468,3.9262378215789795,0.30733156204223633,-0.703011155128479,0.051923319697380066,2.8785359859466553
130,23046,23045,0.0641082301735878,-0.11597415059804916,1.010642647743225,-2.795581817626953,-1.724120855331421,-1.9348126649856567,1.8562045097351074,3.9274797439575195,0.3074585199356079,-0.5307691693305969,0.01674884930253029,2.854194164276123
131,23056,23055,0.01356064435094595,-0.07389917224645615,1.0668858289718628,-3.1561434268951416,-3.4285802841186523,-1.929571509361267,1.8567068576812744,3.9269230365753174,0.3076351284980774,-0.45190033316612244,0.04335339367389679,2.84004282951355
132,23066,23065,0.003771706949919462,0.009419897571206093,0.9518505930900574,-2.0243916511535645,-2.6778066158294678,-2.02502703666687,1.8574697971343994,3.925372362136841,0.30785655975341797,-0.38230910897254944,0.0678747370839119,2.822539806365967
133,23076,23075,0.048955801874399185,0.056384261697530746,1.0333036184310913,-2.3436834812164307,-1.7819974422454834,-1.5860496759414673,1.8581665754318237,3.925352096557617,0.3094646632671356,-0.3024897873401642,-0.049563709646463394,2.79901123046875
134,23086,23085,0.09179256111383438,-0.0067345513962209225,0.9522891640663147,-1.8309836387634277,-5.721776485443115,-1.7288684844970703,1.8593782186508179,3.926032543182373,0.3097124397754669,-0.28447985649108887,-0.08345871418714523,2.7805423736572266
135,23096,23095,0.09868929535150528,-0.07101010531187057,0.9854744076728821,-1.645637035369873,-5.27954626083374,-2.0473015308380127,1.8600926399230957,3.926164150238037,0.3099440038204193,-0.25069406628608704,-0.11438716948032379,2.7577481269836426
136,23106,23105,-0.004949094261974096,-0.028861360624432564,0.9911577105522156,-0.3839103579521179,-4.803992748260498,-1.9376980066299438,1.8621736764907837,3.9263100624084473,0.3100518584251404,-0.3675183057785034,-0.13356493413448334,2.7385802268981934
137,23116,23115,-0.004085661843419075,-0.02468377910554409,0.9968729615211487,0.7672013640403748,-4.731955051422119,-1.9810551404953003,1.8642932176589966,3.9265034198760986,0.30990609526634216,-0.32091978192329407,-0.13232022523880005,2.718777894973755
138,23126,23125,-0.01821989193558693,-0.023314809426665306,0.9829739928245544,2.048441171646118,-5.608445644378662,-2.043631076812744,1.8637518882751465,3.924222230911255,0.31027621030807495,-0.09159644693136215,0.05159977450966835,2.698242664337158
139,23136,23135,0.00016832035908009857,-0.00516327191144228,0.9743561744689941,1.5860708951950073,-5.479570388793945,-1.9105579853057861,1.8643351793289185,3.9250175952911377,0.3104840815067291,-0.04629936441779137,0.06706969439983368,2.67819881439209
140,23146,23145,0.03694348782300949,-0.003126287367194891,0.9953269362449646,-0.7564092874526978,-3.9490363597869873,-1.9491817951202393,1.8661595582962036,3.9268014430999756,0.30970489978790283,-0.16180168092250824,-0.01446320116519928,2.66782283782959
141,23156,23155,-0.01170184276998043,-0.029586665332317352,0.9854919910430908,-2.160262107849121,-4.0676116943359375,-2.0972886085510254,1.8656206130981445,3.9275763034820557,0.30999016761779785,0.03051644004881382,-0.040490929037332535,2.644270420074463
142,23166,23165,0.016807110980153084,-0.04178066924214363,0.9746661186218262,-2.8272604942321777,-3.0450594425201416,-1.8425142765045166,1.8683165311813354,3.9268858432769775,0.310100257396698,0.040831536054611206,-0.08413663506507874,2.6176984310150146
143,23176,23175,0.040289875119924545,-0.020689217373728752,0.9643853306770325,-3.0540666580200195,-2.845407485961914,-1.883872151374817,1.8704524040222168,3.926326036453247,0.31355175375938416,0.041865646839141846,-0.13443589210510254,2.5942282676696777
144,23186,23185,-0.020694563165307045,0.11990414559841156,1.0030252933502197,-2.76265549659729,-1.6746101379394531,-2.018737316131592,1.871761679649353,3.926152229309082,0.3137661814689636,0.0076261707581579685,-0.19219663739204407,2.5733253955841064
145,23196,23195,0.03101525641977787,-0.03444022312760353,0.9315787553787231,-1.0790525674819946,-2.019986152648926,-2.3991129398345947,1.8715800046920776,3.926276683807373,0.31409984827041626,0.15588703751564026,-0.22389742732048035,2.5488810539245605
146,23206,23205,-0.019786439836025238,0.027473386377096176,1.0378721952438354,1.4949824810028076,-2.204474925994873,-2.6006622314453125,1.8741109371185303,3.926187515258789,0.3142213821411133,0.0694311186671257,-0.21891681849956512,2.526797294616699
147,23216,23215,0.012932661920785904,-0.007278100587427616,0.9915446043014526,3.5660276412963867,-2.7475759983062744,-2.672698974609375,1.8739402294158936,3.925980567932129,0.31517767906188965,0.22137044370174408,-0.17308136820793152,2.493995428085327
148,23226,23225,0.017951879650354385,0.002478588605299592,0.989264190196991,4.707347393035889,-3.031182289123535,-2.5963830947875977,1.8740901947021484,3.9260149002075195,0.3154846131801605,0.3612986207008362,-0.10227246582508087,2.462585687637329
149,23236,23235,0.014756320044398308,0.01466385181993246,1.015220284461975,3.9446187019348145,-1.9082610607147217,-2.8917882442474365,1.8754088878631592,3.9267032146453857,0.3157286047935486,0.33116766810417175,-0.02884167991578579,2.441070318222046
150,23246,23245,-0.0021663957741111517,0.04867386817932129,0.9800552725791931,2.9257519245147705,0.7917267680168152,-3.183212995529175,1.8767117261886597,3.9278509616851807,0.3188646733760834,0.2554848790168762,-0.05886770412325859,2.4236063957214355
151,23256,23255,0.01709057204425335,-0.0034589176066219807,0.9885713458061218,1.7375173568725586,2.7823221683502197,-3.3073267936706543,1.8787479400634766,3.92932391166687,0.319223552942276,0.1719796061515808,-0.014497471041977406,2.3952646255493164
152,23266,23265,0.04198222979903221,-0.007625756785273552,0.959239661693573,-0.34968677163124084,4.056642055511475,-2.8966612815856934,1.8790253400802612,3.9283106327056885,0.3196884095668793,0.22376514971256256,0.0037090806290507317,2.351562023162842
153,23276,23275,0.020888393744826317,0.04148657247424126,1.0271297693252563,-1.204508662223816,1.2765796184539795,-2.6209425926208496,1.8790477514266968,3.928370952606201,0.31603026390075684,0.2756100594997406,-0.008064363151788712,2.321916341781616
154,23286,23285,0.01831802725791931,-0.02929915301501751,0.9311721920967102,-1.972062349319458,0.3511025309562683,-2.857769250869751,1.8790919780731201,3.9285149574279785,0.3161569833755493,0.34313246607780457,-0.03743893653154373,2.293534278869629
155,23296,23295,0.024595685303211212,-0.015605993568897247,0.9830504059791565,-1.3233362436294556,0.27308520674705505,-3.25370717048645,1.8823293447494507,3.928793430328369,0.316109836101532,0.10210849344730377,-0.06731408834457397,2.27204966545105
156,23306,23305,-0.008952871896326542,0.0059033348225057125,0.9865289926528931,-0.6833158731460571,2.2116777896881104,-3.1940948963165283,1.8827104568481445,3.9296607971191406,0.31626638770103455,0.17840592563152313,-0.08040713518857956,2.244719982147217
157,23316,23315,-0.15435776114463806,0.120560422539711,1.0146299600601196,1.2397581338882446,-1.5042403936386108,-3.185565233230591,1.8823862075805664,3.929489850997925,0.31591448187828064,0.2763808071613312,-0.06333671510219574,2.207136392593384
158,23326,23325,-0.1109047681093216,0.17719367146492004,0.9743956923484802,1.0893644094467163,2.1915998458862305,-2.7083656787872314,1.8832634687423706,3.9291417598724365,0.3159184455871582,0.17892687022686005,-0.034543104469776154,2.1779427528381348
159,23336,23335,-0.005484442226588726,0.05906740203499794,0.9458929896354675,2.2449100017547607,2.0825765132904053,-2.389282464981079,1.8837305307388306,3.9306657314300537,0.3160448372364044,0.2359411120414734,-0.002984442748129368,2.1565072536468506
160,23346,23345,0.09711578488349915,-0.008776533417403698,0.9719005823135376,2.163198232650757,4.674476146697998,-2.248535633087158,1.8846633434295654,3.9310295581817627,0.3156346380710602,0.14737221598625183,-0.030744854360818863,2.1408534049987793
161,23356,23355,0.08633822947740555,0.015946879982948303,0.9752366542816162,2.4779767990112305,2.4178876876831055,-2.303910255432129,1.8846813440322876,3.9312984943389893,0.31564563512802124,0.19581273198127747,0.02003791555762291,2.1117420196533203
162,23366,23365,0.0981956273317337,-0.0620344877243042,0.9754673838615417,0.6205973029136658,4.972959995269775,-2.577301502227783,1.8859100341796875,3.931626558303833,0.3155665099620819,0.16441744565963745,0.05681200325489044,2.0939338207244873
163,23376,23375,0.0303573589771986,-0.012270796112716198,1.026955246925354,-0.12646664679050446,2.002131462097168,-2.729728937149048,1.8866559267044067,3.932265043258667,0.31143689155578613,0.13413448631763458,-0.005882302764803171,2.066396951675415
164,23386,23385,0.028541121631860733,-0.05251271650195122,0.9507455825805664,-1.2664717435836792,1.7465052604675293,-2.8555943965911865,1.8868290185928345,3.931368350982666,0.3111363649368286,0.1899312436580658,-0.00690465047955513,2.037548542022705
165,23396,23395,-0.01652715727686882,0.016964830458164215,1.0392625331878662,-0.6454921960830688,2.4546546936035156,-3.136589288711548,1.8884252309799194,3.9306445121765137,0.3107839822769165,0.15504629909992218,-0.01307015959173441,1.9988502264022827
166,23406,23405,-0.001678024185821414,0.012457613833248615,0.9992146492004395,1.1042871475219727,2.0280284881591797,-3.5702099800109863,1.8891222476959229,3.929943561553955,0.31203126907348633,0.10859910398721695,0.07222432643175125,1.957411766052246
167,23416,23415,-0.022078057751059532,0.020369529724121094,0.9720005393028259,0.872079610824585,3.2635490894317627,-2.0533316135406494,1.8897311687469482,3.93033504486084,0.3118171691894531,0.14320750534534454,0.09184882789850235,1.9209986925125122
168,23426,23425,0.01705341972410679,0.027315817773342133,1.029074788093567,-0.03267217427492142,4.642615795135498,-2.1494343280792236,1.8902077674865723,3.9308295249938965,0.3115830719470978,0.1397658884525299,0.09473508596420288,1.8980785608291626
169,23436,23435,0.015223342925310135,-0.0306492131203413,0.9815263152122498,-0.42214736342430115,4.244231224060059,-2.1302759647369385,1.8916996717453003,3.9310462474823,0.31125009059906006,-0.015672054141759872,0.013051733374595642,1.8815573453903198
170,23446,23445,0.04170636460185051,0.00870056077837944,1.0114836692810059,-0.8172724843025208,7.453007698059082,-2.1888985633850098,1.8920663595199585,3.9313619136810303,0.31093087792396545,-0.02028639242053032,0.010534306056797504,1.8609178066253662
171,23456,23455,0.07090508192777634,-0.005699714180082083,0.9792187809944153,0.38447946310043335,3.419179677963257,-2.010319232940674,1.8915607929229736,3.931260108947754,0.3107205033302307,-0.02757544256746769,0.015873469412326813,1.8376429080963135
172,23466,23465,-0.01641600951552391,0.05410782992839813,1.0219533443450928,2.572706699371338,2.2925291061401367,-2.3279035091400146,1.8932751417160034,3.9312775135040283,0.3103637397289276,-0.17042280733585358,0.03706413507461548,1.8185824155807495
173,23476,23475,-0.06888145208358765,0.13539420068264008,0.9912546277046204,1.9389631748199463,4.643348693847656,-2.213045120239258,1.8934645652770996,3.930647134780884,0.3103235065937042,-0.14575423300266266,0.08092385530471802,1.7948304414749146
174,23486,23485,-0.011152704246342182,0.040697842836380005,0.9738067388534546,1.190949559211731,2.5649118423461914,-1.4334992170333862,1.893160343170166,3.931885242462158,0.310367226600647,-0.11911202222108841,0.03199049457907677,1.7899528741836548
175,23496,23495,-0.02245548740029335,0.1102512776851654,1.0315147638320923,0.2655912935733795,2.402059316635132,-1.8234097957611084,1.8943506479263306,3.9321532249450684,0.3100779950618744,-0.25041162967681885,0.049164365977048874,1.7720009088516235
176,23506,23505,0.018509823828935623,-0.03923125937581062,1.0017825365066528,1.1269810199737549,2.78686261177063,-1.5946063995361328,1.895588755607605,3.93369197845459,0.31044575572013855,-0.3644900619983673,0.0643213763833046,1.7762651443481445
177,23516,23515,-0.0241091251373291,-0.03404625132679939,1.023497462272644,2.28092360496521,0.611892580986023,-1.5319563150405884,1.8955726623535156,3.933365821838379,0.3103058934211731,-0.30065464973449707,0.10332653671503067,1.757720708847046
178,23526,23525,0.028380827978253365,0.03518335893750191,1.0550358295440674,1.6796752214431763,-0.40845614671707153,-1.3636410236358643,1.896249532699585,3.934887647628784,0.31012609601020813,-0.30001404881477356,-0.013400588184595108,1.7532356977462769
179,23536,23535,0.02312910184264183,-0.034716203808784485,1.0308935642242432,1.6699222326278687,-1.2812024354934692,-1.3316537141799927,1.895721197128296,3.9343016147613525,0.3100590705871582,-0.2010604739189148,0.038136593997478485,1.7373788356781006
180,23546,23545,-0.0026306775398552418,-0.16127726435661316,1.0143696069717407,1.5534371137619019,-1.5824329853057861,-1.7003004550933838,1.898188591003418,3.9346683025360107,0.3112773001194,-0.3284434974193573,0.0721576064825058,1.7250697612762451
181,23556,23555,-0.03186795115470886,-0.0598507821559906,1.07444429397583,3.4217982292175293,-0.755652129650116,-1.8133498430252075,1.898364543914795,3.9343724250793457,0.31137368083000183,-0.21763364970684052,0.20342044532299042,1.7088005542755127
182,23566,23565,0.009774014353752136,-0.04396573826670647,0.9945439696311951,3.0824790000915527,0.2717270851135254,-1.6676105260849,1.8987953662872314,3.9347174167633057,0.31143051385879517,-0.21659600734710693,0.1886337399482727,1.6911628246307373
183,23576,23575,-0.03593700751662254,-0.005234528798609972,1.0291552543640137,1.4909800291061401,0.4088226854801178,-2.143233299255371,1.8995944261550903,3.9359240531921387,0.3129981756210327,-0.2682360112667084,0.08974285423755646,1.6775312423706055
184,23586,23585,0.020389080047607422,-0.004464192781597376,0.9947291016578674,-0.616550624370575,1.587990403175354,-2.0684704780578613,1.9002705812454224,3.936171770095825,0.3132666349411011,-0.2058858424425125,0.18821516633033752,1.6633187532424927
185,23596,23595,0.014717411249876022,-0.004922895226627588,1.0222070217132568,-1.301129937171936,1.3833470344543457,-2.0198304653167725,1.9004546403884888,3.936004400253296,0.3134785592556,-0.2333073765039444,0.18427465856075287,1.6422533988952637
186,23606,23605,-0.014430920593440533,0.050064120441675186,1.0088636875152588,-0.6697739958763123,1.3482003211975098,-2.2295432090759277,1.9010875225067139,3.937467098236084,0.3137921392917633,-0.24430224299430847,0.17280937731266022,1.6414299011230469
187,23616,23615,-0.023041540756821632,0.0177888423204422,1.0233060121536255,0.43901360034942627,-0.1118970438838005,-2.722667932510376,1.9023197889328003,3.937880516052246,0.3140603005886078,-0.25702357292175293,0.18164949119091034,1.6261407136917114
188,23626,23625,-0.028087805956602097,0.0015539006562903523,1.0088231563568115,0.7525676488876343,0.22636626660823822,-2.0107815265655518,1.903925895690918,3.937955856323242,0.3146357536315918,-0.255277544260025,0.198884055018425,1.6018073558807373
189,23636,23635,-0.01857384480535984,-0.002232873812317848,1.0096222162246704,1.3591654300689697,-0.6467517614364624,-2.664639472961426,1.9036331176757812,3.9372663497924805,0.31464284658432007,-0.2471393346786499,0.2218197137117386,1.57119882106781
190,23646,23645,-0.026009634137153625,-0.04199958220124245,0.9647653102874756,1.2364169359207153,-1.839919090270996,-1.7371301651000977,1.9043227434158325,3.9372198581695557,0.3142717480659485,-0.2163534164428711,0.24831725656986237,1.5440059900283813
191,23656,23655,-0.04937642812728882,-0.028814397752285004,1.091902256011963,0.6159278750419617,-4.18457555770874,-2.1810731887817383,1.9058595895767212,3.9370458126068115,0.31458860635757446,-0.2090330868959427,0.25082486867904663,1.5434650182724
192,23666,23665,-0.004251385573297739,-0.0685158520936966,0.975767970085144,-2.4329171180725098,4.184831142425537,-2.6621193885803223,1.907300353050232,3.936492919921875,0.31482550501823425,-0.26124680042266846,0.24917647242546082,1.5104954242706299
193,23676,23675,0.01440037414431572,-0.03964075818657875,0.9795889854431152,-1.9981739521026611,3.190419912338257,-2.014089584350586,1.908777117729187,3.938925266265869,0.3154010474681854,-0.34919124841690063,0.15160425007343292,1.5064245462417603
194,23686,23685,0.002717845141887665,-0.055755533277988434,1.0075453519821167,-1.062381386756897,0.5621970891952515,-2.6972172260284424,1.909503698348999,3.9390296936035156,0.3157218098640442,-0.36280685663223267,0.13705502450466156,1.4858806133270264
195,23696,23695,0.001422420027665794,-0.07669860124588013,1.0021981000900269,-0.07378539443016052,-2.438417434692383,-1.722624659538269,1.910138487815857,3.9381327629089355,0.31603163480758667,-0.3540404736995697,0.1323060691356659,1.4474576711654663
196,23706,23705,0.030730154365301132,-0.10364463925361633,0.9631853699684143,0.6676234006881714,-3.1919138431549072,-2.5447850227355957,1.9110443592071533,3.9399631023406982,0.31592974066734314,-0.3143523633480072,0.13710951805114746,1.4535237550735474
197,23716,23715,-0.0026695614214986563,0.040119003504514694,1.0240192413330078,2.062107563018799,-2.7458951473236084,-2.961080312728882,1.9110853672027588,3.9391872882843018,0.31630024313926697,-0.18381501734256744,0.15662769973278046,1.4215916395187378
198,23726,23725,-0.0033063655719161034,0.0031567984260618687,0.9754411578178406,2.6767890453338623,-2.4993112087249756,-2.930342674255371,1.9123622179031372,3.9383249282836914,0.31660905480384827,-0.13689741492271423,0.2694843113422394,1.3935497999191284
199,23736,23735,0.04360388219356537,-0.030712399631738663,0.9648877382278442,1.5151729583740234,4.144349098205566,-2.6273305416107178,1.9155066013336182,3.938599109649658,0.3162335753440857,-0.2542458176612854,0.30882638692855835,1.3644553422927856
200,23746,23745,0.09280655533075333,-0.04883892089128494,0.9576544165611267,1.1245226860046387,-0.2536037564277649,-2.731349229812622,1.9154515266418457,3.9394845962524414,0.31654393672943115,-0.17334792017936707,0.2619739770889282,1.3460711240768433
201,23756,23755,0.05693196505308151,-0.04031655192375183,0.9761905670166016,-1.0830297470092773,0.28061991930007935,-2.5183703899383545,1.9170769453048706,3.9399046897888184,0.31667304039001465,-0.32928645610809326,0.2744144797325134,1.3270983695983887
202,23766,23765,0.01742403209209442,0.0663800984621048,1.0197861194610596,-3.5513861179351807,0.9432641267776489,-2.749591588973999,1.91654372215271,3.9396419525146484,0.3169383406639099,-0.23211118578910828,0.2521083950996399,1.298932433128357
203,23776,23775,0.033358052372932434,0.06242123991250992,0.9141653180122375,-4.336322784423828,-0.362833172082901,-2.4626505374908447,1.916683554649353,3.9402761459350586,0.320258229970932,-0.14379002153873444,0.1990671306848526,1.281273603439331
204,23786,23785,0.075478196144104,0.10161978006362915,0.8985326886177063,-3.3070590496063232,-0.9958124756813049,-2.466273069381714,1.918305516242981,3.9396510124206543,0.32045578956604004,-0.2882278859615326,0.13511918485164642,1.248212456703186
205,23796,23795,-0.020166965201497078,0.034763626754283905,1.0173354148864746,-1.2093077898025513,-1.1302838325500488,-2.102721691131592,1.919382929801941,3.939272880554199,0.3206716775894165,-0.33317434787750244,0.16408565640449524,1.2211414575576782
206,23806,23805,0.10894420742988586,-0.047278549522161484,0.9524328708648682,-1.1343576908111572,0.7153401970863342,-2.1275269985198975,1.9200193881988525,3.9391820430755615,0.3222848176956177,-0.27602913975715637,0.1406889259815216,1.193183422088623
207,23816,23815,0.09743138402700424,-0.01534272637218237,0.9522690176963806,1.7588412761688232,-8.055965423583984,-1.8138768672943115,1.9205220937728882,3.9381303787231445,0.32254350185394287,-0.22778797149658203,0.13589873909950256,1.1550133228302002
208,23826,23825,-0.006107067223638296,0.0858585387468338,0.9951140880584717,1.1703126430511475,-7.912702560424805,-1.9290496110916138,1.9213794469833374,3.938192367553711,0.32275304198265076,-0.14946670830249786,0.15899688005447388,1.1151978969573975
209,23836,23835,-0.02786693349480629,0.138951376080513,1.0398389101028442,0.08853141963481903,-5.306158065795898,-2.1265411376953125,1.9211033582687378,3.9372923374176025,0.3200817108154297,0.037020862102508545,0.15944606065750122,1.0799301862716675
210,23846,23845,-0.017190515995025635,0.058857448399066925,0.9865859150886536,-1.0660700798034668,-2.681140184402466,-1.7544984817504883,1.922296166419983,3.9379189014434814,0.3200649321079254,0.031199496239423752,0.07167021930217743,1.0598770380020142
211,23856,23855,0.050826139748096466,-0.022898921743035316,0.917497456073761,-0.8827143907546997,-1.6535580158233643,-2.24989914894104,1.9232617616653442,3.9382214546203613,0.32009029388427734,0.060429926961660385,0.05510581657290459,1.0472452640533447
212,23866,23865,0.013378417119383812,-0.049614839255809784,0.953698992729187,-1.135600209236145,2.5641403198242188,-1.945258617401123,1.9248244762420654,3.9383487701416016,0.32001158595085144,-0.020478783175349236,0.04033545032143593,1.0252383947372437
213,23876,23875,0.01797272264957428,-0.028505725786089897,0.9730733036994934,-0.5824341773986816,3.877107858657837,-2.026529550552368,1.9254063367843628,3.9392192363739014,0.32035553455352783,0.021065082401037216,0.03244596719741821,1.020616888999939
214,23886,23885,-0.028770409524440765,0.07811330258846283,1.0234336853027344,-1.2882919311523438,6.042907238006592,-2.5529229640960693,1.9253695011138916,3.939664602279663,0.32025429606437683,0.007992412894964218,0.11125890910625458,1.0470504760742188
215,23896,23895,-0.047788091003894806,0.09808722883462906,0.9902202486991882,0.33168235421180725,2.8744006156921387,-2.3376104831695557,1.927890419960022,3.940056562423706,0.3200157582759857,-0.23696446418762207,0.10143274813890457,1.0071325302124023
216,23906,23905,0.034408632665872574,-0.01687830500304699,0.957367479801178,0.49363771080970764,0.9392434358596802,-2.312145709991455,1.9283140897750854,3.940058469772339,0.3213449716567993,-0.1570763736963272,0.11081663519144058,0.9836082458496094
217,23916,23915,0.02431660331785679,0.04741453006863594,0.9982346892356873,1.302690029144287,-1.540173053741455,-2.128819227218628,1.9283041954040527,3.939948797225952,0.3213493824005127,-0.06424146145582199,0.11285075545310974,0.9840882420539856
218,23926,23925,0.03470476344227791,-0.004687447566539049,0.9779273867607117,2.4666008949279785,-5.823655128479004,-2.080531358718872,1.9296104907989502,3.9398443698883057,0.3212380111217499,-0.07291007786989212,0.15131157636642456,0.9405573606491089
219,23936,23935,-0.011382609605789185,0.056848421692848206,1.0452983379364014,0.8474902510643005,-4.75046443939209,-1.3889962434768677,1.9294673204421997,3.939180850982666,0.3213914930820465,-0.10836190730333328,0.15293797850608826,0.9340707063674927
220,23946,23945,0.006472097244113684,0.07510464638471603,0.9959707856178284,-1.1968104839324951,-3.1555376052856445,-1.0088114738464355,1.9300296306610107,3.939225196838379,0.32133373618125916,-0.01828395016491413,0.15745720267295837,0.9177393913269043
221,23956,23955,-0.001645740121603012,-0.025381149724125862,1.0227162837982178,-2.517714262008667,-2.0240323543548584,-0.6658031940460205,1.9293949604034424,3.93884539604187,0.32133549451828003,0.12705546617507935,0.1344691514968872,0.9060290455818176
222,23966,23965,0.018963435664772987,-0.05183567479252815,0.9651315212249756,-4.084037780761719,2.385422706604004,-1.6587464809417725,1.9301462173461914,3.9388978481292725,0.32128411531448364,0.08568645268678665,0.09115203469991684,0.8907973766326904
223,23976,23975,0.03193163126707077,0.04013793170452118,0.9315758347511292,-2.775970458984375,1.7028013467788696,-0.7990274429321289,1.9309444427490234,3.939117193222046,0.31908443570137024,0.08556979894638062,0.036811016499996185,0.8779460787773132
224,23986,23985,0.048421818763017654,0.010854133404791355,0.9681665897369385,-1.6018266677856445,3.3514721393585205,-1.3329036235809326,1.9322494268417358,3.93933367729187,0.3188629448413849,0.05112516134977341,-0.006545056123286486,0.865831196308136
225,23996,23995,0.16114984452724457,-0.020378535613417625,0.8885011076927185,-1.6086456775665283,9.766983032226562,-0.9173484444618225,1.9337626695632935,3.9386415481567383,0.31860974431037903,-0.009978306479752064,0.1257050335407257,0.8648945093154907
226,24006,24005,0.08611788600683212,-0.015051552094519138,0.9838494062423706,1.4080842733383179,3.3894639015197754,-1.080133318901062,1.9346749782562256,3.9376113414764404,0.3192620575428009,-0.017729245126247406,0.10482213646173477,0.8329758644104004
227,24016,24015,0.049382247030735016,-0.1073940172791481,0.9804975390434265,1.8208307027816772,2.223142147064209,-0.5450565814971924,1.9365003108978271,3.937671422958374,0.3188440203666687,-0.14618481695652008,0.11121298372745514,0.8078286647796631
228,24026,24025,0.008597590029239655,-0.041592612862586975,1.0672284364700317,0.3299359679222107,0.4884985685348511,-0.6015792489051819,1.9370490312576294,3.937387466430664,0.318543016910553,-0.0804315060377121,0.1200951412320137,0.8136395215988159
229,24036,24035,0.052606482058763504,-0.08034633845090866,0.9604228138923645,-1.9437705278396606,-2.097545862197876,-0.4054691195487976,1.9383527040481567,3.936495780944824,0.3193950951099396,-0.15347284078598022,0.1107160821557045,0.7835199236869812
230,24046,24045,0.04209950566291809,-0.06325064599514008,0.9649832248687744,-2.916980504989624,-0.6869947910308838,-0.7244808673858643,1.9394876956939697,3.9367971420288086,0.31912940740585327,-0.12249094992876053,0.07377710193395615,0.7877739667892456
231,24056,24055,-0.020919498056173325,0.03109741024672985,1.0513179302215576,-3.2529733180999756,0.015609645284712315,-0.9449123740196228,1.9402546882629395,3.936859369277954,0.31891974806785583,-0.017667759209871292,0.019140351563692093,0.7814821004867554
232,24066,24065,-0.05896592140197754,-0.05653456598520279,1.021449327468872,-2.5310370922088623,-1.5811094045639038,-1.3149710893630981,1.9421539306640625,3.9375991821289062,0.3190161883831024,-0.13828152418136597,-0.0362839549779892,0.785532534122467
233,24076,24075,-0.09226620942354202,-0.025594381615519524,1.0417639017105103,-2.7764532566070557,0.7473918795585632,-0.7097610235214233,1.942637324333191,3.9369101524353027,0.31882810592651367,-0.02513302117586136,-0.010846151039004326,0.7673226594924927
234,24086,24085,0.01598563976585865,-0.09241020679473877,1.0011248588562012,-1.4276111125946045,1.5046021938323975,-1.3060109615325928,1.9441502094268799,3.9376397132873535,0.3185586929321289,-0.113944411277771,-0.13508446514606476,0.7585089802742004
235,24096,24095,0.03736249729990959,-0.008589902892708778,0.9995167851448059,-0.5763803720474243,-0.8552685379981995,-1.520828366279602,1.9445163011550903,3.9375317096710205,0.3184715509414673,-0.05471746250987053,-0.08188585937023163,0.757037341594696
236,24106,24105,-0.0041075656190514565,0.13075995445251465,1.050353765487671,0.6837498545646667,-0.33203360438346863,-1.450913429260254,1.94407320022583,3.9379796981811523,0.31650543212890625,0.02106492593884468,-0.09484387189149857,0.7550394535064697
237,24116,24115,0.02448505535721779,0.05392885580658913,0.9824601411819458,1.4315078258514404,0.7550303339958191,-1.311000108718872,1.9445534944534302,3.937389612197876,0.3162406384944916,0.016734356060624123,-0.07058534026145935,0.6921616196632385
238,24126,24125,0.044046755880117416,0.08487480133771896,1.0096049308776855,2.206207513809204,2.2794690132141113,-1.147324800491333,1.9470467567443848,3.9363486766815186,0.3159025013446808,-0.1489306092262268,-0.06614789366722107,0.6944636106491089
239,24136,24135,0.03201249614357948,0.03443824127316475,1.006266474723816,1.558903455734253,3.816188097000122,-1.5729484558105469,1.9478503465652466,3.9355921745300293,0.3161827325820923,-0.09263084083795547,-0.04020305350422859,0.6635395288467407
