,timestamp_start,timestamp_end,acc.x,acc.y,acc.z,gyro.x,gyro.y,gyro.z,stateEstimate.x,stateEstimate.y,stateEstimate.z,stabilizer.pitch,stabilizer.roll,stabilizer.yaw
0,61963,61960,0.016715602949261665,-0.12746888399124146,1.0697221755981445,17.209983825683594,-17.404436111450195,2.7428016662597656,1.9269320964813232,4.01018762588501,0.1688818484544754,-1.5208728313446045,-0.29912441968917847,2.9770915508270264
1,61973,61970,0.04169072210788727,0.013746499083936214,1.037420392036438,17.934246063232422,-22.099687576293945,2.5590016841888428,1.9273130893707275,4.009806156158447,0.1728343814611435,-1.1369842290878296,0.09815794229507446,3.0627737045288086
2,61983,61980,0.018429437652230263,0.08451524376869202,1.0126510858535767,17.24407386779785,-25.2393798828125,2.326246738433838,1.927264928817749,4.00861120223999,0.17738325893878937,-0.6981847286224365,0.4730721712112427,3.1377463340759277
3,61993,61990,-0.006892083212733269,0.008374183438718319,1.0201561450958252,13.906601905822754,-30.481550216674805,1.2625313997268677,1.9275646209716797,4.009617805480957,0.17992860078811646,-0.2902834117412567,0.6429023146629333,3.159496784210205
4,62003,62000,-0.08219292014837265,-0.012115340679883957,1.0639243125915527,4.907626152038574,-23.402523040771484,1.2242680788040161,1.9265471696853638,4.009644031524658,0.18231143057346344,0.14799091219902039,0.8561159372329712,3.201153516769409
5,62013,62010,-0.025913093239068985,-0.024048568680882454,1.0485109090805054,-3.0021982192993164,-15.60701847076416,1.1101208925247192,1.9271149635314941,4.009279251098633,0.18764033913612366,0.44524678587913513,0.9105882048606873,3.2233920097351074
6,62023,62020,0.008846950717270374,-0.1303350329399109,0.9980086088180542,-11.248830795288086,-4.110723495483398,0.5322825312614441,1.9265711307525635,4.00952672958374,0.19020599126815796,0.6529081463813782,0.8295368552207947,3.2353031635284424
7,62033,62030,-0.027477853000164032,-0.0495799221098423,1.0201693773269653,-14.5391263961792,2.7455203533172607,0.23237812519073486,1.9278342723846436,4.007053852081299,0.19295760989189148,0.474077969789505,1.0512455701828003,3.257683753967285
8,62043,62040,-0.030579550191760063,-0.0179348886013031,0.9878732562065125,-16.413541793823242,7.603327751159668,0.6888192892074585,1.9219448566436768,4.007946968078613,0.19547973573207855,1.3108649253845215,0.7534824013710022,3.3604788780212402
9,62053,62050,-0.04085642471909523,0.025296559557318687,1.0331311225891113,-16.655813217163086,18.071651458740234,0.11863471567630768,1.9222548007965088,4.012779235839844,0.2019576132297516,1.0124489068984985,-0.16065986454486847,3.317387342453003
10,62063,62060,0.025230323895812035,-0.00391544820740819,0.983752965927124,-9.4218111038208,23.127811431884766,0.4860082268714905,1.9230812788009644,4.006173133850098,0.20822130143642426,0.662281334400177,0.7066574096679688,3.311225175857544
11,62073,62070,0.007878486067056656,-0.006270397920161486,1.0010511875152588,-3.906954765319824,23.920551300048828,-0.040024448186159134,1.9178950786590576,4.004629135131836,0.20979870855808258,1.1155943870544434,0.74409019947052,3.399888515472412
12,62083,62080,-0.01836300455033779,-0.09537757188081741,0.9556973576545715,-4.1784892082214355,26.240577697753906,-0.6554874777793884,1.9183690547943115,4.00474739074707,0.2119932323694229,0.625202476978302,0.6095209717750549,3.3737523555755615
13,62093,62090,0.011606436222791672,-0.014774451032280922,0.972801685333252,-8.520723342895508,27.88271713256836,-0.5070910453796387,1.917418360710144,4.006568431854248,0.21539857983589172,0.20768272876739502,0.5285006761550903,3.35019588470459
14,62103,62100,0.08864165097475052,-0.04137152060866356,0.9860469698905945,-10.58137035369873,18.895580291748047,-0.8875881433486938,1.915321946144104,4.004530429840088,0.21835704147815704,-0.08310062438249588,0.5225121974945068,3.3285906314849854
15,62113,62110,0.02819638140499592,-0.05792089179158211,0.9588761925697327,-12.9979248046875,11.945509910583496,-1.28437077999115,1.9135196208953857,4.0049591064453125,0.22057755291461945,-0.1150955930352211,0.24942491948604584,3.340367078781128
16,62123,62120,-0.014967333525419235,-0.07179329544305801,0.9724318981170654,-15.263171195983887,6.496829509735107,-2.2131590843200684,1.9130338430404663,4.00508975982666,0.22354498505592346,-0.2880919575691223,0.01754852756857872,3.319025754928589
17,62133,62130,-0.07185252755880356,-0.01391841471195221,0.9837008714675903,-15.049565315246582,8.226808547973633,-2.290776014328003,1.9123080968856812,4.0036540031433105,0.22637934982776642,-0.39505118131637573,-0.00760565884411335,3.2910683155059814
18,62143,62140,-0.025010505691170692,-0.016814550384879112,0.9350237846374512,-11.986688613891602,5.971867084503174,-2.106307029724121,1.9107584953308105,4.003879547119141,0.2272873967885971,-0.5484077334403992,-0.2962188124656677,3.2610151767730713
19,62153,62150,-0.020831985399127007,0.012117748148739338,0.9134979248046875,-7.937158584594727,4.775448799133301,-2.0802245140075684,1.9104796648025513,4.00442361831665,0.22993376851081848,-0.6658944487571716,-0.5123549699783325,3.2336056232452393
20,62163,62160,-0.03230037912726402,0.08296382427215576,0.8534944653511047,-4.276398658752441,5.341279029846191,-2.250840425491333,1.9106134176254272,4.002475738525391,0.23264604806900024,-0.8335193395614624,-0.3649274408817291,3.209852457046509
21,62173,62170,0.01002565585076809,0.046232353895902634,0.8500347137451172,1.1099114418029785,1.7943038940429688,-2.064331293106079,1.9106009006500244,4.003541469573975,0.2353832870721817,-0.9276782870292664,-0.5096492767333984,3.1973092555999756
22,62183,62180,0.007131878286600113,0.01346541102975607,0.9463257789611816,1.5952519178390503,5.5658416748046875,-2.0016722679138184,1.9097423553466797,4.002870082855225,0.2355443239212036,-0.8794980645179749,-0.47399264574050903,3.182126760482788
23,62193,62190,-0.047249116003513336,0.06282881647348404,0.9705678224563599,3.5511159896850586,-2.3148670196533203,-2.140228271484375,1.905742883682251,4.0013651847839355,0.23776564002037048,-0.4812735617160797,-0.4520164430141449,3.1512157917022705
24,62203,62200,0.020340286195278168,-0.04710628464818001,0.8918192982673645,0.9408705234527588,2.948707103729248,-2.3184871673583984,1.9041939973831177,4.001822471618652,0.23975513875484467,-0.43559974431991577,-0.4494023621082306,3.1278834342956543
25,62213,62210,0.02263420633971691,-0.13242825865745544,0.9131531119346619,-1.2135443687438965,4.519365310668945,-2.4657163619995117,1.9045538902282715,4.001922607421875,0.2405816912651062,-0.5841197967529297,-0.4706307351589203,3.102320432662964
26,62223,62220,0.03516837954521179,-0.11389393359422684,0.9272704124450684,-4.113424301147461,6.068007946014404,-2.6517691612243652,1.9042378664016724,4.002010822296143,0.24255703389644623,-0.7561754584312439,-0.543555736541748,3.0724058151245117
27,62233,62230,0.012012481689453125,-0.08059062063694,0.9112448692321777,-4.945516586303711,5.3311662673950195,-2.738298177719116,1.9055016040802002,4.002374172210693,0.2443614900112152,-0.8134148716926575,-0.5975425243377686,3.067945957183838
28,62243,62240,0.0026748264208436012,-0.14538539946079254,0.9163225889205933,-3.5982837677001953,7.389713287353516,-2.552828550338745,1.904862880706787,4.001684665679932,0.24540676176548004,-0.9475052356719971,-0.5136300325393677,3.0318410396575928
29,62253,62250,0.009547673165798187,-0.07068464905023575,0.9291439652442932,-2.422415256500244,11.230575561523438,-2.8154170513153076,1.904916763305664,4.00162410736084,0.24703294038772583,-1.0854753255844116,-0.5709419250488281,3.02940034866333
30,62263,62260,-0.06553412228822708,0.005930525250732899,0.943918764591217,-1.1777645349502563,2.224489450454712,-2.1316680908203125,1.906333565711975,4.001811504364014,0.24853360652923584,-1.305214524269104,-0.639998733997345,3.0022192001342773
31,62273,62270,-0.05590418726205826,0.038500066846609116,1.0009535551071167,0.13753816485404968,-1.6872849464416504,-2.081174850463867,1.904992938041687,4.001356601715088,0.2500499486923218,-1.3605977296829224,-0.6128878593444824,2.9782373905181885
32,62283,62280,0.0008238209411501884,-0.040124453604221344,0.9585981965065002,1.8642886877059937,-5.311530113220215,-2.3834376335144043,1.9048832654953003,4.001182556152344,0.2524646818637848,-1.3984581232070923,-0.6416637301445007,2.950737714767456
33,62293,62290,0.013624332845211029,-0.01812366582453251,0.9698710441589355,2.1840054988861084,-10.483012199401855,-3.0044684410095215,1.9046344757080078,4.000271320343018,0.2539519667625427,-1.3506004810333252,-0.5611729621887207,2.937657117843628
34,62303,62300,-0.0015974602429196239,0.024030806496739388,0.9634858965873718,3.461082935333252,-15.172503471374512,-3.0640311241149902,1.9041279554367065,4.000301837921143,0.2553878426551819,-1.2264550924301147,-0.5560402274131775,2.9061896800994873
35,62313,62310,0.01857183501124382,0.024292798712849617,0.957609236240387,2.128746747970581,-11.558241844177246,-2.8615972995758057,1.9047290086746216,3.9999442100524902,0.25648146867752075,-1.0543510913848877,-0.46853765845298767,2.889033555984497
36,62323,62320,0.0069290571846067905,0.012795145623385906,0.966147780418396,0.6836004257202148,-8.993316650390625,-3.157263994216919,1.9041900634765625,4.000901222229004,0.25784748792648315,-0.9788913726806641,-0.5452133417129517,2.8466317653656006
37,62333,62330,0.011402116157114506,0.008608023636043072,0.9414579272270203,-1.1619560718536377,-7.029850006103516,-2.0877091884613037,1.9013429880142212,4.000792503356934,0.25905242562294006,-0.8585001826286316,-0.5583670735359192,2.8066675662994385
38,62343,62340,0.03332149237394333,-0.14568376541137695,1.0184065103530884,-3.1564605236053467,-2.5155158042907715,-2.3823885917663574,1.8993099927902222,4.000332832336426,0.26188236474990845,-0.7851645946502686,-0.5998308062553406,2.7758424282073975
39,62353,62350,0.019093679264187813,-0.054151859134435654,0.970298171043396,-3.704786539077759,2.02217960357666,-3.0474512577056885,1.8995459079742432,4.000918388366699,0.2631797194480896,-0.7652317881584167,-0.6601285934448242,2.7498602867126465
40,62363,62360,-0.047447897493839264,-0.041346848011016846,0.9676405191421509,-0.28158488869667053,2.2599539756774902,-3.271611213684082,1.9002044200897217,4.001718997955322,0.26449090242385864,-0.8112695217132568,-0.7155020833015442,2.7207834720611572
41,62373,62370,-0.05276891961693764,0.017872357740998268,1.0104745626449585,4.726366996765137,-2.3447072505950928,-3.122872829437256,1.8996073007583618,4.001968860626221,0.265834242105484,-0.9531345963478088,-0.6994017958641052,2.6643826961517334
42,62383,62380,-0.06366333365440369,-0.01102555450052023,0.9982709288597107,5.925498962402344,-2.1984658241271973,-3.418591022491455,1.9003924131393433,4.002412796020508,0.2688902020454407,-0.9496330618858337,-0.6666234135627747,2.6693382263183594
43,62393,62390,-0.013807687908411026,0.02510271966457367,0.9973819255828857,7.427999973297119,-8.530405044555664,-3.2887723445892334,1.89998459815979,4.001501083374023,0.2702784240245819,-0.8447611331939697,-0.5753946900367737,2.63586163520813
44,62403,62400,0.04314868524670601,0.09405115991830826,0.9485276937484741,5.953334331512451,-8.846577644348145,-3.3478775024414062,1.9018954038619995,4.002370357513428,0.2716221809387207,-0.9818477630615234,-0.5458623170852661,2.6114189624786377
45,62413,62410,0.02565379999577999,0.04463569074869156,0.9689120054244995,4.030897617340088,-9.799455642700195,-3.2417659759521484,1.9012023210525513,4.0023980140686035,0.26881346106529236,-0.7347708344459534,-0.39798542857170105,2.547390937805176
46,62423,62420,0.06375981867313385,0.04356618598103523,0.9384294152259827,1.4031000137329102,-11.700573921203613,-3.223952293395996,1.8984670639038086,4.002632141113281,0.2698971927165985,-0.351336270570755,-0.38429662585258484,2.52226185798645
47,62433,62430,0.022035514935851097,-0.0345609225332737,0.9422993659973145,0.9301458597183228,-10.376635551452637,-2.9821970462799072,1.8976268768310547,4.005357265472412,0.27085795998573303,-0.19263392686843872,-0.6628382205963135,2.44620418548584
48,62443,62440,-0.015929460525512695,-0.12662990391254425,0.9583101272583008,-0.3405231833457947,-4.512143611907959,-2.168694257736206,1.8978723287582397,4.006836414337158,0.2715778648853302,-0.13442973792552948,-0.6267529129981995,2.4242453575134277
49,62453,62450,-0.02226194553077221,-0.003042567754164338,1.0034902095794678,3.190810441970825,1.9206371307373047,-2.6716721057891846,1.8990424871444702,4.003425121307373,0.2728259563446045,-0.3111208379268646,-0.29297757148742676,2.451395273208618
50,62463,62460,0.002893602242693305,0.014049134217202663,0.975351095199585,4.192437171936035,6.3145318031311035,-3.0834109783172607,1.8976773023605347,4.003823280334473,0.27368056774139404,-0.1159668043255806,-0.3314157724380493,2.409127950668335
51,62473,62470,0.021174011752009392,-0.0013737182598561049,0.9584234952926636,3.411675453186035,6.84739351272583,-2.9649386405944824,1.902746319770813,4.003363609313965,0.27296265959739685,-0.7752657532691956,-0.18796412646770477,2.4249777793884277
52,62483,62480,-0.00842372141778469,-0.01785029098391533,0.9832307696342468,2.0303704738616943,4.5509843826293945,-3.2597036361694336,1.9001572132110596,4.002331733703613,0.27401524782180786,-0.47707679867744446,-0.06707250326871872,2.3812360763549805
53,62493,62490,-0.011813540942966938,-7.859974721213803e-05,0.9925329685211182,-1.457703948020935,-3.8997690677642822,-3.062346935272217,1.8986051082611084,4.004976749420166,0.27488595247268677,-0.4015381932258606,-0.2848300337791443,2.3234848976135254
54,62503,62500,0.03960900381207466,-0.022666074335575104,0.9689415097236633,-3.91725492477417,-6.854674339294434,-3.265148639678955,1.897990107536316,4.006123065948486,0.2755582332611084,-0.38168591260910034,-0.3722009062767029,2.282536506652832
55,62513,62510,0.018017414957284927,-0.04676443338394165,0.9877487421035767,-2.40506911277771,-8.717415809631348,-2.8799872398376465,1.8998944759368896,4.00399112701416,0.27691662311553955,-0.5156629085540771,-0.18603196740150452,2.2677061557769775
56,62523,62520,-0.009778078645467758,-0.04490862041711807,0.9699001312255859,-0.17989575862884521,-8.588549613952637,-2.47528338432312,1.896998643875122,4.005280017852783,0.2777017652988434,-0.14195005595684052,-0.31242671608924866,2.220139741897583
57,62533,62530,0.005329223349690437,-0.01994447223842144,0.9949320554733276,0.3636282682418823,-7.143439769744873,-2.5509419441223145,1.900112271308899,4.004649639129639,0.27860283851623535,-0.40298259258270264,-0.24027569591999054,2.211416244506836
58,62543,62540,0.0010776829440146685,-0.00999003741890192,0.996809720993042,2.0616402626037598,-4.05415153503418,-2.238226890563965,1.8987562656402588,4.005460739135742,0.2778545618057251,-0.19264353811740875,-0.23219381272792816,2.1846187114715576
59,62553,62550,0.023358512669801712,-0.01888568513095379,0.9853564500808716,3.1966660022735596,-1.8060053586959839,-2.0060439109802246,1.8991777896881104,4.005894660949707,0.27841833233833313,-0.12090186774730682,-0.20094044506549835,2.162543773651123
60,62563,62560,0.000592274940572679,0.026889367029070854,1.01164972782135,1.0106710195541382,-0.5533050298690796,-1.9394553899765015,1.901434063911438,4.005428791046143,0.27899569272994995,-0.3138214945793152,-0.15875166654586792,2.1466400623321533
61,62573,62570,-0.006229926832020283,-0.031357042491436005,0.9977444410324097,-0.7337408661842346,-1.1556463241577148,-2.0808677673339844,1.9014400243759155,4.006232261657715,0.2800450623035431,-0.27659523487091064,-0.14597739279270172,2.1260838508605957
62,62583,62580,0.0027730953879654408,-0.0067261201329529285,0.9988652467727661,-2.1676461696624756,-2.309650421142578,-2.739021062850952,1.9004433155059814,4.006243705749512,0.2806808352470398,-0.16044145822525024,-0.2401299923658371,2.1000444889068604
63,62593,62590,0.04405782371759415,0.05811283364892006,0.985221266746521,-2.1784844398498535,-4.907297611236572,-2.256983757019043,1.9023016691207886,4.007403373718262,0.28127074241638184,-0.3290817141532898,-0.269698828458786,2.0786478519439697
64,62603,62600,-0.02809133194386959,0.02927623875439167,1.0149022340774536,-1.16019868850708,-7.117579460144043,-2.2775790691375732,1.9006599187850952,4.007040500640869,0.2820061147212982,-0.06326684355735779,-0.2237524837255478,2.054144859313965
65,62613,62610,-0.018337061628699303,-0.07428815215826035,1.0175422430038452,1.0649192333221436,-8.65238094329834,-1.617798089981079,1.8987293243408203,4.0097198486328125,0.2808963358402252,0.13868139684200287,-0.541631817817688,2.028057098388672
66,62623,62620,-0.05335346981883049,-0.05389772728085518,1.0465210676193237,3.5855562686920166,-4.879703044891357,-1.5651907920837402,1.8986191749572754,4.006412982940674,0.28171804547309875,0.26597529649734497,-0.19594307243824005,2.0124855041503906
67,62633,62630,-0.048310261219739914,-0.040989458560943604,1.0048130750656128,6.356348037719727,0.5883525609970093,-2.1146016120910645,1.8951539993286133,4.009159088134766,0.2821458578109741,0.6200001239776611,-0.43908900022506714,1.9940179586410522
68,62643,62640,0.012484896928071976,0.004959099926054478,1.0100163221359253,5.991142749786377,8.284963607788086,-2.2906405925750732,1.899169921875,4.002581596374512,0.2829992175102234,0.19211971759796143,0.42350685596466064,1.960172414779663
69,62653,62650,0.03715021163225174,0.02967686764895916,0.9879222512245178,4.1551103591918945,10.255963325500488,-2.523594856262207,1.8990485668182373,4.005816459655762,0.28422486782073975,0.14294251799583435,0.09438205510377884,1.9494502544403076
70,62663,62660,0.011484840884804726,-0.012688939459621906,0.9940423369407654,-1.9815490245819092,10.79002571105957,-2.9698212146759033,1.9001964330673218,4.0094380378723145,0.28509652614593506,-0.1055082306265831,-0.30166494846343994,1.9399957656860352
71,62673,62670,0.0324295274913311,-0.0003283850965090096,0.9499530792236328,-7.2685723304748535,9.662792205810547,-2.6836583614349365,1.8993586301803589,4.00681734085083,0.2827710807323456,-0.04523371160030365,-0.012219278141856194,1.902193546295166
72,62683,62680,0.022807614877820015,-0.04377960413694382,0.9892311096191406,-4.203394412994385,-0.9382015466690063,-2.3999807834625244,1.8996165990829468,4.008497714996338,0.28321373462677,-0.18027542531490326,-0.11471962183713913,1.8749587535858154
73,62693,62690,0.0013678238028660417,0.009844544343650341,1.0256683826446533,-2.817830801010132,-2.8217902183532715,-1.491529941558838,1.9001308679580688,4.008481502532959,0.2836124300956726,-0.2542158365249634,-0.11260685324668884,1.8473690748214722
74,62703,62700,-0.013667980208992958,-0.10947118699550629,1.0405359268188477,-0.05129478871822357,-7.376346111297607,-1.2909295558929443,1.9006673097610474,4.016143321990967,0.2839602530002594,-0.3319738507270813,-0.8889296650886536,1.8498035669326782
75,62713,62710,0.03355594724416733,-0.05126902088522911,0.9694381356239319,7.402750492095947,-10.50984001159668,-1.0377250909805298,1.8995217084884644,4.008971214294434,0.28530868887901306,-0.10882016271352768,-0.07201079279184341,1.8188705444335938
76,62723,62720,-0.030285192653536797,0.018147600814700127,1.0448850393295288,10.95952320098877,-9.61932373046875,-0.35732221603393555,1.8970258235931396,4.00725793838501,0.2858062982559204,0.20744705200195312,0.10158982872962952,1.8048655986785889
77,62733,62730,0.021234584972262383,0.049339838325977325,0.9547178745269775,8.792102813720703,-4.874700546264648,-0.005323769524693489,1.8988605737686157,4.006518363952637,0.28641846776008606,0.1275869756937027,0.25658655166625977,1.7970542907714844
78,62743,62740,-0.03684564307332039,-0.0016628298908472061,1.0455223321914673,2.442939519882202,-1.0140260457992554,-0.026890970766544342,1.8978967666625977,4.006182670593262,0.2885301113128662,0.2125261425971985,0.3704468011856079,1.7953710556030273
79,62753,62750,-0.012797406874597073,-0.1593838781118393,0.9999569654464722,-6.964349746704102,5.206691741943359,-0.802969217300415,1.8983243703842163,4.006251335144043,0.2891976833343506,0.2173379361629486,0.37536463141441345,1.7969436645507812
80,62763,62760,-0.030961161479353905,-0.05018282309174538,1.0227571725845337,-11.370689392089844,5.143868923187256,-1.680987000465393,1.8985408544540405,4.006739139556885,0.2899301052093506,0.13738565146923065,0.24497155845165253,1.7936986684799194
81,62773,62770,-0.05107517167925835,-0.023898476734757423,0.9914451837539673,-16.501909255981445,5.804082870483398,-1.624023675918579,1.899597406387329,4.00799036026001,0.28838685154914856,0.03782949969172478,0.02692277543246746,1.784711480140686
82,62783,62780,-0.010878765024244785,-0.020659171044826508,0.99871826171875,-15.406636238098145,1.4563562870025635,-0.5436540246009827,1.9000895023345947,4.008731365203857,0.2889317274093628,-0.054901763796806335,-0.24787187576293945,1.7730096578598022
83,62793,62790,-0.01660843752324581,7.594855560455471e-05,1.0221153497695923,-9.07568073272705,-0.07937272638082504,-1.4373290538787842,1.9018259048461914,4.004586219787598,0.28965434432029724,-0.2392105758190155,0.02405567839741707,1.73806631565094
84,62803,62800,0.03451156243681908,-0.02475963532924652,0.9763665199279785,-2.498412847518921,-4.308529853820801,-1.31673002243042,1.9010201692581177,4.007663726806641,0.2911200523376465,-0.14051945507526398,-0.5308296084403992,1.7465460300445557
85,62813,62810,0.0297971460968256,-0.06292279064655304,1.0240676403045654,3.5485923290252686,-8.045286178588867,-1.1698696613311768,1.9016355276107788,4.005049228668213,0.29194870591163635,-0.12355329841375351,-0.20322012901306152,1.7193912267684937
86,62823,62820,0.044330812990665436,-0.10216788202524185,0.9739990234375,6.468226432800293,-6.8193793296813965,-1.5735290050506592,1.9007518291473389,4.004585266113281,0.29261314868927,0.025682689622044563,-0.25327518582344055,1.7134120464324951
87,62833,62830,-0.004981685429811478,0.013047845102846622,1.010851263999939,6.123784065246582,-8.466064453125,-0.6548188328742981,1.8999876976013184,4.008023262023926,0.29333722591400146,0.17133201658725739,-0.529813826084137,1.7161980867385864
88,62843,62840,0.002076602540910244,-0.010959666222333908,0.9650267362594604,2.889481782913208,-3.260101795196533,-0.9317306876182556,1.8991119861602783,4.001621723175049,0.2924678921699524,0.3137628436088562,0.16654232144355774,1.6827137470245361
89,62853,62850,-0.007180331740528345,0.029900837689638138,0.9916108250617981,1.0926222801208496,-1.409364938735962,-0.8936223387718201,1.9007837772369385,4.000092029571533,0.29291173815727234,0.2420414239168167,0.3152455985546112,1.66727614402771
90,62863,62860,-0.012918611988425255,0.03793993964791298,1.0162758827209473,-6.622316837310791,2.713654041290283,-0.9644132852554321,1.9007184505462646,4.000278949737549,0.2936165928840637,0.2731178402900696,0.18845908343791962,1.6663615703582764
91,62873,62870,0.017568590119481087,-0.024748647585511208,0.9910870790481567,-13.609261512756348,3.004854440689087,-1.8708508014678955,1.9010106325149536,4.000926971435547,0.2892729341983795,0.23716866970062256,0.024505333974957466,1.6639660596847534
92,62883,62880,-0.017715197056531906,0.017093323171138763,1.0025871992111206,-18.209566116333008,2.88344144821167,-1.9389539957046509,1.9005546569824219,4.001278877258301,0.28952303528785706,0.2547338008880615,-0.17082729935646057,1.6538385152816772
93,62893,62890,-0.06086929887533188,0.11041764169931412,1.0065635442733765,-18.209636688232422,3.0362887382507324,-1.59527587890625,1.90164053440094,4.002278804779053,0.28978773951530457,0.12072872370481491,-0.5054076910018921,1.6415302753448486
94,62903,62900,0.008577117696404457,0.01571596786379814,0.9992257952690125,-12.102237701416016,0.21362589299678802,-1.0645086765289307,1.901823878288269,4.001167297363281,0.29070356488227844,0.08380751311779022,-0.5925536751747131,1.6200315952301025
95,62913,62910,0.02429937943816185,-0.16691182553768158,1.023616075515747,-3.034282684326172,-3.3401336669921875,-1.1068042516708374,1.9012020826339722,4.001638412475586,0.2909579575061798,0.09669462591409683,-0.8026201725006104,1.6120165586471558
96,62923,62920,-0.003195085097104311,-0.039558131247758865,1.0102847814559937,4.99545431137085,-6.617266654968262,-0.3000762164592743,1.9016633033752441,4.001695156097412,0.2912118434906006,0.08480791002511978,-0.8701403737068176,1.602142095565796
97,62933,62930,0.002322783228009939,-0.14405180513858795,1.0228462219238281,11.496919631958008,-5.639664649963379,-0.6804187893867493,1.9004180431365967,4.0007500648498535,0.29153603315353394,0.19352780282497406,-0.8022850155830383,1.5936280488967896
98,62943,62940,-0.003843591781333089,0.06203419715166092,0.9976550936698914,14.616008758544922,-7.497572898864746,-0.16311340034008026,1.9018259048461914,4.002691268920898,0.2937563359737396,0.14998362958431244,-0.7064492702484131,1.591888427734375
99,62953,62950,0.020858829841017723,0.011518750339746475,1.02219820022583,11.752228736877441,-2.543337106704712,-0.30849868059158325,1.900251865386963,4.008378505706787,0.2941618859767914,0.26331400871276855,-0.57000732421875,1.5780318975448608
100,62963,62960,0.03217114135622978,0.045318275690078735,0.9681252241134644,5.496614933013916,2.0147111415863037,-0.35744476318359375,1.9004772901535034,4.007604598999023,0.29458779096603394,0.2591535449028015,-0.46404099464416504,1.580372929573059
101,62973,62970,0.038381177932024,0.06249062344431877,0.9914034605026245,1.687646746635437,-0.7830613255500793,-0.3748300075531006,1.900442123413086,4.008332252502441,0.2971078157424927,0.28391388058662415,-0.5163949728012085,1.5863007307052612
102,62983,62980,0.0160280279815197,0.013150770217180252,0.9900817275047302,-2.460815668106079,6.822011947631836,-0.4479789137840271,1.9006112813949585,4.007238864898682,0.2976434826850891,0.2892742156982422,-0.4933421313762665,1.5822031497955322
103,62993,62990,0.006453291513025761,-0.022942906245589256,1.0141527652740479,-3.879582166671753,13.496332168579102,-0.6725829839706421,1.9008238315582275,4.008646011352539,0.29816246032714844,0.26960477232933044,-0.525087296962738,1.5770078897476196
104,63003,63000,-0.0041661043651402,-0.03183408081531525,0.9961892366409302,-1.1059997081756592,15.500797271728516,-0.329635351896286,1.9000892639160156,4.008007049560547,0.2971021831035614,0.2058650702238083,-0.5769886374473572,1.5678160190582275
105,63013,63010,-0.06677079200744629,0.06567788124084473,1.0264906883239746,0.5277241468429565,22.00958824157715,0.5412502288818359,1.9004859924316406,4.008768081665039,0.29752442240715027,-0.004325650166720152,-0.6672430634498596,1.5698010921478271
106,63023,63020,-0.007164400070905685,0.0056155105121433735,0.9993761777877808,3.9674956798553467,21.859182357788086,0.7309589982032776,1.9008654356002808,4.008328914642334,0.2979705035686493,-0.27970361709594727,-0.6384087800979614,1.5715065002441406
107,63033,63030,-0.0012304786359891295,-0.00870640017092228,1.028311014175415,7.627123832702637,18.267906188964844,0.8146042227745056,1.90152108669281,4.011236667633057,0.2984728515148163,-0.47656986117362976,-0.7043476700782776,1.579337239265442
108,63043,63040,0.0044335112906992435,-0.004100515972822905,0.9852887988090515,11.074945449829102,12.768237113952637,0.8413107395172119,1.9027179479599,4.011395454406738,0.30114662647247314,-0.7644804120063782,-0.6253895163536072,1.5890134572982788
109,63053,63050,0.01383792981505394,0.049252353608608246,1.0173145532608032,13.161750793457031,5.884893417358398,0.6095196604728699,1.9038587808609009,4.010453224182129,0.30173996090888977,-0.9517244696617126,-0.48953762650489807,1.597751259803772
110,63063,63060,-0.032436802983284,0.12067124992609024,1.011561632156372,13.416999816894531,0.3525281846523285,0.4823436737060547,1.9029518365859985,4.009076118469238,0.3024730980396271,-0.9523210525512695,-0.24419616162776947,1.6008044481277466
111,63073,63070,0.020414648577570915,-0.04585077986121178,0.9743945598602295,11.323419570922852,-4.447143077850342,0.8417827486991882,1.903184175491333,4.010402679443359,0.3054298162460327,-0.8718706369400024,-0.22536149621009827,1.5989277362823486
112,63083,63080,0.02320207469165325,0.012807542458176613,0.9909696578979492,7.0917158126831055,-3.0466599464416504,0.8255292773246765,1.902397871017456,4.011324405670166,0.3062363564968109,-0.805168092250824,-0.15478843450546265,1.603281855583191
113,63093,63090,0.019327493384480476,-0.027027687057852745,0.9661771655082703,4.26286506652832,-1.7940621376037598,0.9339070916175842,1.9025661945343018,4.011836051940918,0.30701079964637756,-0.7429147362709045,-0.06951920688152313,1.60968017578125
114,63103,63100,-0.07468273490667343,0.010262825526297092,0.986395537853241,0.37447136640548706,5.5039825439453125,0.9717060327529907,1.9035168886184692,4.013482093811035,0.3081432580947876,-0.7771527767181396,-0.18379731476306915,1.6105575561523438
115,63113,63110,-0.0030758546199649572,-0.009058156982064247,0.9791106581687927,0.7402386665344238,8.454952239990234,0.493636816740036,1.90328848361969,4.013023376464844,0.3089732229709625,-0.8096332550048828,-0.11067181080579758,1.6226744651794434
116,63123,63120,-0.016425440087914467,0.00484840851277113,0.9492965936660767,2.095501184463501,10.974637985229492,0.7954472303390503,1.9038985967636108,4.012965202331543,0.3096802234649658,-0.9210569262504578,-0.04828562214970589,1.6340259313583374
117,63133,63130,0.006635533645749092,-0.050656840205192566,0.9558360576629639,2.9029579162597656,10.689239501953125,1.1432294845581055,1.9046803712844849,4.013915061950684,0.31038787961006165,-1.0793676376342773,-0.04259351268410683,1.6417633295059204
118,63143,63140,-0.016505802050232887,0.08930379152297974,0.9819931387901306,5.879003524780273,9.15389633178711,0.6798804998397827,1.9047255516052246,4.013727188110352,0.3128010928630829,-1.1640257835388184,0.05557001009583473,1.6568670272827148
119,63153,63150,-0.019747618585824966,0.012850763276219368,0.9601584076881409,7.3665900230407715,6.617379665374756,0.723649799823761,1.9053202867507935,4.014038562774658,0.31347978115081787,-1.282582402229309,0.1204444020986557,1.6655385494232178
120,63163,63160,0.02039540559053421,-0.024627655744552612,0.9328237771987915,8.322604179382324,3.6333630084991455,1.0409554243087769,1.9056545495986938,4.015747547149658,0.3141208291053772,-1.348998785018921,0.07706031203269958,1.6603699922561646
121,63173,63170,0.026350488886237144,0.0024071435909718275,0.959036111831665,9.072081565856934,0.12698476016521454,0.920029878616333,1.906450629234314,4.01508903503418,0.3122422397136688,-1.3551812171936035,0.26780107617378235,1.680669903755188
122,63183,63180,0.028286196291446686,-0.029952984303236008,0.9554362893104553,7.748246669769287,-3.6556448936462402,0.8782346248626709,1.9063242673873901,4.015382289886475,0.3127143979072571,-1.3046215772628784,0.31086480617523193,1.6812742948532104
123,63193,63190,-0.019451145082712173,-0.019178224727511406,0.967452883720398,5.25006628036499,-3.3019917011260986,0.6885288953781128,1.9059841632843018,4.015795707702637,0.31316086649894714,-1.2111296653747559,0.33376073837280273,1.6816591024398804
124,63203,63200,0.02351432666182518,-0.0314892902970314,0.9434258937835693,1.6024529933929443,-0.9513778686523438,0.5917314291000366,1.9059736728668213,4.015152454376221,0.31422144174575806,-1.1216967105865479,0.46390679478645325,1.700793743133545
125,63213,63210,0.07548630982637405,-0.003448812523856759,0.9175739884376526,1.712202548980713,0.11558783799409866,0.524634599685669,1.9063124656677246,4.016238689422607,0.31457558274269104,-1.1396019458770752,0.39043402671813965,1.692265510559082
126,63223,63220,-0.005304984748363495,0.033886950463056564,1.0021421909332275,0.8802425861358643,3.7906785011291504,0.2733086943626404,1.906762719154358,4.016109943389893,0.31492355465888977,-1.1119095087051392,0.46659111976623535,1.7073931694030762
127,63233,63230,0.0004985792329534888,0.014803181402385235,0.9641714692115784,0.7875918745994568,10.113726615905762,-0.03367042914032936,1.9079221487045288,4.015855312347412,0.31754443049430847,-1.2166533470153809,0.45270416140556335,1.7029660940170288
128,63243,63240,0.07057037204504013,-0.012991179712116718,0.9235396981239319,3.2919418811798096,8.195470809936523,0.23766525089740753,1.9089775085449219,4.014801502227783,0.31792151927948,-1.314332365989685,0.5233134627342224,1.7098685503005981
129,63253,63250,0.00954173319041729,-0.0012526300270110369,0.964202880859375,4.516356945037842,5.52493143081665,-0.2988527715206146,1.9097720384597778,4.016302108764648,0.31820449233055115,-1.401114821434021,0.4712888300418854,1.6971663236618042
130,63263,63260,0.007133187726140022,-0.035029809921979904,0.952659547328949,5.4254150390625,0.6300832033157349,0.23023338615894318,1.9100852012634277,4.0167341232299805,0.3184718191623688,-1.4411886930465698,0.5209299921989441,1.6972386837005615
131,63273,63270,0.020057084038853645,-0.10035906732082367,0.9936903715133667,4.3329010009765625,-1.5151244401931763,-0.18063552677631378,1.9105370044708252,4.017002105712891,0.31847089529037476,-1.4859529733657837,0.5793924331665039,1.6970857381820679
132,63283,63280,0.01107326801866293,-0.04574500396847725,0.9516334533691406,3.6422929763793945,-5.031961441040039,-0.5194134712219238,1.910218358039856,4.016439437866211,0.3187335729598999,-1.4045602083206177,0.6962701678276062,1.713395595550537
133,63293,63290,0.004639163613319397,-0.005384344141930342,0.9876207709312439,1.8745344877243042,-6.470495223999023,-0.8864397406578064,1.9098808765411377,4.016165256500244,0.3190154731273651,-1.27097487449646,0.7155483961105347,1.7126529216766357
134,63303,63300,0.030549483373761177,0.0819457471370697,0.9802554845809937,-0.33409926295280457,-3.0357983112335205,-0.8435370922088623,1.912515640258789,4.016867160797119,0.3172639310359955,-1.4240882396697998,0.7063055634498596,1.6794233322143555
135,63313,63310,0.09849590063095093,0.03565419092774391,0.9034506678581238,-0.2899976074695587,-3.701019287109375,-0.4195709228515625,1.912866473197937,4.0201239585876465,0.3173713982105255,-1.2917015552520752,0.7420488595962524,1.6863313913345337
136,63323,63320,0.01107039488852024,0.011876150034368038,0.9844312071800232,-1.472490906715393,0.9705285429954529,-0.3675159513950348,1.9126108884811401,4.020143508911133,0.31737062335014343,-1.169736623764038,0.7692626118659973,1.6958166360855103
137,63333,63330,0.05983024463057518,-0.09133879840373993,0.9497166275978088,-1.4971733093261719,-0.5694997906684875,-0.4608934819698334,1.912949800491333,4.0205559730529785,0.31466904282569885,-1.2419989109039307,0.7023099660873413,1.6728354692459106
138,63343,63340,0.02403057925403118,-0.14384038746356964,0.9974638223648071,-0.6418039798736572,-2.9955925941467285,-0.11957894265651703,1.9137797355651855,4.02066707611084,0.3144514560699463,-1.1472440958023071,0.7118055820465088,1.6800068616867065
139,63353,63350,-0.010657326318323612,-0.054276593029499054,0.9547851085662842,-1.0119092464447021,-2.828444480895996,-0.42629653215408325,1.915859580039978,4.022391319274902,0.314144492149353,-1.1956348419189453,0.7308781743049622,1.6735854148864746
140,63363,63360,0.0008270801627077162,-0.03640928864479065,1.0067437887191772,-1.4036853313446045,-2.803938388824463,-0.6292740106582642,1.9154009819030762,4.023808479309082,0.31396374106407166,-1.0809859037399292,0.741119384765625,1.6833932399749756
141,63373,63370,-0.013414972461760044,0.11217790842056274,1.038475751876831,-1.0860097408294678,-1.2371712923049927,-0.6736191511154175,1.9171198606491089,4.023241996765137,0.31360435485839844,-1.1326583623886108,0.7438055276870728,1.6703993082046509
142,63383,63380,0.040732916444540024,-0.04550846293568611,0.9501827955245972,-2.3698573112487793,4.09848690032959,-1.0346513986587524,1.9178283214569092,4.024127960205078,0.3133067190647125,-1.1149544715881348,0.747505247592926,1.6670520305633545
143,63393,63390,0.005248828791081905,0.10832570493221283,1.0291317701339722,-1.7625693082809448,-1.0739390850067139,-0.8505356311798096,1.9189820289611816,4.023517608642578,0.31303057074546814,-1.1407588720321655,0.7365491390228271,1.657505989074707
144,63403,63400,0.041948433965444565,-0.026705149561166763,0.9618021249771118,-1.8392105102539062,-3.0214080810546875,-1.1807303428649902,1.9207584857940674,4.02268123626709,0.31542500853538513,-1.193619966506958,0.7212243676185608,1.6407943964004517
145,63413,63410,-0.030592115595936775,-0.015758363530039787,1.0168933868408203,-1.7391196489334106,-7.89787483215332,-1.1704602241516113,1.9214606285095215,4.022622108459473,0.31532326340675354,-1.1324056386947632,0.699661135673523,1.6328247785568237
146,63423,63420,-0.09061041474342346,0.02112736366689205,1.0481181144714355,-4.012575149536133,-5.204583644866943,-0.5375860333442688,1.9220341444015503,4.0231146812438965,0.3152451813220978,-1.0203847885131836,0.6691586375236511,1.6261955499649048
147,63433,63430,0.019398676231503487,0.012715336866676807,0.9901153445243835,-5.04812479019165,-6.556185722351074,-0.9016804099082947,1.9213504791259766,4.022208213806152,0.31337589025497437,-0.8422468900680542,0.6885393261909485,1.643691062927246
148,63443,63440,-0.031588006764650345,0.007325330283492804,1.0533438920974731,-4.827150821685791,-5.050673007965088,-1.1334035396575928,1.9239474534988403,4.021942138671875,0.3130949139595032,-0.9760661125183105,0.6098672151565552,1.6057337522506714
149,63453,63450,0.03143135830760002,-0.10667944699525833,0.9430482387542725,-4.6397576332092285,-4.0645952224731445,-1.4478259086608887,1.9236551523208618,4.022313117980957,0.3129969835281372,-0.8011432886123657,0.5353645086288452,1.6058415174484253
150,63463,63460,-0.015468603000044823,-0.12096371501684189,1.0395501852035522,-2.986623525619507,-4.721761703491211,-1.5733592510223389,1.9253814220428467,4.021702289581299,0.31350570917129517,-0.8190745115280151,0.46978065371513367,1.582724928855896
151,63473,63470,0.010342856869101524,-0.2395106852054596,0.990233838558197,-1.8861759901046753,-6.2618513107299805,-1.8490076065063477,1.9275437593460083,4.0208964347839355,0.31329503655433655,-0.8853837251663208,0.5051468014717102,1.5603790283203125
152,63483,63480,-7.537232886534184e-05,-0.04644099250435829,1.0699872970581055,-0.8449956178665161,-4.021183013916016,-1.8265784978866577,1.9263991117477417,4.019825458526611,0.3133179247379303,-0.6989114880561829,0.5534332990646362,1.5640666484832764
153,63493,63490,0.032022178173065186,-0.043892305344343185,0.9546405076980591,-2.1791329383850098,-0.9804747700691223,-2.283825635910034,1.9266468286514282,4.019873142242432,0.3133203685283661,-0.545867919921875,0.5296341180801392,1.556720495223999
154,63503,63500,0.020702647045254707,0.07761026173830032,1.0251506567001343,-2.96816086769104,-2.833690881729126,-2.1780192852020264,1.9296399354934692,4.019688129425049,0.31542059779167175,-0.7472445964813232,0.48545584082603455,1.5076420307159424
155,63513,63510,0.032797764986753464,-0.012772703543305397,0.9850587248802185,-4.489511013031006,-1.7271099090576172,-2.1068668365478516,1.9286011457443237,4.018031120300293,0.31553494930267334,-0.6073755621910095,0.4245382249355316,1.4952858686447144
156,63523,63520,-0.015596368350088596,-0.007235334720462561,1.025797724723816,-5.356054782867432,-2.349738359451294,-2.2255020141601562,1.930022954940796,4.0183892250061035,0.3155103623867035,-0.6376146674156189,0.3464619219303131,1.4662262201309204
157,63533,63530,0.0009611749555915594,-0.019789623096585274,1.0056846141815186,-4.052854537963867,-6.261439323425293,-2.333220958709717,1.9304639101028442,4.018420219421387,0.31467899680137634,-0.647252082824707,0.259505033493042,1.4394937753677368
158,63543,63540,-0.04314181208610535,0.11120934039354324,1.006899118423462,-3.865900754928589,-4.631567001342773,-2.0349512100219727,1.931144118309021,4.017912864685059,0.31474560499191284,-0.5339400172233582,0.2703522741794586,1.4265964031219482
159,63553,63550,-0.001764523796737194,0.007995514199137688,1.0243244171142578,-2.2084784507751465,-5.225803375244141,-2.1599254608154297,1.9313184022903442,4.017192363739014,0.31478410959243774,-0.4351423680782318,0.20819008350372314,1.409467101097107
160,63563,63560,-0.01095160935074091,0.014410181902348995,0.9920255541801453,-0.7450495362281799,-4.955528736114502,-1.9699738025665283,1.9331097602844238,4.018860340118408,0.3155357837677002,-0.4150806665420532,0.17317865788936615,1.3850511312484741
161,63573,63570,0.010858875699341297,-0.10534296184778214,1.0085196495056152,-0.24897852540016174,-4.682888507843018,-1.9530384540557861,1.9340711832046509,4.018301010131836,0.31560322642326355,-0.38677579164505005,0.1653233766555786,1.3626371622085571
162,63583,63580,-0.017684070393443108,0.06088612601161003,1.0567158460617065,0.3105435073375702,-2.2731268405914307,-1.6838653087615967,1.9335623979568481,4.0177903175354,0.31580689549446106,-0.21242870390415192,0.24064286053180695,1.3536940813064575
163,63593,63590,0.026578133925795555,-0.030978336930274963,0.9437637329101562,-0.018958428874611855,-1.259447455406189,-1.7462530136108398,1.9364475011825562,4.0177693367004395,0.3158755600452423,-0.32083049416542053,0.23859956860542297,1.335220217704773
164,63603,63600,0.012076838873326778,0.11144129186868668,0.9985142350196838,-1.4009042978286743,-0.3065645098686218,-2.3107500076293945,1.936793565750122,4.019590377807617,0.31648996472358704,-0.21888886392116547,0.22322474420070648,1.322367787361145
165,63613,63610,0.002881807740777731,0.06426934897899628,0.9739373326301575,-2.56402587890625,-1.0634303092956543,-2.509997844696045,1.939449429512024,4.02008056640625,0.31654343008995056,-0.35752150416374207,0.188068687915802,1.2909750938415527
166,63623,63620,0.021265171468257904,-0.0510735958814621,0.9681298732757568,-3.0971157550811768,-0.9233685731887817,-2.235478639602661,1.9397838115692139,4.019489288330078,0.3167692720890045,-0.24100467562675476,0.13380476832389832,1.2713596820831299
167,63633,63630,-0.09535061568021774,-0.043811310082674026,1.0455310344696045,-3.7330071926116943,-2.634186267852783,-2.2123425006866455,1.9412897825241089,4.01991605758667,0.3166225552558899,-0.25987938046455383,0.16008061170578003,1.253210425376892
168,63643,63640,0.005651842337101698,-0.019700661301612854,0.9887886643409729,-3.9458632469177246,-2.3998029232025146,-2.429755926132202,1.9430651664733887,4.019424915313721,0.31668731570243835,-0.2730093002319336,0.1668599545955658,1.228863000869751
169,63653,63650,0.01526070386171341,0.009509562514722347,0.9931140542030334,-4.1292643547058105,-2.5779213905334473,-2.1432688236236572,1.944351077079773,4.019573211669922,0.316751629114151,-0.28046441078186035,0.08980802446603775,1.2039090394973755
170,63663,63660,-0.005206339992582798,-0.04076562076807022,0.9698168039321899,-4.308116912841797,-2.760249137878418,-2.011688470840454,1.9454785585403442,4.019451141357422,0.31516990065574646,-0.2795182764530182,0.013222066685557365,1.1838502883911133
171,63673,63670,-0.03027258813381195,-0.014812878333032131,1.0154762268066406,-4.524987697601318,-4.045215606689453,-1.767367959022522,1.945345401763916,4.019662380218506,0.31527647376060486,-0.11463815718889236,-0.06692354381084442,1.1687877178192139
172,63683,63680,0.011261298321187496,0.01173300202935934,0.9762877225875854,-3.3693368434906006,-4.639849662780762,-1.5805675983428955,1.9461259841918945,4.018073081970215,0.315227210521698,-0.09763607382774353,-0.06686222553253174,1.1493993997573853
173,63693,63690,0.02435455471277237,-0.008553297258913517,0.984928548336029,-1.056211233139038,-3.9065773487091064,-1.396095633506775,1.9460769891738892,4.017233371734619,0.3153176009654999,0.07744500786066055,-0.045230939984321594,1.1344830989837646
174,63703,63700,-0.03377256914973259,0.0006053317920304835,1.0154117345809937,0.17349538207054138,-2.062011480331421,-1.1796733140945435,1.947190761566162,4.017298221588135,0.30992844700813293,0.06560169905424118,-0.07047545909881592,1.1215153932571411
175,63713,63710,-0.005065594799816608,-0.015447357669472694,0.9740248322486877,0.4545086622238159,0.4918871223926544,-0.6311954855918884,1.9486514329910278,4.017289638519287,0.3096191883087158,0.10623287409543991,-0.07808645814657211,1.1103330850601196
176,63723,63720,0.01714797504246235,-0.13578909635543823,1.00198233127594,0.143418088555336,0.7054558396339417,-0.8176144361495972,1.9501255750656128,4.017160415649414,0.3092266917228699,0.024222947657108307,-0.08058887720108032,1.102311611175537
177,63733,63730,-0.01200824324041605,-0.13880740106105804,1.021606206893921,-1.9894896745681763,5.303257942199707,-1.4155662059783936,1.9505549669265747,4.0173797607421875,0.3108709752559662,0.07960549741983414,-0.098494753241539,1.0923393964767456
178,63743,63740,0.006714642513543367,-0.0465075746178627,1.0010749101638794,-2.2411460876464844,4.094249725341797,-1.679869532585144,1.9506218433380127,4.017621040344238,0.3105739951133728,0.0053704166784882545,-0.14013542234897614,1.0837998390197754
179,63753,63750,0.016500839963555336,0.03755306825041771,1.0083112716674805,-3.0169551372528076,6.325108528137207,-1.5945554971694946,1.9509916305541992,4.017189979553223,0.31035009026527405,-0.06716092675924301,-0.18661057949066162,1.0728437900543213
180,63763,63760,0.03578769788146019,0.0008258193847723305,0.9471652507781982,-1.4554978609085083,3.160517692565918,-0.942500114440918,1.9515458345413208,4.0173420906066895,0.3111337125301361,-0.07278556376695633,-0.2321982979774475,1.059112787246704
181,63773,63770,-0.008833188563585281,0.040593989193439484,1.0405099391937256,0.3531778156757355,1.2289148569107056,-0.9211625456809998,1.9532617330551147,4.017092227935791,0.31093937158584595,-0.1890636831521988,-0.25100037455558777,1.0520399808883667
182,63783,63780,0.019903389737010002,-0.04376229643821716,0.9844911694526672,2.445159435272217,-0.8490570187568665,-0.365678995847702,1.9536596536636353,4.017614364624023,0.3108433485031128,-0.10644812881946564,-0.23928773403167725,1.0406092405319214
183,63793,63790,-0.056659065186977386,-0.012261349707841873,1.0807691812515259,3.505336046218872,-1.4399346113204956,-0.30769938230514526,1.9543216228485107,4.017401695251465,0.31210798025131226,-0.06859908998012543,-0.19087541103363037,1.033545732498169
184,63803,63800,0.026074830442667007,-0.032645728439092636,0.9970986843109131,2.574591875076294,1.230684518814087,-0.21492105722427368,1.9541833400726318,4.016119003295898,0.3121090829372406,-0.032112251967191696,-0.13376393914222717,1.0278083086013794
185,63813,63810,-0.001094545004889369,-0.02704877406358719,1.019469141960144,2.1697115898132324,-0.7792047262191772,-0.4073820412158966,1.956148624420166,4.0157151222229,0.31199851632118225,-0.1754899024963379,-0.08947151899337769,1.02968430519104
186,63823,63820,0.031237147748470306,-0.02330765500664711,0.9582157731056213,0.09987479448318481,2.46058988571167,-0.22286610305309296,1.9576200246810913,4.015681266784668,0.3120207190513611,-0.15706965327262878,-0.06131182983517647,1.0249229669570923
187,63833,63830,0.025232546031475067,-0.04950616881251335,1.0063244104385376,-0.8621944189071655,2.2396202087402344,-0.11779893934726715,1.9575928449630737,4.015924453735352,0.3127214014530182,-0.09595691412687302,-0.13857178390026093,1.0249444246292114
188,63843,63840,0.035346195101737976,-0.15538541972637177,1.0123153924942017,-1.1022448539733887,-0.7093960046768188,0.01235127728432417,1.9583220481872559,4.0151166915893555,0.3127302825450897,-0.10676320642232895,-0.07423977553844452,1.0173499584197998
189,63853,63850,-0.007467993069440126,-0.0902595967054367,1.0541037321090698,-0.37819480895996094,-1.5492513179779053,-0.4562775790691376,1.958346962928772,4.014480113983154,0.31277185678482056,-0.08541615307331085,-0.09881898760795593,1.0171643495559692
190,63863,63860,0.007359849754720926,0.014216737821698189,1.0391275882720947,-1.0619332790374756,-0.5467787981033325,-0.25131064653396606,1.9583871364593506,4.013126850128174,0.31299981474876404,0.015488817356526852,-0.11628200113773346,1.0005152225494385
191,63873,63870,-0.018081901594996452,0.027874330058693886,1.0202854871749878,-0.4913696050643921,1.4274996519088745,-0.2316736876964569,1.959815263748169,4.013424873352051,0.31308069825172424,-0.055547233670949936,-0.13719624280929565,1.0011495351791382
192,63883,63880,0.015163147822022438,-0.04502255469560623,0.9943982362747192,0.26144939661026,0.039478667080402374,-0.13711847364902496,1.9614471197128296,4.012765884399414,0.3131808638572693,-0.1469627171754837,-0.14846719801425934,1.0021635293960571
193,63893,63890,-0.014807823114097118,-0.07434819638729095,1.02663254737854,0.4260497987270355,3.0357158184051514,-0.4528142511844635,1.9617353677749634,4.0129547119140625,0.31430453062057495,-0.08265062421560287,-0.1461125910282135,0.997381865978241
194,63903,63900,0.0009878207929432392,-0.03123924322426319,0.990274965763092,0.9496994614601135,2.7944657802581787,-0.23966553807258606,1.962371587753296,4.012783050537109,0.31451815366744995,-0.19295324385166168,-0.13890263438224792,0.9983532428741455
195,63913,63910,0.004616547375917435,0.023339657112956047,1.014062762260437,1.9759713411331177,1.3968037366867065,0.024357503280043602,1.963107943534851,4.011825084686279,0.31483131647109985,-0.14337944984436035,-0.11751801520586014,0.973534107208252
196,63923,63920,0.005064335186034441,-0.03285371512174606,0.9699206948280334,2.7027595043182373,-0.6920819878578186,0.3722676634788513,1.9645216464996338,4.01092529296875,0.3149953782558441,-0.22357942163944244,-0.08170569688081741,0.9751270413398743
197,63933,63930,-0.0062623643316328526,-0.03142601624131203,0.9756336808204651,2.0724117755889893,-1.3829087018966675,0.380201131105423,1.9644240140914917,4.010197162628174,0.31492817401885986,-0.12401081621646881,-0.038037318736314774,0.9743131995201111
198,63943,63940,0.008119985461235046,-0.02563108690083027,0.9436543583869934,0.45784783363342285,-1.3530570268630981,0.40100234746932983,1.9659844636917114,4.010977745056152,0.31506112217903137,-0.1699768453836441,-0.08631531149148941,0.9850668907165527
199,63953,63950,0.008406270295381546,0.010463996790349483,1.0050121545791626,-0.7716256976127625,-1.64398992061615,0.08372124284505844,1.965150237083435,4.010956764221191,0.3153120279312134,-0.06323668360710144,-0.07917916029691696,0.9838923215866089
200,63963,63960,-0.01766454614698887,0.08793120831251144,0.9645147323608398,-1.3830485343933105,-0.15234671533107758,0.6865218877792358,1.9664192199707031,4.01092004776001,0.3142479360103607,-0.09334791451692581,-0.08486559242010117,0.9860858917236328
201,63973,63970,0.04124496504664421,-0.0990796834230423,0.9885639548301697,-0.40021374821662903,0.07443303614854813,0.899002194404602,1.9661176204681396,4.010354995727539,0.31431853771209717,-0.00842395517975092,-0.10150421410799026,0.9912106394767761
202,63983,63980,0.004232318606227636,-0.07082077115774155,1.0524346828460693,0.36349084973335266,1.17452871799469,0.355243057012558,1.9667623043060303,4.009926795959473,0.3143523037433624,-0.014293712563812733,-0.10400750488042831,0.9991763830184937
203,63993,63990,0.031899675726890564,-0.025611288845539093,0.9936043620109558,0.08276680111885071,4.218027591705322,0.17765311896800995,1.9675160646438599,4.009815216064453,0.3139502704143524,-0.04035577550530434,-0.09510757029056549,1.0022861957550049
204,64003,64000,-0.0010379463201388717,0.07930776476860046,1.0125877857208252,-0.48734527826309204,6.427871227264404,0.18716654181480408,1.969455361366272,4.009415626525879,0.31390994787216187,-0.25322091579437256,-0.0879591852426529,1.013534426689148
205,64013,64010,-0.011742810718715191,0.11596477031707764,0.9670574069023132,0.3868200182914734,6.260974884033203,0.15872997045516968,1.971007227897644,4.00974178314209,0.313928484916687,-0.3184049725532532,-0.08289598673582077,1.015621304512024
206,64023,64020,0.017921093851327896,0.0843861773610115,0.951974630355835,1.1214706897735596,2.875124216079712,0.46317240595817566,1.9710115194320679,4.008979797363281,0.31402260065078735,-0.2914382517337799,-0.06188809871673584,1.0146877765655518
207,64033,64030,-0.01704212836921215,0.08794312179088593,1.0120183229446411,1.912234902381897,-1.869552731513977,0.820146918296814,1.9727911949157715,4.0087504386901855,0.3150326609611511,-0.3632447421550751,-0.03377503156661987,1.0206772089004517
208,64043,64040,-0.021712835878133774,0.009235703386366367,1.0056294202804565,2.6452720165252686,-5.620606422424316,0.16704685986042023,1.973381519317627,4.00847864151001,0.31513193249702454,-0.2899409234523773,0.003333180909976363,1.024817705154419
209,64053,64050,-0.01037506852298975,-0.009131220169365406,0.9738513231277466,0.9472616314888,-4.7104268074035645,0.5409237146377563,1.9744797945022583,4.008241653442383,0.3151465952396393,-0.25362130999565125,0.039473921060562134,1.0261752605438232
210,64063,64060,0.011213197372853756,-0.013744666241109371,0.9887434840202332,-0.7186949253082275,-3.387882709503174,1.0175213813781738,1.9747809171676636,4.007619380950928,0.3163016736507416,-0.08446018397808075,-0.024173004552721977,1.01213800907135
211,64073,64070,0.011041359044611454,0.0142280338332057,0.995093584060669,-1.7879122495651245,-1.8596093654632568,0.8655247688293457,1.9757649898529053,4.0075459480285645,0.3163488805294037,-0.09709272533655167,-0.03551200404763222,1.0230846405029297
212,64083,64080,0.01886810176074505,-0.035817742347717285,0.9717209935188293,-1.9061065912246704,-0.2475234568119049,1.0589593648910522,1.97703218460083,4.007650375366211,0.31644192337989807,-0.059250008314847946,-0.05869806185364723,1.0316537618637085
213,64093,64090,-0.029919134452939034,-0.03335360065102577,0.9946195483207703,-0.5193272829055786,1.9021708965301514,0.9197915196418762,1.977555751800537,4.007078647613525,0.31461700797080994,-0.05143975839018822,-0.07848876714706421,1.0424857139587402
214,64103,64100,0.008488588966429234,-0.038778167217969894,0.9547317028045654,0.7556489706039429,3.221665620803833,0.7792988419532776,1.977691888809204,4.007859706878662,0.3145570158958435,-0.00400930643081665,-0.14768114686012268,1.0533502101898193
215,64113,64110,-0.04165397956967354,0.08763886988162994,0.9742748141288757,3.96860933303833,0.7295196056365967,1.168086290359497,1.97964608669281,4.007874011993408,0.3143824338912964,-0.15084058046340942,-0.12204178422689438,1.0631656646728516
216,64123,64120,-0.03953447565436363,-0.03621680662035942,1.025223970413208,5.485079765319824,1.5408800840377808,0.6259380578994751,1.9797126054763794,4.007266521453857,0.31435340642929077,-0.09822055697441101,-0.04442824050784111,1.068283200263977
217,64133,64130,0.04639534279704094,-0.14591805636882782,0.9649043679237366,5.300937175750732,2.571779727935791,0.31215646862983704,1.9820986986160278,4.00687313079834,0.3162921667098999,-0.20530696213245392,0.0501072071492672,1.075188159942627
218,64143,64140,0.02559569850564003,-0.05870743468403816,1.0041557550430298,4.677632808685303,3.261380672454834,0.29982030391693115,1.9833372831344604,4.007826805114746,0.31622418761253357,-0.31268224120140076,-0.0055816019885241985,1.0877506732940674
219,64153,64150,0.04805578291416168,-0.06289937347173691,0.9460167288780212,2.848341226577759,1.955162525177002,0.8361296057701111,1.9829462766647339,4.0080366134643555,0.31633734703063965,-0.25793248414993286,0.00859405379742384,1.0913172960281372
220,64163,64160,0.045126911252737045,-0.08198672533035278,0.9753098487854004,1.9315567016601562,-2.2767980098724365,1.0661152601242065,1.9839059114456177,4.007531642913818,0.3161681890487671,-0.2522193491458893,0.07225216180086136,1.0986493825912476
221,64173,64170,0.0013170328456908464,-0.03391899913549423,1.0214251279830933,0.7403556108474731,-4.5752644538879395,0.9445041418075562,1.9842255115509033,4.0087480545043945,0.3161289393901825,-0.18856419622898102,0.04248349368572235,1.1174179315567017
222,64183,64180,0.0028102213982492685,0.0027564018964767456,1.040984869003296,-0.1454320102930069,-4.912848949432373,0.5837656855583191,1.9858124256134033,4.011473178863525,0.3160485029220581,-0.16507942974567413,0.06990059465169907,1.1617345809936523
223,64193,64190,0.02971341647207737,-0.02871805429458618,0.9878004193305969,-0.14278846979141235,-1.2844480276107788,0.11230076104402542,1.986024260520935,4.010191917419434,0.31815293431282043,-0.07863934338092804,0.16095468401908875,1.1879618167877197
224,64203,64200,-0.011312531307339668,0.12149292975664139,0.9887158870697021,1.5279147624969482,0.11805528402328491,0.5314969420433044,1.9857841730117798,4.0127787590026855,0.3181789219379425,-0.047758158296346664,0.17861108481884003,1.205251932144165
225,64213,64210,0.0515284389257431,-0.0007330984226427972,0.9317296147346497,1.7409069538116455,0.2740468382835388,0.9686787724494934,1.987507700920105,4.013148784637451,0.31830018758773804,-0.11147001385688782,0.1407650113105774,1.225838303565979
226,64223,64220,-0.012513273395597935,0.0007595552015118301,1.0307430028915405,0.8101598024368286,2.5718367099761963,0.7907426357269287,1.9874852895736694,4.013071537017822,0.31949517130851746,-0.1907014697790146,0.17171809077262878,1.2358835935592651
227,64233,64230,-0.009247485548257828,-0.01792779378592968,0.9713756442070007,1.839847207069397,2.2953591346740723,1.1652445793151855,1.9881194829940796,4.013681411743164,0.31961724162101746,-0.21158260107040405,0.1303613930940628,1.2459293603897095
228,64243,64240,-0.03581548482179642,0.016947289928793907,0.9968881607055664,2.5474557876586914,1.3515737056732178,0.8452619314193726,1.9890525341033936,4.013631820678711,0.3197299838066101,-0.22072666883468628,0.17848463356494904,1.2547943592071533
229,64253,64250,0.0287692379206419,-0.04696500673890114,0.9989475607872009,2.6313111782073975,-1.7641491889953613,0.6361187100410461,1.989753007888794,4.01557731628418,0.31997644901275635,-0.1682465672492981,0.1423305869102478,1.2955060005187988
230,64263,64260,-0.03606268763542175,0.06122405454516411,0.9885024428367615,1.541599988937378,-1.998575210571289,0.9221985340118408,1.991039752960205,4.015462875366211,0.3211030960083008,-0.19213679432868958,0.19997838139533997,1.3013951778411865
231,64273,64270,0.006341117899864912,-0.014254335314035416,0.9557684659957886,0.5405500531196594,-2.8879661560058594,0.5784302949905396,1.9920382499694824,4.017146110534668,0.32128575444221497,-0.20413127541542053,0.2368079274892807,1.3375378847122192
232,64283,64280,-0.0012670500436797738,-0.00039738533087074757,0.9997633099555969,0.21992695331573486,-3.8559370040893555,0.8116216659545898,1.99217689037323,4.016778945922852,0.32155388593673706,-0.05599972978234291,0.25849592685699463,1.3253427743911743
233,64293,64290,-0.04796040430665016,0.011983253993093967,0.9975084066390991,0.5541927218437195,-4.656585216522217,0.826314389705658,1.99282968044281,4.0154547691345215,0.31938403844833374,-0.054935745894908905,0.26697152853012085,1.3262466192245483
234,64303,64300,-0.018339043483138084,-0.04505413770675659,0.970590353012085,0.8963513374328613,-3.948685884475708,0.6662613749504089,1.9940755367279053,4.01472806930542,0.3193313479423523,-0.05379974842071533,0.27816545963287354,1.3369206190109253
235,64313,64310,-0.044201675802469254,-0.012178645469248295,1.0272185802459717,-1.324961543083191,1.690995216369629,0.6835564970970154,1.99307382106781,4.014739990234375,0.3194541037082672,0.07160388678312302,0.2897430956363678,1.3462603092193604
236,64323,64320,-3.428901982260868e-05,0.005197911523282528,0.9800779819488525,-0.7894373536109924,3.8671345710754395,0.9691495895385742,1.9939854145050049,4.0170578956604,0.31700950860977173,0.04831165075302124,0.2765975296497345,1.3851988315582275
237,64333,64330,0.023889223113656044,-0.002016537357121706,0.9679714441299438,-0.1498495191335678,3.8121700286865234,0.24352030456066132,1.994260549545288,4.016843318939209,0.31685471534729004,0.05636384338140488,0.2640247344970703,1.3957628011703491
238,64343,64340,-0.001222478225827217,0.010619302280247211,0.9386254549026489,-1.0914077758789062,6.237691879272461,0.9761969447135925,1.9947479963302612,4.0173444747924805,0.3166886866092682,0.05244153365492821,0.18520890176296234,1.3987910747528076
