,timestamp_start,timestamp_end,acc.x,acc.y,acc.z,gyro.x,gyro.y,gyro.z,stateEstimate.x,stateEstimate.y,stateEstimate.z,stabilizer.pitch,stabilizer.roll,stabilizer.yaw
0,19078,19077,0.03415631875395775,-0.08792127668857574,1.0299800634384155,-4.352944374084473,6.1132893562316895,1.1294504404067993,1.9451016187667847,3.910472869873047,0.1616113781929016,0.3296394646167755,0.8351520895957947,3.096144199371338
1,19088,19087,0.010584277100861073,-0.06320076435804367,1.02403724193573,-7.124866008758545,8.743898391723633,1.2542616128921509,1.9436379671096802,3.9123964309692383,0.16093860566616058,0.38125887513160706,0.8122811913490295,3.126415967941284
2,19098,19097,-0.01294498611241579,0.03085607849061489,1.0877797603607178,-8.505812644958496,11.461474418640137,1.0166712999343872,1.942894458770752,3.913330078125,0.16263429820537567,0.08302896469831467,0.819905698299408,3.1031241416931152
3,19108,19107,0.0011633733520284295,-0.03369127959012985,1.034189224243164,-8.891702651977539,12.064456939697266,1.1866397857666016,1.9421321153640747,3.9127426147460938,0.16425256431102753,-0.19105075299739838,0.6586275100708008,3.091421365737915
4,19118,19117,0.005830942653119564,0.06827795505523682,1.0560542345046997,-7.861384868621826,9.344353675842285,1.155754566192627,1.941069483757019,3.9125404357910156,0.16583028435707092,-0.2105909287929535,0.6551105380058289,3.1187639236450195
5,19128,19127,-0.02571571245789528,0.07609976828098297,1.017585277557373,-7.085470676422119,9.291887283325195,0.9296039938926697,1.9373809099197388,3.9125163555145264,0.1700831800699234,-0.300274133682251,0.5090067982673645,3.129354476928711
6,19138,19137,0.007856774143874645,-0.06756468862295151,1.0933688879013062,-6.172883987426758,3.900968551635742,1.350977897644043,1.937845230102539,3.9133658409118652,0.1718776673078537,-0.39773809909820557,0.5168960690498352,3.141493082046509
7,19148,19147,0.01745624467730522,-0.060374148190021515,1.1199839115142822,-3.245544672012329,2.4203946590423584,0.5208216309547424,1.9343562126159668,3.9135937690734863,0.1734354943037033,-0.2342282235622406,0.8342317938804626,3.201537847518921
8,19158,19157,0.04039892554283142,-0.10547102242708206,1.0400097370147705,-0.5070725083351135,0.5470682978630066,0.21704566478729248,1.9338905811309814,3.9130961894989014,0.17503085732460022,-0.2660064399242401,0.7804861068725586,3.201037883758545
9,19168,19167,0.024912426248192787,0.034828152507543564,1.001778244972229,-2.956606864929199,5.335728168487549,0.4621226489543915,1.9336433410644531,3.9145240783691406,0.17727410793304443,-0.34554606676101685,0.7298194766044617,3.19282865524292
10,19178,19177,-0.04836227372288704,0.022032495588064194,1.1556804180145264,-9.228867530822754,0.2273525595664978,0.7674734592437744,1.93351411819458,3.9159276485443115,0.17950531840324402,-0.31646350026130676,0.6013051271438599,3.19988751411438
11,19188,19187,-0.01983756013214588,0.10112715512514114,1.1032346487045288,-13.08213996887207,1.4353222846984863,1.2640024423599243,1.9318466186523438,3.9188592433929443,0.18205580115318298,-0.41615718603134155,0.41481852531433105,3.188643455505371
12,19198,19197,-0.014760750345885754,0.05797554552555084,1.1089311838150024,-17.82889747619629,3.8117096424102783,1.3161094188690186,1.9315605163574219,3.9227805137634277,0.1844603717327118,-0.539421558380127,0.15857775509357452,3.179431438446045
13,19208,19207,0.015699461102485657,-0.06463032960891724,1.0189725160598755,-16.39687156677246,4.519557952880859,0.24970562756061554,1.9330604076385498,3.924968719482422,0.18688641488552094,-0.6721020936965942,-0.0297580324113369,3.175368070602417
14,19218,19217,-0.007144216913729906,-0.0782243013381958,0.9993475675582886,-12.698600769042969,3.8359169960021973,0.12070252746343613,1.9336998462677002,3.928454637527466,0.18913915753364563,-0.8479235172271729,-0.30763062834739685,3.1483657360076904
15,19228,19227,0.03910442069172859,-0.16865593194961548,0.9816319942474365,-6.441578388214111,1.2117586135864258,0.6020890474319458,1.933911681175232,3.9305074214935303,0.1925562620162964,-0.9239698052406311,-0.4892502725124359,3.140481472015381
16,19238,19237,0.04836910963058472,-0.048643987625837326,1.0352623462677002,1.0165038108825684,-5.178266525268555,0.1633470505475998,1.9321446418762207,3.9336979389190674,0.1951226443052292,-0.6757773756980896,-0.6050447821617126,3.140994071960449
17,19248,19247,-0.003163200570270419,0.027379587292671204,0.9726786613464355,7.0620551109313965,-9.906590461730957,0.3227066397666931,1.931185007095337,3.9345169067382812,0.1980210244655609,-0.8758217096328735,-0.5309387445449829,3.1463029384613037
18,19258,19257,-0.00753615191206336,0.013198986649513245,1.0252753496170044,11.322500228881836,-12.44386100769043,0.2707911729812622,1.9407132863998413,3.931690216064453,0.19993819296360016,-2.2490363121032715,0.052153732627630234,3.2459757328033447
19,19268,19267,-0.014657930471003056,0.09896481037139893,0.9718149900436401,11.756312370300293,-11.81873607635498,-1.072434902191162,1.9406492710113525,3.9302728176116943,0.20425263047218323,-1.9213253259658813,0.17158395051956177,3.243617057800293
20,19278,19277,0.006583717651665211,0.01890568993985653,0.9681776762008667,7.836048126220703,-21.010343551635742,-1.5138802528381348,1.9413552284240723,3.9283394813537598,0.2068408578634262,-1.5260462760925293,0.2504895031452179,3.2257890701293945
21,19288,19287,-0.04242095723748207,-0.010351241566240788,1.0335633754730225,-0.10048248618841171,-31.063262939453125,-1.8398165702819824,1.9389983415603638,3.9290523529052734,0.21463902294635773,-1.080204963684082,0.2354561984539032,3.1919162273406982
22,19298,19297,-0.0728747695684433,0.054228655993938446,0.9933472871780396,-6.593125343322754,-36.775081634521484,-1.5260859727859497,1.9376672506332397,3.9278128147125244,0.21814480423927307,-0.4620302617549896,0.1723177582025528,3.1680428981781006
23,19308,19307,-0.06775213778018951,0.03545234724879265,0.9958121180534363,-15.256454467773438,-36.31889343261719,-1.4537509679794312,1.9373540878295898,3.9285080432891846,0.2211715579032898,0.0227865818887949,-0.011479407548904419,3.1374547481536865
24,19318,19317,0.012656835839152336,-0.049825768917798996,0.9276533722877502,-17.371252059936523,-30.972698211669922,-1.774526834487915,1.9386478662490845,3.9277923107147217,0.22442121803760529,0.2286921739578247,-0.1154506579041481,3.132134437561035
25,19328,19327,-0.03702414035797119,0.04169707000255585,1.0279533863067627,-15.9912691116333,-25.519041061401367,-1.9173519611358643,1.9377427101135254,3.926131248474121,0.22732828557491302,0.4941425025463104,-0.22857168316841125,3.1254916191101074
26,19338,19337,-0.04564880579710007,0.0688718855381012,1.022648572921753,-12.141060829162598,-14.760485649108887,-2.3015618324279785,1.9375498294830322,3.9284276962280273,0.2302340269088745,0.7560802698135376,-0.3698485195636749,3.108553409576416
27,19348,19347,-0.024446692317724228,0.04090261086821556,0.9775369167327881,-7.858615875244141,-4.832443714141846,-2.7321743965148926,1.9363058805465698,3.928590774536133,0.233129620552063,0.9904167652130127,-0.5129120349884033,3.0819544792175293
28,19358,19357,-0.021480944007635117,0.010610614903271198,0.9600998759269714,-3.6465272903442383,-0.4188903272151947,-1.942203164100647,1.9355155229568481,3.929967164993286,0.23419195413589478,1.1015139818191528,-0.6540443897247314,3.0513060092926025
29,19368,19367,0.040359433740377426,-0.06580273807048798,0.9183164238929749,-2.343886137008667,4.927412033081055,-2.376293897628784,1.9355467557907104,3.9296326637268066,0.2369028478860855,1.1200557947158813,-0.7431655526161194,3.0266311168670654
30,19378,19377,0.08659129589796066,-0.10234663635492325,0.8834040760993958,0.7057307958602905,4.756867408752441,-2.6281137466430664,1.9353984594345093,3.9290950298309326,0.23954325914382935,1.1007264852523804,-0.7791764736175537,2.99953556060791
31,19388,19387,0.03599335253238678,-0.039160311222076416,0.9289239645004272,3.022446632385254,3.3230369091033936,-2.318988800048828,1.9349545240402222,3.9289422035217285,0.24181409180164337,1.170527696609497,-0.765590488910675,2.9691379070281982
32,19398,19397,-0.04631076008081436,0.06722798198461533,0.9526892900466919,4.638147830963135,0.5496149063110352,-2.722984552383423,1.9349325895309448,3.9276909828186035,0.24428124725818634,1.104662299156189,-0.7223048210144043,2.9457154273986816
33,19408,19407,-0.03764474764466286,0.08029752224683762,0.9181108474731445,5.057377815246582,0.6271215677261353,-2.0908849239349365,1.9337106943130493,3.9283907413482666,0.246610626578331,1.2020578384399414,-0.737034022808075,2.9160592555999756
34,19418,19417,-0.006445350591093302,0.0028679603710770607,0.9075712561607361,4.460586071014404,-0.9105362296104431,-2.243924379348755,1.9340102672576904,3.9280898571014404,0.2499852031469345,1.2286864519119263,-0.6000500321388245,2.8859364986419678
35,19428,19427,-0.009136748500168324,0.06953202933073044,0.892673671245575,2.9449548721313477,-0.2316773235797882,-3.150388479232788,1.9337859153747559,3.9293432235717773,0.252266526222229,1.249474048614502,-0.7118359804153442,2.8677732944488525
36,19438,19437,-0.009973214939236641,0.019062589854002,0.8913847804069519,2.606140613555908,-0.8691471219062805,-3.2057924270629883,1.9342093467712402,3.929859161376953,0.25442221760749817,1.270369291305542,-0.7440058588981628,2.841989040374756
37,19448,19447,0.046308569610118866,-0.015824176371097565,0.8722463250160217,1.010944128036499,5.475457191467285,-3.384328842163086,1.933957815170288,3.930288076400757,0.2565096914768219,1.231769323348999,-1.0792564153671265,2.851555824279785
38,19458,19457,0.21018078923225403,-0.04772614315152168,0.8004389405250549,2.378180980682373,7.156805515289307,-3.160879611968994,1.9276000261306763,3.931758165359497,0.2597031593322754,1.8662127256393433,-0.5563654899597168,2.696946382522583
39,19468,19467,0.15096504986286163,-0.1443864405155182,0.8676239252090454,5.270788669586182,6.107410430908203,-2.3885788917541504,1.9244744777679443,3.9310715198516846,0.26108863949775696,1.9894412755966187,-0.3442629277706146,2.6257989406585693
40,19478,19477,0.09094593673944473,-0.17846225202083588,0.900227963924408,9.552582740783691,7.358436584472656,-1.0821022987365723,1.9269556999206543,3.931474447250366,0.2640412151813507,1.5645803213119507,-0.2367832511663437,2.6337523460388184
41,19488,19487,0.03271147981286049,-0.18137821555137634,0.8886098861694336,8.31346321105957,12.69441032409668,-0.7093999981880188,1.9214389324188232,3.9377219676971436,0.26604968309402466,1.917780876159668,-0.8542847633361816,2.7044124603271484
42,19498,19497,-0.031110253185033798,-0.1138790175318718,0.9191758632659912,4.434133529663086,17.39319610595703,-1.4917629957199097,1.9205074310302734,3.938433885574341,0.2680323123931885,1.609124779701233,-0.7817056775093079,2.707274913787842
43,19508,19507,-0.04381638392806053,0.0032530168537050486,0.9775468707084656,3.6851539611816406,24.75783348083496,-2.2985494136810303,1.920247197151184,3.9406890869140625,0.269545316696167,1.2076243162155151,-0.6655696034431458,2.6851048469543457
44,19518,19517,-0.019027680158615112,0.01754855364561081,0.9641332030296326,5.6346235275268555,28.80651092529297,-2.32269287109375,1.9210865497589111,3.939789295196533,0.2694946825504303,1.1815407276153564,-0.4622575044631958,2.609783887863159
45,19528,19527,-0.014134535565972328,-0.00918127503246069,0.9448070526123047,8.270476341247559,28.672822952270508,-1.812957763671875,1.9184365272521973,3.939610004425049,0.27071309089660645,0.7272266149520874,-0.38521116971969604,2.5965657234191895
46,19538,19537,-0.011719164438545704,-0.021488366648554802,0.9423395395278931,9.190529823303223,26.889217376708984,-1.8522825241088867,1.917796015739441,3.937380790710449,0.2720523476600647,0.5415492057800293,-0.20653988420963287,2.5542151927948
47,19548,19547,-0.11764736473560333,0.052543409168720245,0.9482284784317017,9.440484046936035,21.034717559814453,-1.1000789403915405,1.9168034791946411,3.9358792304992676,0.2732622027397156,0.25060880184173584,-0.09282217174768448,2.533052921295166
48,19558,19557,0.0294174887239933,-0.10012030601501465,0.8954690098762512,7.364419460296631,18.82254981994629,-1.9529162645339966,1.9159806966781616,3.9367291927337646,0.27573323249816895,-0.03805149346590042,-0.012180501595139503,2.5247175693511963
49,19568,19567,0.03488290309906006,-0.06499521434307098,0.9003252983093262,5.135194301605225,11.26137638092041,-1.4547162055969238,1.9153945446014404,3.937744140625,0.2768585979938507,-0.13465508818626404,0.10792244225740433,2.501359224319458
50,19578,19577,0.04415115341544151,-0.02868092805147171,0.9204614758491516,2.258350133895874,10.32246208190918,-1.5976189374923706,1.9139533042907715,3.93869948387146,0.2778726816177368,-0.3405820429325104,0.17862793803215027,2.488814115524292
51,19588,19588,0.09499576687812805,-0.10005152225494385,0.9207349419593811,0.5929478406906128,7.4069719314575195,-1.1881656646728516,1.9146283864974976,3.93804669380188,0.2774926722049713,-0.5681799054145813,0.21238717436790466,2.4769482612609863
52,19598,19597,0.13911205530166626,-0.29575949907302856,0.9818918704986572,-0.5647764801979065,4.58676290512085,-0.7995758652687073,1.9139026403427124,3.9383981227874756,0.27829232811927795,-0.5055381059646606,0.2173079401254654,2.4639549255371094
53,19608,19607,0.043872538954019547,-0.14151082932949066,0.9808806777000427,-0.5534546971321106,1.9405746459960938,-1.1649162769317627,1.9115968942642212,3.9389238357543945,0.2790912389755249,-0.48349428176879883,0.21881289780139923,2.4516336917877197
54,19618,19617,0.014830543659627438,-0.18223939836025238,0.9586184620857239,-1.0818463563919067,1.3785649538040161,-1.0229370594024658,1.910237431526184,3.9381561279296875,0.2787324786186218,-0.6092264652252197,0.2899772524833679,2.4421517848968506
55,19628,19627,-0.012558124028146267,-0.2813063859939575,1.003563642501831,-1.124136209487915,2.550196886062622,-1.12982177734375,1.9106327295303345,3.9384074211120605,0.2794276177883148,-0.5794897675514221,0.26914989948272705,2.4288203716278076
56,19638,19637,-0.07138092070817947,-0.17361514270305634,1.0625700950622559,-0.8372423648834229,4.370596408843994,-0.8460479378700256,1.90897536277771,3.9396557807922363,0.2800988554954529,-0.6657885909080505,0.25254032015800476,2.4157867431640625
57,19648,19647,-0.03612770885229111,-0.02670653723180294,1.0238304138183594,-1.991961121559143,10.194616317749023,-0.9422553777694702,1.9077528715133667,3.939148187637329,0.28082698583602905,-0.7397969961166382,0.22248506546020508,2.4055776596069336
58,19658,19657,0.05271223559975624,-0.00499296560883522,0.9504920244216919,-3.0162885189056396,10.893635749816895,-0.9258448481559753,1.9074105024337769,3.9390604496002197,0.27906376123428345,-0.9954013824462891,0.17687450349330902,2.393932819366455
59,19668,19667,0.03865397348999977,-0.028099797666072845,0.9657624959945679,-1.5136868953704834,9.928010940551758,-0.5055285692214966,1.905981183052063,3.9383432865142822,0.27961623668670654,-1.074752926826477,0.22359201312065125,2.393808603286743
60,19678,19677,0.0050554294139146805,0.0704793781042099,1.0183528661727905,-1.9162338972091675,5.188124179840088,0.029531152918934822,1.905138611793518,3.9386558532714844,0.28014540672302246,-1.1711019277572632,0.2657974362373352,2.398347854614258
61,19688,19687,0.025967150926589966,-0.0178116112947464,0.9775444865226746,-1.5057581663131714,1.3846412897109985,-0.6172669529914856,1.9050334692001343,3.939769744873047,0.28092023730278015,-1.2753748893737793,0.22573094069957733,2.388554811477661
62,19698,19697,-0.00024801117251627147,-0.030022617429494858,1.00553560256958,-1.476503610610962,-2.7936174869537354,-0.5875608921051025,1.9047611951828003,3.9405362606048584,0.2814677655696869,-1.2978841066360474,0.2678094804286957,2.3898918628692627
63,19708,19707,0.017284948378801346,-0.029712656512856483,0.9500661492347717,-1.1461511850357056,-5.011726379394531,-0.24446509778499603,1.903848648071289,3.940807580947876,0.2820071578025818,-1.1842994689941406,0.22804050147533417,2.3827297687530518
64,19718,19717,-0.021219490095973015,0.05911066755652428,0.9381222128868103,-0.9768380522727966,-7.740512847900391,-0.04402034357190132,1.9033896923065186,3.940117597579956,0.2834714651107788,-1.1077070236206055,0.2786661684513092,2.39026141166687
65,19728,19727,0.006122716702520847,-0.00761747732758522,0.9816117286682129,-1.4713528156280518,-7.463065147399902,0.37993288040161133,1.9027597904205322,3.9404919147491455,0.283955454826355,-1.0252540111541748,0.23080064356327057,2.3848555088043213
66,19738,19737,0.01774638146162033,-0.12677522003650665,1.0526946783065796,-3.539679765701294,-5.849982261657715,-0.26078078150749207,1.901969075202942,3.941194772720337,0.2843920588493347,-1.0309298038482666,0.16180793941020966,2.37581729888916
67,19748,19747,0.02089284174144268,-0.07072661817073822,0.9949823021888733,-5.3156609535217285,-3.8471763134002686,-0.5268137454986572,1.902331829071045,3.9413068294525146,0.28446537256240845,-0.9875383377075195,0.060833271592855453,2.36076021194458
68,19758,19757,0.017237653955817223,-0.009145212359726429,1.0012173652648926,-4.335699081420898,-0.023876138031482697,-0.17877818644046783,1.9023820161819458,3.9415550231933594,0.28445929288864136,-1.004534363746643,0.05090698227286339,2.3637568950653076
69,19768,19767,0.030857542529702187,-0.012082564644515514,0.9805326461791992,-2.9651010036468506,0.44816723465919495,-0.49069201946258545,1.901427984237671,3.9401211738586426,0.2849365174770355,-1.0320428609848022,0.13596905767917633,2.3836910724639893
70,19778,19777,0.022317878901958466,0.0007204235880635679,0.9760119318962097,-1.712530493736267,1.3851324319839478,-0.23626579344272614,1.9012949466705322,3.9388136863708496,0.28541621565818787,-1.06382155418396,0.14940539002418518,2.386549472808838
71,19788,19787,0.07440336793661118,-0.08865386992692947,0.930869460105896,-2.7627058029174805,0.5354979634284973,-0.06869815289974213,1.9006439447402954,3.938397169113159,0.28656670451164246,-1.079398512840271,0.08106712996959686,2.370818614959717
72,19798,19797,0.030053207650780678,-0.07626309245824814,1.0007072687149048,-1.699881672859192,-5.221085548400879,-0.3372306823730469,1.8990588188171387,3.938382387161255,0.2870720624923706,-1.023898959159851,0.03531130403280258,2.3646936416625977
73,19808,19807,0.015110054984688759,-0.016019927337765694,0.9997202157974243,-1.944811224937439,-8.099337577819824,0.07987459748983383,1.8980902433395386,3.9392383098602295,0.2874934673309326,-0.9171205163002014,-0.028715627267956734,2.359067916870117
74,19818,19817,-0.012909159995615482,-0.06920669227838516,1.012751817703247,-2.8520030975341797,-9.76852035522461,0.11002228409051895,1.8965932130813599,3.9393348693847656,0.29131051898002625,-0.8691046237945557,-0.06345988065004349,2.353787660598755
75,19828,19827,0.01668410375714302,-0.06726299971342087,1.006158709526062,-2.423600673675537,-8.427289962768555,0.0774793028831482,1.8951947689056396,3.939425468444824,0.2919701039791107,-0.7408662438392639,0.0275009423494339,2.3772037029266357
76,19838,19837,0.088990218937397,-0.09161362797021866,1.0191527605056763,-2.668358087539673,-7.8151936531066895,0.11936591565608978,1.8952429294586182,3.9373738765716553,0.2926509380340576,-0.7624379396438599,-0.040197718888521194,2.3655686378479004
77,19848,19847,0.1079290583729744,-0.14226622879505157,1.0334856510162354,-0.6524921655654907,-5.084305286407471,0.12558197975158691,1.8950468301773071,3.936058759689331,0.2938338816165924,-0.6470568776130676,0.05658867582678795,2.3897035121917725
78,19858,19857,0.04863383620977402,-0.09960325807332993,1.0142000913619995,-2.6960554122924805,-2.5217103958129883,-0.7448075413703918,1.8950376510620117,3.935260772705078,0.2945346534252167,-0.6481944918632507,-0.005829689558595419,2.379472494125366
79,19868,19867,0.018338726833462715,-0.0358852744102478,0.9743665456771851,-2.64719295501709,0.7531648874282837,-0.8632394075393677,1.8953301906585693,3.934782028198242,0.2952832877635956,-0.6168208718299866,-0.07215508818626404,2.3641700744628906
80,19878,19877,0.046231865882873535,-0.05396093428134918,0.9482994675636292,-4.175793170928955,-0.5348124504089355,-0.38075223565101624,1.8947341442108154,3.937138557434082,0.29604387283325195,-0.5993317365646362,-0.14614543318748474,2.349303722381592
81,19888,19887,-0.010737203992903233,-0.010412442497909069,1.0230075120925903,-3.073031425476074,-3.055612325668335,-0.4875525236129761,1.893974781036377,3.937868118286133,0.2968299388885498,-0.5723296999931335,-0.1422024965286255,2.349979877471924
82,19898,19897,0.02649713307619095,-0.1317194551229477,1.0369553565979004,-2.6932783126831055,-4.964362621307373,-0.09945141524076462,1.8926849365234375,3.937256097793579,0.29758599400520325,-0.5176398754119873,-0.21692480146884918,2.338059663772583
83,19908,19907,0.03616887331008911,-0.19512976706027985,1.0208278894424438,-1.6372320652008057,-7.471108913421631,-0.053813084959983826,1.8915908336639404,3.937596082687378,0.2983199954032898,-0.5057175159454346,-0.27317169308662415,2.333343505859375
84,19918,19917,0.002582541201263666,-0.19909392297267914,1.0639994144439697,0.6241238117218018,-8.540843963623047,-0.25562095642089844,1.8913575410842896,3.936530113220215,0.2973763942718506,-0.44359254837036133,-0.3008539378643036,2.3316497802734375
85,19928,19927,-0.02398892492055893,-0.03690560162067413,1.0386775732040405,2.6092112064361572,-5.494207859039307,-0.5989752411842346,1.8916341066360474,3.9363179206848145,0.29809510707855225,-0.49619993567466736,-0.08387036621570587,2.3600411415100098
86,19938,19937,0.04119059816002846,-0.048132412135601044,0.9210136532783508,2.0550966262817383,-5.401778221130371,-0.7510209083557129,1.8911645412445068,3.936629056930542,0.2987924814224243,-0.4542093276977539,-0.08536244928836823,2.352933406829834
87,19948,19947,0.03525501862168312,-0.011774696409702301,0.9487571120262146,-1.1436001062393188,-4.978960037231445,-0.6148051619529724,1.8906329870224,3.9364798069000244,0.296794593334198,-0.33850401639938354,-0.10093244165182114,2.341357707977295
88,19958,19957,0.05620879307389259,-0.0394834466278553,0.9602934122085571,-3.738868236541748,-4.912171840667725,-0.21200954914093018,1.8894096612930298,3.9374353885650635,0.2973129153251648,-0.3133624792098999,-0.07827945798635483,2.3371567726135254
89,19968,19967,0.06443081796169281,-0.11692379415035248,0.9665297269821167,-5.592535495758057,-6.289361953735352,-0.27375972270965576,1.8895584344863892,3.935986042022705,0.29777294397354126,-0.19895154237747192,-0.09719328582286835,2.3347251415252686
90,19978,19977,0.023838862776756287,-0.15851719677448273,0.974524974822998,-6.789487838745117,-6.607496738433838,-0.35024121403694153,1.8883293867111206,3.9366509914398193,0.2982400953769684,-0.14896364510059357,-0.22742217779159546,2.324094533920288
91,19988,19987,-0.017056114971637726,-0.055055003613233566,0.9955039024353027,-6.01624059677124,-5.761566638946533,0.032043203711509705,1.8869969844818115,3.93677020072937,0.29853352904319763,-0.10685862600803375,-0.2809878885746002,2.3225488662719727
92,19998,19997,-0.02329023741185665,-0.002198458882048726,0.9562045931816101,-4.91032075881958,-5.071169376373291,-0.6238522529602051,1.8873934745788574,3.936765670776367,0.2989012897014618,-0.0466153509914875,-0.34511566162109375,2.3221490383148193
93,20008,20007,-0.02603912353515625,0.02417437732219696,0.9891684651374817,-2.5987906455993652,-3.2117226123809814,0.03819461166858673,1.8864132165908813,3.937868356704712,0.29922014474868774,0.08640080690383911,-0.4853081703186035,2.309809446334839
94,20018,20017,-0.06416849792003632,0.10806765407323837,0.9671371579170227,-0.4837237298488617,-3.867189645767212,0.20042523741722107,1.8859000205993652,3.937488317489624,0.3017459213733673,0.007151572033762932,-0.4567965269088745,2.313018798828125
95,20028,20027,-0.04249218478798866,0.028293371200561523,1.0217474699020386,2.6656365394592285,-0.8718428611755371,-0.13049885630607605,1.8864030838012695,3.9367644786834717,0.3022225797176361,0.058872196823358536,-0.46786463260650635,2.310406446456909
96,20038,20037,-0.016299663111567497,0.036955494433641434,1.0321627855300903,5.294905662536621,-0.4984230697154999,-0.3193720281124115,1.8865153789520264,3.9367573261260986,0.3026517331600189,0.06986214220523834,-0.4495757818222046,2.309842348098755
97,20048,20047,0.0014690338866785169,-0.018611377105116844,0.9889536499977112,4.449478626251221,0.21620401740074158,-0.4494827389717102,1.8865993022918701,3.93710994720459,0.3034103810787201,0.17870214581489563,-0.3736099302768707,2.305849552154541
98,20058,20057,-0.03477339819073677,0.053471729159355164,0.9572507739067078,3.7040891647338867,4.779480457305908,-0.06868468970060349,1.8853739500045776,3.9365673065185547,0.30388832092285156,0.08185490220785141,-0.31714969873428345,2.3061134815216064
99,20068,20067,-0.08466800302267075,0.1675465703010559,0.9598129987716675,-0.10975498706102371,12.182544708251953,0.31240469217300415,1.885839819908142,3.935899496078491,0.30445772409439087,-0.017542609944939613,-0.3701072931289673,2.3045830726623535
100,20078,20077,-0.01670982874929905,0.0847497433423996,0.9532153010368347,-3.184800386428833,18.25179100036621,0.0037071143742650747,1.886785626411438,3.9367458820343018,0.30461034178733826,-0.12450006604194641,-0.3613162934780121,2.3040850162506104
101,20088,20087,-0.008406833745539188,0.0633297711610794,1.0128170251846313,-3.5302350521087646,18.959823608398438,-0.09020117670297623,1.8874707221984863,3.9357855319976807,0.3049929141998291,-0.4294133186340332,-0.3775206506252289,2.3077943325042725
102,20098,20097,-0.04219982773065567,0.025126537308096886,1.0679936408996582,-2.690918207168579,15.407833099365234,-0.03625268116593361,1.888553500175476,3.936305284500122,0.30532899498939514,-0.46634235978126526,-0.3631969690322876,2.2996888160705566
103,20108,20107,-0.030602313578128815,0.0013594790361821651,1.0162898302078247,-0.7380164861679077,10.503645896911621,-0.3360441029071808,1.887019157409668,3.936713933944702,0.3058866858482361,-0.6844149827957153,-0.40883687138557434,2.2974777221679688
104,20118,20117,-0.02007897011935711,0.024947652593255043,0.9800153970718384,0.04637737199664116,7.614677429199219,0.030400311574339867,1.8881906270980835,3.937021017074585,0.30735263228416443,-0.7563727498054504,-0.42947232723236084,2.291330337524414
105,20128,20127,-0.05127732828259468,-0.014306381344795227,0.9822605848312378,1.6512871980667114,1.8259836435317993,-0.3108639717102051,1.8873329162597656,3.937161922454834,0.30787381529808044,-0.8321541547775269,-0.43145114183425903,2.2882819175720215
106,20138,20137,-0.01639905944466591,-7.652741624042392e-05,0.948809802532196,2.73183274269104,-1.5274791717529297,-0.009718548506498337,1.886549711227417,3.9378809928894043,0.30834463238716125,-0.7613791823387146,-0.405071884393692,2.278700113296509
107,20148,20147,-0.011596685275435448,0.06622370332479477,1.0308078527450562,3.699899196624756,-3.920719623565674,0.20768526196479797,1.8855668306350708,3.9384262561798096,0.30578625202178955,-0.7169727087020874,-0.3598354756832123,2.2765562534332275
108,20158,20157,-0.014225710183382034,0.06013479456305504,1.0219464302062988,4.13737154006958,-3.0058488845825195,-0.015245834365487099,1.8847777843475342,3.938692092895508,0.30601966381073,-0.6537919640541077,-0.30698245763778687,2.2780826091766357
109,20168,20167,-0.05649600178003311,0.11014264822006226,0.9931220412254333,2.8325629234313965,2.231196641921997,0.08469898253679276,1.8843730688095093,3.937992811203003,0.30626511573791504,-0.7070545554161072,-0.2588948607444763,2.2844581604003906
110,20178,20177,-0.012320353649556637,0.11722509562969208,0.9118598103523254,-0.050736892968416214,8.583943367004395,0.4272448420524597,1.8848766088485718,3.9386768341064453,0.30698272585868835,-0.7633368372917175,-0.24274395406246185,2.2887537479400635
111,20188,20187,0.009251685813069344,0.1483452320098877,0.9049233794212341,-2.0690860748291016,12.766693115234375,0.04180116951465607,1.8846713304519653,3.93910551071167,0.307193398475647,-0.8979461193084717,-0.2613622844219208,2.2952139377593994
112,20198,20197,0.032843202352523804,0.05571076273918152,0.9377372860908508,-2.4488415718078613,11.930251121520996,0.3800720274448395,1.8854498863220215,3.9390625953674316,0.30731672048568726,-1.069169521331787,-0.3766593635082245,2.2904934883117676
113,20208,20207,0.01080225594341755,-0.054964929819107056,1.0201029777526855,-2.052473306655884,7.482699394226074,0.4972456991672516,1.8865610361099243,3.939476490020752,0.3073514401912689,-1.1248037815093994,-0.4077507555484772,2.2906458377838135
114,20218,20217,-0.020069502294063568,-0.09843822568655014,1.0632871389389038,-0.3170267939567566,2.0644567012786865,0.2116711139678955,1.8857630491256714,3.939087390899658,0.3037843108177185,-1.1917121410369873,-0.4235098361968994,2.2943804264068604
115,20228,20227,-0.03436211124062538,-0.009346337988972664,1.0341825485229492,3.776823043823242,0.19833829998970032,1.0211623907089233,1.8856549263000488,3.9385364055633545,0.3036635220050812,-1.1978400945663452,-0.4010968804359436,2.2990469932556152
116,20238,20237,0.03231827914714813,-0.056838035583496094,0.9533659815788269,5.7908124923706055,-1.7220131158828735,1.1309494972229004,1.8858768939971924,3.937997817993164,0.3036014437675476,-1.161106824874878,-0.328340083360672,2.31126070022583
117,20248,20247,0.011001304723322392,0.09710385650396347,1.0111359357833862,7.133224010467529,1.1130598783493042,1.332153081893921,1.885971188545227,3.937786340713501,0.3051082491874695,-1.1219398975372314,-0.30158787965774536,2.317139148712158
118,20258,20257,0.0887446403503418,0.04348639026284218,0.9596084356307983,6.634521961212158,1.2646803855895996,0.9350664615631104,1.8847434520721436,3.938148021697998,0.3051292300224304,-1.1729660034179688,-0.2589663565158844,2.3299405574798584
119,20268,20267,0.01687047816812992,-0.02370188571512699,1.037302851676941,4.303170204162598,1.1228606700897217,0.36262190341949463,1.8859758377075195,3.939161777496338,0.3051007390022278,-1.2233058214187622,-0.1552560031414032,2.3465347290039062
120,20278,20277,-0.020625483244657516,-0.0773208811879158,0.9912450909614563,1.9107600450515747,1.9648218154907227,-0.009437254630029202,1.8869521617889404,3.9389946460723877,0.30502817034721375,-1.1976723670959473,-0.16484315693378448,2.343529224395752
121,20288,20287,-0.034718286246061325,0.017712442204356194,1.011932134628296,0.608119010925293,2.5282649993896484,0.9196723103523254,1.8868342638015747,3.939314603805542,0.3050684630870819,-1.2624961137771606,-0.12411472201347351,2.3492796421051025
122,20298,20297,0.03147473931312561,-0.01656199060380459,0.9984386563301086,-0.8842423558235168,1.9329057931900024,1.3925052881240845,1.8870679140090942,3.9392881393432617,0.30509936809539795,-1.2479627132415771,-0.11332368105649948,2.3567922115325928
123,20308,20307,0.01618863455951214,-0.03280431777238846,1.0255857706069946,-1.0523552894592285,0.6793234348297119,0.4101812243461609,1.8864014148712158,3.939511775970459,0.30513399839401245,-1.2684602737426758,-0.12134558707475662,2.369799852371216
124,20318,20317,-0.01946137845516205,-0.0017239699373021722,1.0379359722137451,0.07324236631393433,-0.17331920564174652,0.5313624739646912,1.8867589235305786,3.939497470855713,0.3033333718776703,-1.2529551982879639,-0.1168128103017807,2.3763492107391357
125,20328,20327,0.03711076080799103,0.012775694020092487,0.939373791217804,1.5854682922363281,2.3112540245056152,-0.20469878613948822,1.8861117362976074,3.939613103866577,0.3033301830291748,-1.2161493301391602,-0.2506573498249054,2.3607704639434814
126,20338,20337,0.004006308503448963,0.03741183131933212,0.9806092381477356,3.3934836387634277,-3.172748327255249,0.46405932307243347,1.8862580060958862,3.9412732124328613,0.3033351004123688,-1.1537495851516724,-0.19295373558998108,2.3674747943878174
127,20348,20347,-0.024687280878424644,0.006024248898029327,1.0691040754318237,4.570951461791992,-5.14301061630249,0.6342260837554932,1.8864314556121826,3.941176414489746,0.3024940490722656,-1.0538080930709839,-0.11429513990879059,2.3768107891082764
128,20358,20357,-0.02458731271326542,-0.06512241065502167,1.0410773754119873,5.921321392059326,-2.2395551204681396,0.6361461281776428,1.8864152431488037,3.9406449794769287,0.30246034264564514,-1.0313152074813843,-0.017900390550494194,2.389724016189575
129,20368,20367,-0.008249055594205856,0.040327224880456924,1.0171191692352295,6.6983489990234375,-0.9447882771492004,0.6963616609573364,1.8868032693862915,3.9404163360595703,0.3024425804615021,-1.1853196620941162,0.09145549684762955,2.4044723510742188
130,20378,20377,-0.034292202442884445,0.18477857112884521,1.0287601947784424,3.5719945430755615,5.466126441955566,0.6026991009712219,1.8889751434326172,3.940964937210083,0.30461210012435913,-1.1499215364456177,0.1044980064034462,2.403979539871216
131,20388,20387,0.04732247814536095,0.11147601902484894,0.9499061703681946,0.36815086007118225,8.694646835327148,0.08740508556365967,1.8887397050857544,3.941406726837158,0.3048514723777771,-1.1877824068069458,0.14454156160354614,2.411924362182617
132,20398,20397,0.06170181930065155,0.060966990888118744,1.0437836647033691,-3.1268653869628906,2.0452966690063477,0.17757952213287354,1.8911689519882202,3.944347381591797,0.3048934042453766,-1.3865153789520264,0.0807495191693306,2.404703378677368
133,20408,20407,-0.007310029119253159,0.004792432300746441,1.018981695175171,-3.909207344055176,-3.017784833908081,-0.12413661181926727,1.8891369104385376,3.943657159805298,0.30403319001197815,-1.4303293228149414,0.05242398753762245,2.408095121383667
134,20418,20417,-0.07232321053743362,0.1238040179014206,1.0358333587646484,-3.0068821907043457,-8.716442108154297,1.4175480604171753,1.8898515701293945,3.944504976272583,0.3041640818119049,-1.5212619304656982,-0.0049105375073850155,2.4088385105133057
135,20428,20427,-0.0026174592785537243,0.09960490465164185,1.0609017610549927,0.642584502696991,-14.375326156616211,1.444566011428833,1.891440987586975,3.9458506107330322,0.3042248487472534,-1.319470763206482,-0.015042563900351524,2.42641544342041
136,20438,20437,-0.004341722000390291,0.08574582636356354,1.1015825271606445,3.3802883625030518,-16.486530303955078,0.7796301245689392,1.8916865587234497,3.94553279876709,0.3046262562274933,-1.0609978437423706,-0.05186321586370468,2.4349915981292725
137,20448,20447,-0.016207680106163025,0.04484137147665024,1.0698416233062744,4.688730716705322,-15.389452934265137,0.9839948415756226,1.8900221586227417,3.9463765621185303,0.303739458322525,-0.9493047595024109,0.02600841596722603,2.450850009918213
138,20458,20457,-0.031844787299633026,0.056909866631031036,0.9759129285812378,4.422144412994385,-9.1122465133667,0.7123045921325684,1.891258955001831,3.9456913471221924,0.30400484800338745,-0.7245415449142456,0.03856862708926201,2.4568145275115967
139,20469,20467,-0.05299616605043411,0.09405072778463364,0.9935910105705261,2.931170701980591,-5.49980354309082,0.84293133020401,1.8909578323364258,3.946039915084839,0.304412841796875,-0.5739904642105103,0.12532801926136017,2.4732680320739746
140,20478,20477,-0.03205893933773041,0.02704554796218872,1.0069411993026733,3.3426897525787354,-2.910252094268799,1.3086377382278442,1.8919734954833984,3.9462881088256836,0.3056719899177551,-0.6496484279632568,0.19674858450889587,2.483851194381714
141,20488,20487,-0.04168906807899475,0.025440912693738937,1.0266941785812378,2.236510753631592,1.0719980001449585,1.0235143899917603,1.894781231880188,3.946497917175293,0.306030809879303,-0.6231399774551392,0.22828422486782074,2.496894359588623
142,20498,20497,-0.03373636305332184,0.0915895327925682,1.0027520656585693,0.2542268633842468,5.988770008087158,-0.05093494430184364,1.8963849544525146,3.947822093963623,0.3063667416572571,-0.6574805974960327,0.14045777916908264,2.4935829639434814
143,20508,20507,-0.014116242527961731,0.17400318384170532,0.9500418901443481,-1.7383184432983398,8.029784202575684,-0.04053933545947075,1.8967448472976685,3.9472296237945557,0.308305948972702,-0.671931266784668,0.14589495956897736,2.497906446456909
144,20518,20517,0.032220542430877686,0.08862275630235672,0.9247968196868896,-2.1808865070343018,4.866128444671631,-0.01206050906330347,1.8964033126831055,3.9464786052703857,0.3088027834892273,-0.6790493130683899,0.13045233488082886,2.501774311065674
145,20528,20527,0.0025117313489317894,-0.005319574847817421,1.0406414270401,-2.7611470222473145,0.33844369649887085,0.08790867775678635,1.896999716758728,3.9465651512145996,0.309270441532135,-0.7177443504333496,0.11101727932691574,2.5031838417053223
146,20538,20537,-0.022887904196977615,-0.08189954608678818,1.0676344633102417,0.7205445766448975,-6.921852111816406,-0.12137151509523392,1.8993511199951172,3.946685791015625,0.3096012473106384,-0.8352925181388855,0.17401812970638275,2.504692792892456
147,20548,20547,-0.026759929955005646,0.0019340974977239966,1.017137050628662,2.918313980102539,-9.177698135375977,0.519069492816925,1.898712158203125,3.9465718269348145,0.30703088641166687,-0.6094993948936462,0.15782155096530914,2.5056917667388916
148,20558,20557,-0.0191666129976511,0.08194675296545029,0.9929149746894836,3.4758670330047607,-7.541722297668457,0.735097348690033,1.8990471363067627,3.946124315261841,0.3074321746826172,-0.51835697889328,0.18649663031101227,2.5109455585479736
149,20568,20567,0.04672382026910782,0.056744787842035294,0.9267330169677734,3.061615467071533,-8.239715576171875,1.0138201713562012,1.8989177942276,3.946920871734619,0.30778199434280396,-0.3672696053981781,0.254885733127594,2.5243430137634277
150,20578,20577,0.1492522954940796,-0.08059034496545792,0.9691244959831238,0.5082554221153259,-2.4235496520996094,0.395292192697525,1.900338053703308,3.948037624359131,0.30949997901916504,-0.4058474600315094,0.23013803362846375,2.526949644088745
151,20588,20587,0.13959713280200958,-0.2157483845949173,1.0107817649841309,-0.7069932818412781,-0.10916214436292648,-0.03629753738641739,1.900189995765686,3.9480998516082764,0.3098803758621216,-0.3286729156970978,0.2562446892261505,2.5348031520843506
152,20598,20597,0.08269058167934418,-0.18055935204029083,0.933865487575531,-1.6028376817703247,1.0866978168487549,0.10218420624732971,1.9021592140197754,3.9481582641601562,0.3101654648780823,-0.32124608755111694,0.24920520186424255,2.536362409591675
153,20608,20607,0.04591047018766403,-0.07857026904821396,0.9608234763145447,-0.8994948863983154,1.6407647132873535,0.6119837760925293,1.9037798643112183,3.948148727416992,0.3102390468120575,-0.3954794704914093,0.23254455626010895,2.5344507694244385
154,20618,20617,0.015558253973722458,-0.015840981155633926,1.0001181364059448,-1.7440881729125977,0.2913111448287964,0.2052663117647171,1.904126763343811,3.9495961666107178,0.3105067014694214,-0.3956740200519562,0.14712001383304596,2.5367727279663086
155,20628,20627,0.030623601749539375,-0.012032453902065754,0.9488199353218079,0.3168507218360901,2.172736406326294,-0.19794470071792603,1.9045426845550537,3.950406789779663,0.3107150197029114,-0.30202341079711914,0.07962902635335922,2.5434277057647705
156,20638,20637,-0.005685302894562483,0.04583747684955597,0.984463095664978,1.319489598274231,-2.3788726329803467,0.44463256001472473,1.9044420719146729,3.9512345790863037,0.3109520375728607,-0.20107202231884003,0.11311653256416321,2.5508158206939697
157,20648,20647,0.02125670574605465,-0.03103572316467762,0.9273330569267273,4.209437370300293,-1.4842784404754639,0.2649393677711487,1.9040435552597046,3.951864004135132,0.31189462542533875,-0.17833024263381958,0.1320851594209671,2.555309772491455
158,20658,20657,0.016813000664114952,-0.05161280557513237,0.9064522385597229,5.344763278961182,0.4718562960624695,0.5639861226081848,1.9055196046829224,3.9512405395507812,0.31202879548072815,-0.2235313355922699,0.22591689229011536,2.555546283721924
159,20668,20667,0.03636109083890915,-0.11613193899393082,0.9538894295692444,4.660026550292969,-2.024127960205078,1.9058737754821777,1.9060834646224976,3.9511687755584717,0.3120765686035156,-0.2892734408378601,0.33066117763519287,2.5629541873931885
160,20678,20677,0.033022332936525345,-0.21913807094097137,1.021657943725586,3.9450745582580566,-6.199856281280518,1.5372216701507568,1.9055681228637695,3.951761245727539,0.3163219690322876,-0.165627121925354,0.34342527389526367,2.589458465576172
161,20688,20687,-0.0270143561065197,-0.0765531063079834,1.0812747478485107,2.988072395324707,-0.4371183216571808,0.67866450548172,1.905890941619873,3.9514830112457275,0.3166261911392212,-0.17028632760047913,0.28854477405548096,2.602742910385132
162,20698,20697,0.011900435201823711,-0.03038453496992588,0.986855149269104,0.31327658891677856,1.2601956129074097,0.5629822015762329,1.9072133302688599,3.95367169380188,0.31693246960639954,-0.17622937262058258,0.30974215269088745,2.609727382659912
163,20708,20707,-0.04088981822133064,0.11602959781885147,0.9573168158531189,-1.7429258823394775,2.5372836589813232,0.9740845561027527,1.9067600965499878,3.953329086303711,0.31620755791664124,-0.26479437947273254,0.3407813608646393,2.616685390472412
164,20718,20717,0.010141363367438316,-0.12858228385448456,0.9889363050460815,-1.6802725791931152,2.895469903945923,1.0802669525146484,1.9089267253875732,3.9550282955169678,0.3163769841194153,-0.2165958136320114,0.3253205716609955,2.631182909011841
165,20728,20727,0.01785203069448471,-0.06792087852954865,0.979583740234375,-0.1499965786933899,1.0976600646972656,1.13896644115448,1.909197449684143,3.9558913707733154,0.316683292388916,-0.162473663687706,0.40145373344421387,2.65071964263916
166,20738,20737,-0.01771131344139576,-0.043672941625118256,0.9677371978759766,-0.10684803128242493,-1.2287145853042603,0.9637003540992737,1.9088735580444336,3.9550278186798096,0.31799209117889404,-0.14864009618759155,0.4052193760871887,2.6630568504333496
167,20748,20747,-0.0453355498611927,0.05446310341358185,0.96995609998703,0.03784703090786934,-0.7845959067344666,0.6114058494567871,1.9097869396209717,3.954709768295288,0.31823840737342834,-0.13311928510665894,0.4085052013397217,2.671821117401123
168,20758,20757,-0.051428958773612976,0.06054425984621048,1.0186012983322144,-1.3877962827682495,-1.6254122257232666,1.0155770778656006,1.9106717109680176,3.9552299976348877,0.3184897303581238,-0.18923909962177277,0.39961978793144226,2.6750710010528564
169,20768,20767,-0.02400522120296955,0.013632012531161308,1.0101174116134644,-1.1265183687210083,-0.4173707365989685,0.5465598702430725,1.9122920036315918,3.955956220626831,0.31867721676826477,-0.08616436272859573,0.4576323628425598,2.6861374378204346
170,20778,20777,-0.02680080384016037,0.024772923439741135,1.0102289915084839,-0.6553787589073181,1.1784355640411377,0.32380831241607666,1.9112931489944458,3.9554877281188965,0.31870561838150024,-0.08203434944152832,0.44809457659721375,2.7019834518432617
171,20788,20787,-9.629716805648059e-05,0.0035219870042055845,0.949856698513031,-2.9013442993164062,1.6817972660064697,0.2921968102455139,1.91219162940979,3.955911159515381,0.31891733407974243,-0.10811978578567505,0.39932581782341003,2.708773374557495
172,20798,20797,-0.0011209137737751007,-0.02512451633810997,0.9488934278488159,-3.4449470043182373,2.1239993572235107,-0.4705731272697449,1.9127291440963745,3.956421375274658,0.31909194588661194,-0.12149954587221146,0.37097516655921936,2.717564582824707
173,20808,20807,0.051797013729810715,-0.044842589646577835,0.9255571365356445,-4.654232025146484,3.4004595279693604,0.12939351797103882,1.913588523864746,3.956280469894409,0.32154935598373413,-0.20322859287261963,0.2741168737411499,2.7137646675109863
174,20818,20817,0.014014082960784435,-0.041206859052181244,0.9765024185180664,-3.237478256225586,2.692542552947998,0.4048174321651459,1.9140751361846924,3.9572415351867676,0.3217030465602875,-0.23584513366222382,0.2314566671848297,2.722808361053467
175,20828,20827,-0.03133588284254074,0.03229070082306862,1.0263887643814087,-0.9186906218528748,1.3479058742523193,-0.09174307435750961,1.915414810180664,3.9581222534179688,0.3217563033103943,-0.2725856602191925,0.17943112552165985,2.7343502044677734
176,20838,20837,0.04200141131877899,-0.05749833583831787,0.9453043937683105,0.27353090047836304,5.976406097412109,-0.3192499279975891,1.915434718132019,3.958418607711792,0.32234373688697815,-0.2476310282945633,0.17903368175029755,2.734731912612915
177,20848,20847,0.06237202137708664,0.008590903133153915,0.9831124544143677,1.5306432247161865,-1.7611581087112427,0.035097386687994,1.9152196645736694,3.9579122066497803,0.3224976062774658,-0.18374571204185486,0.19756004214286804,2.7333686351776123
178,20858,20857,0.005518756806850433,0.01944955252110958,0.9933839440345764,2.6987838745117188,-3.8347697257995605,0.3068239092826843,1.9146912097930908,3.957794427871704,0.3226846158504486,-0.15974828600883484,0.21614623069763184,2.733501434326172
179,20868,20867,0.01980019360780716,-0.16109801828861237,1.0019819736480713,2.450572967529297,-3.0848348140716553,0.8085677027702332,1.9139000177383423,3.958155393600464,0.3228622078895569,-0.01986643858253956,0.25968658924102783,2.7484734058380127
180,20878,20877,-0.10847944021224976,-0.06279941648244858,1.0210679769515991,1.0930663347244263,-4.931371688842773,-0.22344185411930084,1.914452314376831,3.9580376148223877,0.3222922384738922,-0.10182374715805054,0.29776814579963684,2.7510874271392822
181,20888,20887,-0.08593697100877762,0.03610197827219963,1.015082836151123,-2.627580165863037,3.0911576747894287,-0.28387218713760376,1.9154657125473022,3.95780611038208,0.3223554193973541,-0.03255606070160866,0.27557656168937683,2.7555410861968994
182,20898,20897,0.008597313426434994,0.04662444069981575,0.9715026617050171,-4.538318157196045,5.51970911026001,0.32785764336586,1.914947748184204,3.958076238632202,0.32247546315193176,-0.07549965381622314,0.24343907833099365,2.7651233673095703
183,20908,20907,-0.023913225159049034,0.10215102136135101,1.019361138343811,-4.165444374084473,5.885627269744873,-1.1293094158172607,1.9149912595748901,3.958240509033203,0.3241734504699707,-0.15542319416999817,0.21122901141643524,2.7558932304382324
184,20918,20917,-0.06482153385877609,0.012947962619364262,0.982746422290802,-3.6453001499176025,7.558804988861084,-0.5157535076141357,1.9156867265701294,3.958082675933838,0.32431742548942566,-0.20731967687606812,0.14196272194385529,2.7627906799316406
185,20928,20927,0.02051897533237934,-0.03543982282280922,0.9332028031349182,-2.940383195877075,10.391006469726562,-0.9587007761001587,1.9161900281906128,3.958554744720459,0.32449451088905334,-0.2878316640853882,0.08552461862564087,2.759749412536621
186,20938,20937,0.008070593699812889,0.018416350707411766,0.9703283905982971,-2.624023914337158,5.693221092224121,-0.7917659282684326,1.9169811010360718,3.9595565795898438,0.32615774869918823,-0.3659970760345459,0.05869486555457115,2.7520718574523926
187,20948,20947,-0.01766759529709816,0.01446261815726757,1.038689136505127,-0.15373381972312927,2.9421143531799316,-1.4470624923706055,1.9181290864944458,3.9592621326446533,0.3263111412525177,-0.46831294894218445,0.026142068207263947,2.735661268234253
188,20958,20957,-0.0051439604721963406,-0.011110491119325161,0.9808721542358398,2.4484245777130127,-0.13246989250183105,-0.8073086738586426,1.9189841747283936,3.9595794677734375,0.3264950215816498,-0.404513955116272,0.05671962723135948,2.713505268096924
189,20968,20967,-0.0027732953894883394,-0.01850530132651329,0.9808987975120544,3.569153308868408,-3.7057197093963623,-0.7584458589553833,1.9183502197265625,3.959413528442383,0.3276944160461426,-0.44677889347076416,0.19088532030582428,2.7075893878936768
190,20978,20978,-0.019007645547389984,-0.022097134962677956,0.9648098349571228,5.370031833648682,-9.033549308776855,-1.0252859592437744,1.91873037815094,3.9568140506744385,0.3282318115234375,-0.25969845056533813,0.3354378938674927,2.6917028427124023
191,20988,20987,0.0020185725297778845,-0.052732039242982864,0.9639887809753418,2.037623882293701,-4.011157512664795,-1.054107904434204,1.9190949201583862,3.9572222232818604,0.3282225430011749,-0.2110593318939209,0.37095656991004944,2.6799309253692627
192,20998,20997,0.01955105923116207,-0.023600634187459946,0.9634591937065125,-2.374244451522827,-1.5131251811981201,-0.42897823452949524,1.9200525283813477,3.9574921131134033,0.32838237285614014,-0.25568902492523193,0.3533594012260437,2.6812071800231934
193,21008,21007,-0.022542640566825867,0.0374770388007164,0.9734027981758118,-6.080957889556885,0.5996167063713074,-0.584661602973938,1.9200278520584106,3.957826614379883,0.3255906105041504,-0.17077462375164032,0.26670873165130615,2.679293394088745
194,21018,21017,-0.025940151885151863,0.007263772189617157,0.9803295731544495,-8.482436180114746,2.4634456634521484,-1.653281569480896,1.9221364259719849,3.9591567516326904,0.3254503905773163,-0.3615272343158722,0.13145524263381958,2.68144154548645
195,21028,21027,-0.02467919886112213,-0.03982354700565338,0.9448114037513733,-10.058642387390137,4.440145969390869,-0.9258762001991272,1.9226868152618408,3.959031105041504,0.32524609565734863,-0.3275960683822632,-0.029214411973953247,2.6687676906585693
196,21038,21037,-0.032186467200517654,0.013303677551448345,1.012901782989502,-8.462894439697266,3.327066659927368,-0.8440879583358765,1.9223209619522095,3.9588754177093506,0.3258933126926422,-0.3171313405036926,-0.043089963495731354,2.6670284271240234
197,21048,21047,-0.045583683997392654,0.006241621915251017,0.9842373728752136,-4.562311172485352,2.0043327808380127,-0.8224230408668518,1.923374056816101,3.95859694480896,0.32575681805610657,-0.36656132340431213,-0.09908867627382278,2.6637661457061768
198,21058,21057,-0.035692717880010605,0.018550051376223564,1.0095443725585938,-0.7618308067321777,1.806011438369751,-0.2896486222743988,1.9227137565612793,3.95820951461792,0.32572194933891296,-0.3293307423591614,-0.08758831024169922,2.658937692642212
199,21068,21067,0.023644112050533295,-0.0247168131172657,0.9584064483642578,1.292047142982483,3.5979673862457275,-0.9368821978569031,1.923122525215149,3.9580078125,0.3240533471107483,-0.3696577548980713,-0.10377679765224457,2.6426048278808594
200,21078,21077,-0.007889646105468273,0.006766992155462503,0.9857184290885925,3.2898519039154053,-0.7146273851394653,0.2821817100048065,1.9239060878753662,3.9569807052612305,0.3237740695476532,-0.4085268974304199,-0.08320876955986023,2.642190933227539
201,21088,21087,0.03829716891050339,-0.06093606725335121,0.9123271107673645,2.5532352924346924,2.5033674240112305,0.18160603940486908,1.9237395524978638,3.9573047161102295,0.32349932193756104,-0.41414859890937805,-0.07597646117210388,2.6420609951019287
202,21098,21097,-0.013051006011664867,0.06815090030431747,0.8695071935653687,1.3709832429885864,1.3724279403686523,-0.21724992990493774,1.9237892627716064,3.9575917720794678,0.32322537899017334,-0.3689790964126587,-0.05059881508350372,2.65344500541687
203,21108,21107,-0.07633882015943527,0.19161078333854675,0.9605128765106201,-1.4708017110824585,-2.347367763519287,0.49761033058166504,1.9245480298995972,3.9578020572662354,0.32393568754196167,-0.40435656905174255,-0.03700033202767372,2.6526918411254883
204,21118,21117,-0.05744064226746559,-0.05509825795888901,1.0611608028411865,-3.48372220993042,-4.191532611846924,-0.057011958211660385,1.9251601696014404,3.9586715698242188,0.3234872817993164,-0.3990861773490906,-0.06813953071832657,2.6654369831085205
205,21128,21127,-0.06579672545194626,-0.04879813641309738,1.0513982772827148,-3.468459367752075,4.330227375030518,-0.13717018067836761,1.924698829650879,3.958273410797119,0.32309412956237793,-0.29735657572746277,-0.13297471404075623,2.6548709869384766
206,21138,21137,-0.010568272322416306,0.055879056453704834,0.9843863248825073,-3.4477856159210205,4.690482139587402,-0.06438186764717102,1.9265223741531372,3.957720994949341,0.3237970769405365,-0.44170621037483215,-0.12819203734397888,2.6537840366363525
207,21148,21147,0.010877048596739769,0.24341340363025665,0.8861579895019531,-2.8268420696258545,8.594176292419434,0.05005631595849991,1.9274570941925049,3.957472562789917,0.32345762848854065,-0.5112215280532837,-0.20082347095012665,2.6456146240234375
208,21158,21157,0.024552902206778526,0.19220766425132751,0.971758246421814,-1.3132110834121704,2.217017650604248,0.6093335151672363,1.9278037548065186,3.9574055671691895,0.32311156392097473,-0.5914055705070496,-0.2711852192878723,2.6518890857696533
209,21168,21167,0.07218416780233383,-0.09288616478443146,1.009158968925476,0.3561374545097351,-0.4703504741191864,0.6623150110244751,1.928483486175537,3.9580178260803223,0.32376113533973694,-0.5927438139915466,-0.28060078620910645,2.662412166595459
210,21178,21177,0.05421458184719086,-0.12152164429426193,1.0128589868545532,2.5094223022460938,-3.8601253032684326,0.8300455212593079,1.9287627935409546,3.957634449005127,0.323388934135437,-0.5519512891769409,-0.26477116346359253,2.6696436405181885
211,21188,21187,0.032835762947797775,-0.004518082365393639,0.9723219871520996,4.2896504402160645,-5.170024871826172,0.5958812236785889,1.928466796875,3.958869695663452,0.3231046795845032,-0.4450203776359558,-0.24914877116680145,2.6945087909698486
212,21198,21197,-0.046074021607637405,0.01686721108853817,1.0249502658843994,3.069582939147949,-4.005247116088867,0.4325292706489563,1.9286816120147705,3.958129405975342,0.3227488696575165,-0.37293460965156555,-0.1881883293390274,2.690626382827759
213,21208,21207,0.0011297945166006684,-0.041633035987615585,0.9861412048339844,2.738369941711426,0.6201488971710205,-0.14624260365962982,1.9300389289855957,3.9578511714935303,0.3270055055618286,-0.3837566375732422,-0.1391095668077469,2.695122241973877
214,21218,21217,-0.004082955420017242,-0.01744796521961689,1.0196034908294678,0.9588165879249573,1.446518063545227,0.39116278290748596,1.9311455488204956,3.9591991901397705,0.326938271522522,-0.3745118975639343,-0.2520766854286194,2.6974904537200928
215,21228,21227,0.018021922558546066,-0.02431209571659565,1.0203126668930054,-0.5471534729003906,2.316660165786743,0.7408464550971985,1.9321459531784058,3.959892988204956,0.3268606662750244,-0.3959822952747345,-0.2221001535654068,2.70251202583313
216,21238,21237,0.06098401919007301,-0.04340577870607376,1.0168066024780273,-0.6906250715255737,3.63598370552063,0.4421059787273407,1.9333690404891968,3.960038423538208,0.3236296772956848,-0.43606412410736084,-0.2185608446598053,2.713893175125122
217,21248,21247,-0.004465863574296236,-0.01336953416466713,0.9868232011795044,0.4278255105018616,4.013956069946289,0.10245618224143982,1.9349733591079712,3.959822654724121,0.3232916593551636,-0.5800791382789612,-0.2247907668352127,2.7135541439056396
218,21258,21257,0.04452360048890114,-0.09205130487680435,0.9245123267173767,1.9117285013198853,0.17684704065322876,0.02026570402085781,1.9357540607452393,3.9592843055725098,0.323049932718277,-0.6420648097991943,-0.14388516545295715,2.715484142303467
219,21268,21267,-0.049100663512945175,0.04243512451648712,1.0259238481521606,3.118421792984009,-0.8752472400665283,-0.5210304856300354,1.9351959228515625,3.9592249393463135,0.32393699884414673,-0.5552347898483276,-0.11359699070453644,2.716543436050415
220,21278,21277,-0.07042837142944336,0.13703660666942596,0.9646638035774231,2.3748292922973633,-3.5087289810180664,-0.6533682942390442,1.9356685876846313,3.959033727645874,0.3236970901489258,-0.5350090861320496,-0.06385203450918198,2.7024827003479004
221,21288,21287,-0.09645681828260422,0.05208483710885048,1.1048824787139893,3.3589470386505127,-10.544967651367188,-0.5741411447525024,1.9352449178695679,3.9595894813537598,0.32353803515434265,-0.4132864475250244,-0.0250843595713377,2.721430778503418
222,21298,21297,-0.057308319956064224,-0.039519865065813065,1.0699472427368164,0.8834326267242432,-1.6290487051010132,-1.1705553531646729,1.935981035232544,3.9598021507263184,0.3248753845691681,-0.36647093296051025,-0.055897027254104614,2.710334062576294
223,21308,21307,0.002135245595127344,0.01504409871995449,0.9642428159713745,0.04346345365047455,3.1224381923675537,-1.2913552522659302,1.9366122484207153,3.960096597671509,0.3248410224914551,-0.4082143306732178,-0.03822259232401848,2.709904432296753
224,21318,21317,-0.042415421456098557,0.23328447341918945,0.9949517846107483,-2.6520793437957764,6.466869831085205,-1.6131796836853027,1.9376157522201538,3.95977520942688,0.32480254769325256,-0.43620461225509644,-0.03701578080654144,2.6958119869232178
225,21328,21327,-0.025798099115490913,0.04351560398936272,1.0221794843673706,-2.0921175479888916,0.006793250795453787,-1.5397212505340576,1.9376932382583618,3.959725856781006,0.32481610774993896,-0.44166216254234314,-0.06923247873783112,2.679288387298584
226,21338,21337,-0.06156517192721367,0.006161216646432877,1.053058385848999,-1.8125001192092896,-0.7553715705871582,-1.041966199874878,1.9397045373916626,3.9600138664245605,0.32654592394828796,-0.6002641916275024,-0.09736872464418411,2.6706454753875732
227,21348,21347,-0.06456328928470612,0.060828447341918945,1.0337096452713013,-0.3400149345397949,-2.304999351501465,-1.0791760683059692,1.9391653537750244,3.9594993591308594,0.3267519772052765,-0.47278982400894165,-0.12516257166862488,2.6564953327178955
228,21358,21357,0.04567144438624382,-0.017346376553177834,0.9737765789031982,0.722764790058136,-0.7952221035957336,-1.0865432024002075,1.9389522075653076,3.9598753452301025,0.3269367814064026,-0.4534870684146881,-0.13467244803905487,2.646803855895996
229,21368,21367,0.02743825688958168,0.006270093377679586,1.009550929069519,2.615561008453369,-6.030920505523682,-1.268968939781189,1.9391788244247437,3.9597811698913574,0.3291794955730438,-0.3259195387363434,-0.1134825348854065,2.632577896118164
230,21378,21377,0.020707249641418457,-0.06493028253316879,0.9659612774848938,2.0394649505615234,-3.9588770866394043,-1.7163491249084473,1.9404137134552002,3.959841012954712,0.3294619619846344,-0.3788808286190033,-0.06909917294979095,2.6314940452575684
231,21388,21387,0.038458582013845444,-0.12306706607341766,0.9385848641395569,2.6542863845825195,-4.5742082595825195,-1.2182141542434692,1.9411431550979614,3.959742546081543,0.32977530360221863,-0.2865588665008545,-0.030336949974298477,2.6156301498413086
232,21398,21397,0.045922063291072845,-0.1002843827009201,0.929551362991333,2.132763385772705,-5.606101989746094,-0.7248469591140747,1.9422097206115723,3.9598166942596436,0.32833153009414673,-0.27384230494499207,-0.0667889341711998,2.605775833129883
233,21408,21407,0.009964876808226109,-0.04645909368991852,1.0203535556793213,-0.3201647102832794,-2.2996742725372314,-1.205680012702942,1.9429545402526855,3.960294246673584,0.32840001583099365,-0.25903627276420593,-0.02852531336247921,2.5952038764953613
234,21418,21417,-0.016543157398700714,-0.027867566794157028,0.9649110436439514,-0.02235054038465023,-4.447380542755127,-2.0101144313812256,1.9440040588378906,3.960749387741089,0.32840391993522644,-0.28497806191444397,-0.02719477377831936,2.600522994995117
235,21428,21427,-0.11924102902412415,0.09261434525251389,1.0712406635284424,0.5256333351135254,-2.19077730178833,-2.9265239238739014,1.9451574087142944,3.9609436988830566,0.32840365171432495,-0.2898484170436859,-0.027347253635525703,2.5854592323303223
236,21438,21437,-0.0716019794344902,0.05610821768641472,0.9699099063873291,-0.8655863404273987,-0.9521854519844055,-1.758020281791687,1.9458502531051636,3.96183180809021,0.32797971367836,-0.22856415808200836,-0.019718272611498833,2.579698085784912
237,21448,21447,-0.04254044592380524,0.09022796899080276,0.9793810844421387,-1.5610675811767578,1.7098267078399658,-2.642909288406372,1.9463642835617065,3.9623734951019287,0.3280363082885742,-0.19794903695583344,-0.10813645273447037,2.547642707824707
238,21458,21457,0.036145005375146866,-0.008536108769476414,0.958091139793396,-0.2678189277648926,2.074706792831421,-1.894875407218933,1.9480794668197632,3.96319842338562,0.32803261280059814,-0.2768561542034149,-0.1996334195137024,2.524458885192871
239,21468,21467,0.07913562655448914,-0.10318944603204727,1.0106481313705444,1.892717719078064,-3.498366594314575,-1.154084324836731,1.9483553171157837,3.9630918502807617,0.3288103938102722,-0.18493373692035675,-0.17975009977817535,2.5007810592651367
