,timestamp_start,timestamp_end,acc.x,acc.y,acc.z,gyro.x,gyro.y,gyro.z,stateEstimate.x,stateEstimate.y,stateEstimate.z,stabilizer.pitch,stabilizer.roll,stabilizer.yaw
0,20693,20692,0.022190619260072708,-0.029647735878825188,1.0052525997161865,15.297821044921875,14.95937728881836,0.7568750381469727,2.008927345275879,4.0957512855529785,0.15514811873435974,1.558482050895691,0.7188103199005127,2.3885154724121094
1,20703,20702,-0.007767908740788698,0.06447435915470123,0.9759624600410461,9.111074447631836,14.350369453430176,0.8539943099021912,2.008584499359131,4.096921920776367,0.15705856680870056,1.3388454914093018,0.8412639498710632,2.4127988815307617
2,20713,20712,-0.02057282254099846,0.053670961409807205,1.014533519744873,5.18247127532959,7.08713960647583,0.9213283061981201,2.0079410076141357,4.098092079162598,0.15874020755290985,1.3741647005081177,1.030014157295227,2.4073173999786377
3,20723,20722,-0.0067167505621910095,-0.019515961408615112,1.019309639930725,0.8388646245002747,15.674711227416992,0.9150888919830322,2.0049209594726562,4.0980095863342285,0.1601884812116623,1.2427064180374146,0.9753551483154297,2.446239948272705
4,20733,20732,0.04165569692850113,-0.007287186570465565,0.9766837954521179,-4.745535850524902,20.959882736206055,0.7685633301734924,2.003776788711548,4.0991668701171875,0.16172055900096893,0.9646286368370056,1.06361722946167,2.43782639503479
5,20743,20742,-0.005810561124235392,-0.008827398531138897,1.0850025415420532,-3.24810528755188,12.458292007446289,1.6220121383666992,2.002002239227295,4.0970025062561035,0.16353261470794678,0.8608680367469788,1.0994137525558472,2.443502426147461
6,20753,20752,0.048085764050483704,0.0262775756418705,1.0685771703720093,-2.2763543128967285,15.096946716308594,1.2916085720062256,1.9992369413375854,4.096502780914307,0.16491523385047913,0.6268572211265564,1.0612016916275024,2.452471971511841
7,20763,20762,0.05121895670890808,0.006611782591789961,1.1033034324645996,-1.4914947748184204,14.435233116149902,1.7542915344238281,1.9971022605895996,4.095261096954346,0.16665101051330566,0.39934825897216797,1.1047827005386353,2.453639507293701
8,20773,20772,0.0012371140765026212,-0.03839108347892761,1.0950661897659302,-0.16859394311904907,12.364897727966309,1.4250632524490356,1.9970638751983643,4.096284866333008,0.16837343573570251,0.25202101469039917,1.0895752906799316,2.471625566482544
9,20783,20782,0.03210332244634628,-0.098915696144104,1.0517873764038086,0.5246193408966064,6.67329216003418,1.1723309755325317,1.993964672088623,4.0974955558776855,0.17022602260112762,0.18215042352676392,0.9128891229629517,2.507819175720215
10,20793,20792,0.018507901579141617,-0.09912046045064926,1.0622774362564087,1.0832891464233398,9.612480163574219,1.2933433055877686,1.993652105331421,4.098161697387695,0.17266729474067688,0.14531897008419037,1.0084446668624878,2.521587371826172
11,20803,20802,0.01598338782787323,0.03286053612828255,1.1516757011413574,4.461588382720947,5.035197734832764,0.44954177737236023,1.9905251264572144,4.0990986824035645,0.1746024638414383,0.04932752996683121,1.1199284791946411,2.5499441623687744
12,20813,20812,-0.005604828242212534,-0.03509436920285225,1.0722814798355103,5.455424785614014,4.123421669006348,1.1515089273452759,1.9884228706359863,4.098165988922119,0.17673692107200623,-0.1518867015838623,1.1754027605056763,2.5350096225738525
13,20823,20822,-0.0020136982202529907,-0.12806449830532074,1.0450949668884277,-0.30775514245033264,8.388384819030762,1.6180380582809448,1.9894204139709473,4.09996223449707,0.18136432766914368,0.1370917111635208,0.9926924109458923,2.5810699462890625
14,20833,20832,0.018387900665402412,-0.20958130061626434,1.075158953666687,-1.588338851928711,1.967848539352417,1.792273998260498,1.9864826202392578,4.103256702423096,0.1839253455400467,0.049860477447509766,0.998235285282135,2.5945796966552734
15,20843,20842,0.0010237573878839612,-0.1011662483215332,1.1114224195480347,-1.6164857149124146,3.2936277389526367,0.06328845769166946,1.985426425933838,4.103378772735596,0.18640196323394775,-0.0038405153900384903,1.0513616800308228,2.609361171722412
16,20853,20852,-0.007379791233688593,0.019987525418400764,1.0510605573654175,-1.7016483545303345,9.218534469604492,-0.5806393027305603,1.9850211143493652,4.104454517364502,0.1890518218278885,-0.09652837365865707,1.082338809967041,2.6089696884155273
17,20863,20862,0.039923716336488724,-0.02185545489192009,0.9902531504631042,-3.4382991790771484,11.781769752502441,-0.9630928039550781,1.9838453531265259,4.103272914886475,0.19345934689044952,-0.35397157073020935,1.156956434249878,2.5868489742279053
18,20873,20872,-0.015606407076120377,-0.02639845199882984,1.0369690656661987,-4.0677266120910645,9.537038803100586,-0.6752038598060608,1.9833126068115234,4.1002516746521,0.1964305341243744,-0.5965664982795715,0.9942031502723694,2.5471839904785156
19,20883,20882,0.039475202560424805,-0.014754293486475945,1.0135496854782104,-3.8693125247955322,5.979365348815918,-1.050010085105896,1.983335256576538,4.101137638092041,0.1992798000574112,-0.12090816348791122,0.9745314717292786,2.6173532009124756
20,20893,20892,-0.0036018150858581066,0.02812238037586212,0.9825810790061951,-4.5443878173828125,4.05525541305542,-0.7465813159942627,1.9778270721435547,4.100455284118652,0.2034178525209427,-0.29697251319885254,0.9427332878112793,2.599534511566162
21,20903,20902,-0.0015615022275596857,0.04497731849551201,1.0223281383514404,-4.172173976898193,4.042845726013184,-0.504691481590271,1.9775822162628174,4.099301338195801,0.2065333127975464,-0.2944220006465912,0.9057309627532959,2.601541519165039
22,20913,20912,0.008755739778280258,0.06376779824495316,1.0114703178405762,-2.6556525230407715,4.7997846603393555,-1.2050726413726807,1.9741328954696655,4.0960774421691895,0.2093135267496109,-0.33421286940574646,0.8680257201194763,2.5949177742004395
23,20923,20922,0.009840380400419235,0.04900732636451721,1.0154380798339844,-1.476470947265625,6.928677558898926,-1.7578907012939453,1.973048448562622,4.096046447753906,0.21211834251880646,-0.6598910689353943,1.016045093536377,2.579535484313965
24,20933,20932,-0.02813005819916725,0.021834829822182655,0.9666796326637268,-1.3397653102874756,8.022366523742676,-2.547541856765747,1.9723936319351196,4.093987941741943,0.215463325381279,-0.6759898066520691,0.9932233095169067,2.568105936050415
25,20943,20942,0.00902604777365923,-0.057853296399116516,0.9755200147628784,-3.697434425354004,5.575460433959961,-1.405112385749817,1.971178650856018,4.093956470489502,0.21834076941013336,-0.47293010354042053,1.1632276773452759,2.6119823455810547
26,20953,20952,-0.005617382004857063,-0.04014190286397934,1.01703941822052,-6.519732475280762,6.675788402557373,-2.4680609703063965,1.9678317308425903,4.0921783447265625,0.2208731472492218,-0.5741403698921204,1.119948387145996,2.59462833404541
27,20963,20962,0.0025880709290504456,-0.025907941162586212,0.9368706345558167,-8.923843383789062,5.732410430908203,-2.945103883743286,1.966593861579895,4.093049049377441,0.227453351020813,-0.8046600818634033,0.9647956490516663,2.53739070892334
28,20973,20972,0.012834698893129826,-0.04580404981970787,0.9009497761726379,-12.104968070983887,6.435225963592529,-2.8429696559906006,1.9667118787765503,4.09075927734375,0.23080109059810638,-0.9381020069122314,0.913037896156311,2.5094685554504395
29,20983,20982,0.004964688792824745,-0.028941841796040535,0.9149166941642761,-14.559501647949219,6.78590202331543,-2.7711997032165527,1.9648454189300537,4.089682579040527,0.23372012376785278,-1.1369047164916992,0.6661539077758789,2.4508719444274902
30,20993,20992,-0.0008761644130572677,-0.018853697925806046,0.9159077405929565,-14.029523849487305,5.924551963806152,-2.39359450340271,1.9646790027618408,4.09001350402832,0.23820671439170837,-1.3132301568984985,0.5597311854362488,2.4209914207458496
31,21003,21002,0.057146232575178146,-0.03233605995774269,0.8583184480667114,-13.256170272827148,3.5179944038391113,-2.0173635482788086,1.9657254219055176,4.089539051055908,0.2410697340965271,-1.3720033168792725,0.42171403765678406,2.399108409881592
32,21013,21012,0.02499619498848915,-0.08858656883239746,0.9264126420021057,-10.955968856811523,-0.814582347869873,-1.1213483810424805,1.9632245302200317,4.088511943817139,0.24392728507518768,-1.3918750286102295,0.10263673216104507,2.337010145187378
33,21023,21022,0.008738995529711246,-0.08077529072761536,0.9652940034866333,-6.045602321624756,-2.873652696609497,-1.6206969022750854,1.9639972448349,4.0894293785095215,0.24635562300682068,-0.7703712582588196,0.46615296602249146,2.471496343612671
34,21033,21032,-2.8603495593415573e-05,0.03296160325407982,0.8959078788757324,-1.242442011833191,-7.0191216468811035,-1.9441025257110596,1.9590344429016113,4.085319519042969,0.24947568774223328,-0.7395197749137878,0.4214838445186615,2.4559364318847656
35,21044,21042,0.007513974327594042,0.0012906751362606883,0.9028363823890686,-0.21346935629844666,-4.679307460784912,-2.1847426891326904,1.9579240083694458,4.084261894226074,0.25203239917755127,-0.7660720944404602,0.35018667578697205,2.4165079593658447
36,21053,21052,0.09627475589513779,0.01766386814415455,0.7879111766815186,-2.8942649364471436,3.3408164978027344,-1.8703222274780273,1.9574657678604126,4.082493305206299,0.25471118092536926,-0.75040602684021,0.3394070863723755,2.3951568603515625
37,21063,21062,-0.05498001351952553,0.0397522859275341,0.9145647883415222,-4.880266189575195,3.5684049129486084,-2.0912203788757324,1.9584100246429443,4.082914352416992,0.2569839358329773,-1.0666327476501465,0.23494067788124084,2.349760055541992
38,21073,21072,0.016192009672522545,-0.059456080198287964,0.9211717247962952,-9.836625099182129,8.15351390838623,-2.6947720050811768,1.9587935209274292,4.083818435668945,0.2591911554336548,-1.0338716506958008,0.210219606757164,2.3394112586975098
39,21084,21082,-0.052614882588386536,-0.007140119094401598,0.9313858151435852,-11.66446590423584,8.362752914428711,-2.125528335571289,1.9572731256484985,4.0815324783325195,0.26124799251556396,-1.2477717399597168,0.05151470750570297,2.3032617568969727
40,21093,21092,-0.005208753049373627,-0.06750725209712982,0.9036970734596252,-13.18568229675293,6.095290184020996,-2.224903106689453,1.9572526216506958,4.082830905914307,0.2653504014015198,-1.2769514322280884,-0.1984153538942337,2.2505266666412354
41,21103,21102,-0.0009460911969654262,-0.14211274683475494,0.9004825949668884,-11.512247085571289,2.074136257171631,-2.276987075805664,1.956367015838623,4.084554672241211,0.26742491126060486,-1.3272157907485962,-0.3280918300151825,2.2278339862823486
42,21113,21112,-0.0019053374417126179,-0.036581095308065414,0.9168667197227478,-7.7498273849487305,-2.5688247680664062,-2.1449828147888184,1.9560141563415527,4.084080696105957,0.26935142278671265,-1.444184422492981,-0.4608156085014343,2.2019641399383545
43,21123,21122,-0.008549116551876068,-0.03647824376821518,0.8949428200721741,-2.9538912773132324,-5.819382190704346,-2.1148228645324707,1.955865740776062,4.08302116394043,0.27316853404045105,-1.4202542304992676,-0.5011876225471497,2.189011573791504
44,21133,21132,-0.03421339765191078,0.005483611021190882,0.9042139053344727,1.8005532026290894,-9.65882396697998,-2.753204584121704,1.9551924467086792,4.080721378326416,0.2750279903411865,-1.2620086669921875,-0.4675752520561218,2.178823709487915
45,21143,21142,-0.08294206112623215,0.044791582971811295,0.900300920009613,4.622992992401123,-10.892081260681152,-2.799022912979126,1.953881859779358,4.081226825714111,0.27681228518486023,-1.1667485237121582,-0.44546836614608765,2.155251979827881
46,21153,21152,-0.0977124571800232,0.08984814584255219,0.8807790875434875,5.108577728271484,-9.196596145629883,-3.4519224166870117,1.9515126943588257,4.078195095062256,0.27825927734375,-1.0159006118774414,-0.4683094322681427,2.1079206466674805
47,21163,21162,-0.0564914345741272,0.054939817637205124,0.8668725490570068,3.158169746398926,-7.265011787414551,-2.1391446590423584,1.9504367113113403,4.0778913497924805,0.2798171043395996,-1.5884476900100708,-0.5702525973320007,2.0961978435516357
48,21173,21172,-0.006268865428864956,0.10171113163232803,0.8684683442115784,-1.6115570068359375,2.221651792526245,-2.950167655944824,1.9569333791732788,4.079363822937012,0.28155532479286194,-1.5150437355041504,-0.5619372725486755,2.069790840148926
49,21183,21182,0.05394592136144638,0.033188898116350174,0.8380312323570251,-1.457798957824707,-2.8946573734283447,-2.0164589881896973,1.9565445184707642,4.077637195587158,0.28293338418006897,-1.5067505836486816,-0.5730780959129333,2.045095443725586
50,21193,21192,0.11122807115316391,-0.04278896749019623,0.8191208243370056,0.7226418256759644,-8.033576011657715,-1.6557310819625854,1.9504426717758179,4.076620578765869,0.28307679295539856,-0.8014910221099854,-0.38290974497795105,2.0121610164642334
51,21203,21202,0.0914989486336708,-0.05911027267575264,0.8315890431404114,1.6409776210784912,-8.804643630981445,-1.4615893363952637,1.9482871294021606,4.073037147521973,0.28401556611061096,-0.829581081867218,-0.6079081296920776,1.9553570747375488
52,21213,21212,0.010980636812746525,0.03898454084992409,0.8950659036636353,1.8573143482208252,-12.020367622375488,-1.8258551359176636,1.948960781097412,4.075838565826416,0.28503406047821045,-0.7334281206130981,-0.6467714309692383,1.9296647310256958
53,21223,21222,0.042237892746925354,0.10016889125108719,0.883594274520874,1.5137546062469482,-5.936530590057373,-1.050144910812378,1.9487639665603638,4.076470375061035,0.28500521183013916,-0.6087589263916016,-0.30678606033325195,1.9796574115753174
54,21233,21232,0.03156903386116028,0.13248760998249054,0.8831067681312561,0.9324098229408264,-0.9439505338668823,-0.9603418707847595,1.9475032091140747,4.072844505310059,0.2857699990272522,-0.5612261295318604,-0.2943402826786041,1.97087824344635
55,21243,21242,0.006677380297333002,0.1432703733444214,0.8709229826927185,0.5061728358268738,4.3142852783203125,-1.4468035697937012,1.951446533203125,4.0742597579956055,0.2865689694881439,-0.34847402572631836,-0.4500094950199127,1.904674768447876
56,21253,21252,0.026374060660600662,0.12379240244626999,0.8445561528205872,-0.4482525885105133,4.404575824737549,-1.6025725603103638,1.944284439086914,4.0725812911987305,0.2906489074230194,-0.382509708404541,-0.4470004141330719,1.8914698362350464
57,21263,21262,0.046609096229076385,0.10473335534334183,0.8705877065658569,-0.15300872921943665,4.538738250732422,-1.128394365310669,1.9448237419128418,4.071187973022461,0.29119327664375305,-0.48362085223197937,-0.30613619089126587,1.9129689931869507
58,21273,21272,0.01875384896993637,0.10500620305538177,0.9607052206993103,0.2655814588069916,3.4292497634887695,-1.3198158740997314,1.945243239402771,4.07058048248291,0.29163092374801636,-0.5757705569267273,-0.32304736971855164,1.9057806730270386
59,21283,21282,-0.03513249382376671,0.09633889049291611,1.0350446701049805,-0.9788582921028137,1.507795810699463,-1.2111382484436035,1.9518511295318604,4.072571277618408,0.2923097610473633,-1.321130633354187,-0.564069390296936,1.9355555772781372
60,21293,21292,-0.04448109492659569,0.0538201630115509,1.0378150939941406,-0.5011828541755676,-4.590752124786377,-1.238847255706787,1.9484695196151733,4.070903778076172,0.2922852635383606,-0.9543360471725464,-0.572835385799408,1.8845252990722656
61,21303,21302,-0.041505731642246246,0.04462946578860283,0.996120274066925,1.0451815128326416,-12.16629409790039,-1.1120023727416992,1.9451427459716797,4.066960334777832,0.2927541732788086,-0.6587636470794678,-0.4807538390159607,1.8635209798812866
62,21313,21312,-0.018532095476984978,0.03461168706417084,0.9653648138046265,3.701280117034912,-16.79730796813965,0.20212942361831665,1.9411042928695679,4.068539142608643,0.29307547211647034,-0.19242702424526215,-0.6726683378219604,1.7894126176834106
63,21323,21322,0.03043089061975479,-0.0115618035197258,0.9960852265357971,6.271636962890625,-15.52574634552002,0.343991756439209,1.9549059867858887,4.070072650909424,0.2944706082344055,-1.5043675899505615,-1.0374444723129272,1.9053548574447632
64,21333,21332,-0.02033442072570324,0.07553555071353912,0.987480640411377,10.518532752990723,-17.75946807861328,0.6432993412017822,1.9526373147964478,4.069206714630127,0.29562756419181824,-1.030914306640625,-0.704637348651886,1.913764476776123
65,21343,21342,0.02638137899339199,-0.029721388593316078,0.9589093923568726,12.865250587463379,-19.324033737182617,0.7028262615203857,1.9531476497650146,4.069027900695801,0.2963102459907532,-0.7702390551567078,-0.6097961068153381,1.9103626012802124
66,21353,21352,-0.02566278725862503,0.008475988171994686,1.024434208869934,16.190771102905273,-24.196163177490234,0.3665845990180969,1.9528242349624634,4.068292140960693,0.294763445854187,-0.5638453364372253,-0.4715281128883362,1.9173046350479126
67,21363,21362,-0.04694699868559837,0.017261531203985214,1.030699372291565,15.94469165802002,-22.3350887298584,-0.48423969745635986,1.9512674808502197,4.070573329925537,0.2952399253845215,-0.2964703142642975,-0.3683074414730072,1.9119659662246704
68,21373,21372,0.00303150643594563,-0.036195628345012665,0.9664909243583679,14.312222480773926,-20.195009231567383,-0.44058340787887573,1.9522944688796997,4.068904399871826,0.295439749956131,0.1574774533510208,-0.1301080584526062,1.8892812728881836
69,21383,21382,0.008463481441140175,-0.008957317098975182,0.929019570350647,12.754236221313477,-16.881322860717773,-0.1712629795074463,1.950642466545105,4.068287372589111,0.29799482226371765,0.3560348451137543,0.014079366810619831,1.8844362497329712
70,21393,21392,0.027506396174430847,-0.10332184284925461,1.005595326423645,9.391193389892578,-12.482131004333496,0.07984089106321335,1.9505467414855957,4.068965911865234,0.29839301109313965,0.5346058011054993,0.10704202204942703,1.8813680410385132
71,21403,21402,-0.0057060071267187595,-0.03143751993775368,0.9930274486541748,6.26056432723999,-7.628328800201416,-0.02718631736934185,1.9515560865402222,4.067863464355469,0.2988586723804474,0.6726369857788086,0.24206162989139557,1.8851557970046997
72,21413,21412,0.011221226304769516,-0.05341747775673866,0.9666596055030823,2.0836477279663086,-3.400432586669922,-0.621548593044281,1.9514272212982178,4.069451808929443,0.29927486181259155,0.8187015652656555,0.3563310205936432,1.8778659105300903
73,21423,21422,0.003781090257689357,-0.04280916228890419,1.0009000301361084,0.08122173696756363,0.012100505642592907,-1.1444045305252075,1.9504474401474,4.069958686828613,0.2985074520111084,0.8994477987289429,0.41745248436927795,1.8695738315582275
74,21433,21432,-0.024685591459274292,0.011093378998339176,1.0231961011886597,-0.56514573097229,0.5768700242042542,-1.180103063583374,1.9496780633926392,4.069669723510742,0.29885333776474,0.9020795822143555,0.4152001440525055,1.8572251796722412
75,21443,21442,-0.04255129024386406,-0.059743694961071014,1.0240495204925537,1.5159958600997925,-0.25351929664611816,-0.6002997159957886,1.950150489807129,4.070770740509033,0.2992086410522461,0.8613985776901245,0.4488951563835144,1.8496136665344238
76,21453,21452,-0.07067537307739258,0.018742268905043602,0.9970362186431885,2.5447864532470703,-2.7650086879730225,-0.5206208229064941,1.9491747617721558,4.071011543273926,0.2998764216899872,0.919789731502533,0.4318857192993164,1.8461551666259766
77,21463,21462,-0.006651558447629213,0.021755490452051163,0.9395483732223511,1.7686002254486084,0.6892383694648743,-0.7377490997314453,1.9490933418273926,4.071831226348877,0.3002406060695648,0.9990656971931458,0.4773845076560974,1.8375808000564575
78,21473,21472,0.002629499649628997,-0.01925189048051834,0.9897856116294861,2.683962106704712,-0.11375609785318375,-0.46080297231674194,1.9486973285675049,4.072720527648926,0.3005613088607788,0.9979031682014465,0.4983149468898773,1.831006646156311
79,21483,21482,-0.028359564021229744,0.12100332230329514,0.9883619546890259,3.3883795738220215,-0.772631049156189,-0.019763724878430367,1.9477978944778442,4.073331832885742,0.30363309383392334,1.124123454093933,0.5553725361824036,1.8199379444122314
80,21493,21492,0.016483355313539505,0.13126064836978912,0.9726381897926331,3.5417158603668213,0.8739534616470337,0.3031678795814514,1.947546362876892,4.0730133056640625,0.3040890097618103,1.126037359237671,0.5847699046134949,1.8196325302124023
81,21503,21502,0.019266480579972267,0.047282624989748,0.9789291024208069,2.582042932510376,2.1766903400421143,-0.19848394393920898,1.947961688041687,4.072197437286377,0.3045608401298523,1.1045188903808594,0.5518313646316528,1.8266652822494507
82,21513,21512,0.00773486215621233,-0.012704677879810333,0.9726762175559998,2.1118247509002686,2.8886632919311523,-0.42996662855148315,1.94791841506958,4.0723137855529785,0.30508336424827576,1.0778001546859741,0.5773042440414429,1.8238015174865723
83,21523,21522,-0.02631637454032898,-0.021967295557260513,0.9855303168296814,1.6382406949996948,4.529079437255859,-0.19831441342830658,1.9454476833343506,4.069783687591553,0.30398210883140564,1.1477100849151611,0.6780732274055481,1.8106708526611328
84,21533,21532,0.05301855131983757,-0.057900652289390564,0.9937441349029541,-0.017536504194140434,6.747828006744385,-0.745450496673584,1.9440819025039673,4.0693039894104,0.3043731153011322,1.0299550294876099,0.7060140371322632,1.8060308694839478
85,21543,21542,-0.059858355671167374,0.045112837105989456,0.9931411743164062,-1.5713210105895996,12.90399169921875,-1.0249147415161133,1.9443058967590332,4.068869590759277,0.30471494793891907,0.9162272214889526,0.7026776671409607,1.7981767654418945
86,21553,21552,-0.07198602706193924,0.06580443680286407,0.9717756509780884,-2.6007254123687744,20.384017944335938,-0.8995230197906494,1.943507432937622,4.068733215332031,0.30234333872795105,0.7506424784660339,0.6817177534103394,1.791860580444336
87,21563,21562,-0.025842439383268356,0.056980181485414505,0.9827246069908142,-2.8993921279907227,26.222639083862305,-0.8566923141479492,1.9438797235488892,4.070012092590332,0.30246803164482117,0.6493700742721558,0.6449593305587769,1.7926428318023682
88,21573,21572,-0.017413021996617317,0.06559494137763977,1.0352047681808472,-2.4670586585998535,27.5543270111084,-1.4178932905197144,1.9412975311279297,4.0691657066345215,0.30265897512435913,0.38006576895713806,0.6210421919822693,1.7853147983551025
89,21583,21582,0.02797069028019905,-0.013911147601902485,0.950720489025116,-2.179361581802368,27.2742919921875,-1.114621877670288,1.9425410032272339,4.069760799407959,0.3012106120586395,-0.044181499630212784,0.5909178853034973,1.7678115367889404
90,21593,21592,-0.003865764942020178,-0.015716103836894035,0.9756991267204285,-0.44641411304473877,21.314577102661133,-0.8416219353675842,1.9411885738372803,4.0701775550842285,0.3012448251247406,-0.2653249502182007,0.5718792080879211,1.7644929885864258
91,21603,21602,-0.04863767698407173,0.0272293072193861,0.9947084784507751,0.048219479620456696,17.013748168945312,-2.0085692405700684,1.9403598308563232,4.070242404937744,0.3012940287590027,-0.4524397552013397,0.5806355476379395,1.7536048889160156
92,21613,21612,-0.006668199319392443,-0.03390508145093918,1.0151280164718628,-0.32988399267196655,12.615758895874023,-1.1357485055923462,1.9401806592941284,4.06960391998291,0.3012810945510864,-0.6310811042785645,0.5815812945365906,1.7401502132415771
93,21623,21622,0.061342500150203705,-0.16026462614536285,0.9956265091896057,0.2853482961654663,9.68050479888916,-1.3691869974136353,1.9404151439666748,4.068623065948486,0.29820576310157776,-0.7531246542930603,0.5839492082595825,1.73232901096344
94,21633,21632,0.006694833282381296,-0.035450439900159836,1.0267435312271118,-0.5141364336013794,8.015558242797852,-0.959327757358551,1.9399443864822388,4.06827974319458,0.2980431616306305,-0.7494467496871948,0.5866101980209351,1.7274620532989502
95,21643,21643,0.0011775522725656629,-0.07961716502904892,1.0252457857131958,-0.5411206483840942,5.785177707672119,-0.7765828371047974,1.9392932653427124,4.06829309463501,0.297907292842865,-0.8767396211624146,0.5830137133598328,1.7163938283920288
96,21653,21652,0.012545399367809296,-0.13677212595939636,1.026731252670288,-1.1186697483062744,8.280616760253906,-1.4162282943725586,1.9391977787017822,4.068629741668701,0.298513263463974,-0.7760464549064636,0.5709143877029419,1.7187297344207764
97,21663,21662,-0.014644944109022617,0.01848391816020012,1.0492759943008423,-1.988178014755249,9.61270523071289,-1.2393940687179565,1.9368258714675903,4.066792011260986,0.2985628843307495,-0.8723223209381104,0.5483682751655579,1.7053296566009521
98,21673,21672,0.0649244487285614,0.016574349254369736,0.9439015984535217,-3.29083251953125,10.674034118652344,-0.7672661542892456,1.9356282949447632,4.064201354980469,0.2984868884086609,-1.0807338953018188,0.5035989880561829,1.6892132759094238
99,21683,21682,0.01412403117865324,0.006075744982808828,0.9858487844467163,-4.530823230743408,11.67927360534668,-1.0430964231491089,1.9363635778427124,4.064413547515869,0.29786914587020874,-1.2107363939285278,0.43388456106185913,1.678607702255249
100,21693,21692,0.08128349483013153,-0.034582097083330154,0.9929357767105103,-5.0361175537109375,13.696327209472656,-0.8793451189994812,1.9371144771575928,4.064715385437012,0.29776352643966675,-1.3573192358016968,0.35973167419433594,1.6687383651733398
101,21703,21702,0.0757741630077362,-0.05033421888947487,1.0301421880722046,-3.445570707321167,9.532937049865723,-0.9458030462265015,1.9373513460159302,4.065507411956787,0.29763203859329224,-1.391088843345642,0.37733131647109985,1.6689876317977905
102,21713,21712,0.0092227878049016,-0.05650004744529724,1.0074529647827148,-1.5422985553741455,8.46950626373291,-1.3689184188842773,1.936677098274231,4.065487384796143,0.29666298627853394,-1.4670071601867676,0.3408498466014862,1.6592522859573364
103,21723,21722,-0.04460782930254936,-0.0653296634554863,0.9853223562240601,0.02793266624212265,6.643173694610596,-1.3749051094055176,1.935217261314392,4.06362771987915,0.2965044677257538,-1.539353847503662,0.3313712477684021,1.6471290588378906
104,21733,21732,0.0017595220124348998,-0.012123100459575653,0.957070529460907,1.3038437366485596,2.945864677429199,-0.45747289061546326,1.9358018636703491,4.064913749694824,0.2963089644908905,-1.6478784084320068,0.35010388493537903,1.637433648109436
105,21743,21742,-0.00815742276608944,0.09599796682596207,1.0970717668533325,1.0810970067977905,1.6969760656356812,-0.44024792313575745,1.9346668720245361,4.061860084533691,0.29608064889907837,-1.673797607421875,0.3598317503929138,1.6312074661254883
106,21753,21752,0.009923038072884083,0.037178970873355865,1.0794872045516968,0.560737669467926,1.445637583732605,-0.9003232717514038,1.9345444440841675,4.0621209144592285,0.29483744502067566,-1.691914439201355,0.3651655316352844,1.6244961023330688
107,21763,21762,-0.03047458454966545,0.0054346355609595776,1.045559287071228,-0.9845579266548157,2.53572416305542,-0.6970361471176147,1.9338146448135376,4.0601701736450195,0.294720858335495,-1.7188084125518799,0.3531579375267029,1.61728036403656
108,21773,21772,-0.015476376749575138,0.02628878690302372,1.0499006509780884,-2.500006914138794,2.886554718017578,-0.9684532880783081,1.9324647188186646,4.0576605796813965,0.29469263553619385,-1.7457826137542725,0.3138563632965088,1.6076242923736572
109,21783,21782,0.0046302080154418945,0.0054122828878462315,0.99941086769104,-3.4293227195739746,0.8937076926231384,-0.752733588218689,1.9328150749206543,4.059348106384277,0.2965075969696045,-1.754717469215393,0.2620426118373871,1.5921250581741333
110,21793,21792,-0.008816633373498917,-0.02635020576417446,1.0756677389144897,-1.778846025466919,1.5692030191421509,-0.8465312719345093,1.9317961931228638,4.056875705718994,0.2966161370277405,-1.7532283067703247,0.21884912252426147,1.5825448036193848
111,21803,21802,0.014733185060322285,-0.05009100213646889,1.0330222845077515,-2.0306057929992676,-2.9238193035125732,-0.6038691401481628,1.931439757347107,4.0569281578063965,0.29683470726013184,-1.7931164503097534,0.2636975944042206,1.5883781909942627
112,21813,21812,-0.005404078401625156,-0.1126035526394844,1.0481585264205933,-0.12121691554784775,-0.46018293499946594,-1.4898163080215454,1.9319744110107422,4.055644512176514,0.29732993245124817,-1.7466089725494385,0.2450169324874878,1.5821545124053955
113,21823,21822,0.016560057178139687,-0.009524241089820862,0.9864764213562012,-0.005917871370911598,2.9799458980560303,-1.3351200819015503,1.9311758279800415,4.054263114929199,0.2976592183113098,-1.8152313232421875,0.23703791201114655,1.5660632848739624
114,21833,21832,0.006124407984316349,-0.008478623814880848,1.0088101625442505,-0.7544434666633606,-3.171828269958496,-0.48171138763427734,1.932005763053894,4.055359840393066,0.2978658080101013,-1.8177951574325562,0.2243134081363678,1.555083990097046
115,21843,21842,-0.03951547294855118,-0.009934384375810623,1.0532540082931519,-1.5437692403793335,-2.728628635406494,-0.40942147374153137,1.9310091733932495,4.053442478179932,0.29805421829223633,-1.795003056526184,0.21301643550395966,1.5490877628326416
116,21853,21852,0.012668970040977001,-0.024744823575019836,1.0140314102172852,-2.296520709991455,-3.126960515975952,0.034740954637527466,1.9306479692459106,4.053414344787598,0.29831168055534363,-1.800432801246643,0.15589489042758942,1.542070984840393
117,21863,21862,0.008316246792674065,0.011321268044412136,1.026847004890442,-2.1187081336975098,-4.291287422180176,0.23543375730514526,1.930254340171814,4.051412105560303,0.298526406288147,-1.6786788702011108,0.11865198612213135,1.5395451784133911
118,21873,21872,-0.01335054263472557,-0.022802013903856277,1.024998426437378,-1.6613779067993164,-4.628992557525635,0.6618109941482544,1.930302381515503,4.051787376403809,0.2989254593849182,-1.5523934364318848,0.09036444127559662,1.5387641191482544
119,21883,21882,0.005050633102655411,-0.11072642356157303,1.03177809715271,-0.029925592243671417,-4.5323567390441895,0.5911042094230652,1.9293363094329834,4.0509514808654785,0.302157461643219,-1.5001552104949951,0.07916628569364548,1.5454939603805542
120,21893,21892,0.01540133822709322,0.06925517320632935,0.9880009293556213,0.24791713058948517,-2.423759937286377,0.45407938957214355,1.9296683073043823,4.049548149108887,0.30270370841026306,-1.5476816892623901,0.23289601504802704,1.5892951488494873
121,21903,21902,-0.027896476909518242,0.07686325162649155,1.0521609783172607,2.776879072189331,-4.136054515838623,0.11640623211860657,1.9311226606369019,4.04801082611084,0.3032362759113312,-1.5140775442123413,0.24834072589874268,1.5923285484313965
122,21913,21912,0.04735845327377319,0.13594411313533783,0.9702039957046509,0.45343077182769775,-0.5993850231170654,0.3016405403614044,1.9326541423797607,4.04616641998291,0.304261177778244,-1.6507298946380615,0.2538759112358093,1.591870903968811
123,21923,21922,0.02980659529566765,0.10337958484888077,1.0057437419891357,-1.6551882028579712,-5.935744762420654,-0.2572547495365143,1.9335516691207886,4.045979976654053,0.30485159158706665,-1.6030200719833374,0.22267365455627441,1.5866464376449585
124,21933,21932,-0.06367839872837067,0.02126304805278778,1.0049035549163818,-5.376216411590576,-8.883214950561523,-0.2845380902290344,1.9335492849349976,4.04694938659668,0.30548912286758423,-1.6262222528457642,0.13711726665496826,1.579404592514038
125,21944,21942,-0.025988126173615456,0.011797918006777763,0.9747536778450012,-7.513362884521484,-11.04581069946289,0.20357255637645721,1.9349452257156372,4.047818183898926,0.30596137046813965,-1.4447150230407715,0.013178159482777119,1.5646414756774902
126,21953,21952,-0.010861944407224655,0.05140397697687149,1.0352140665054321,-6.616992473602295,-12.853059768676758,0.4960326552391052,1.9344186782836914,4.048179626464844,0.3065953254699707,-1.3164629936218262,0.04523114114999771,1.590579628944397
127,21963,21962,0.01734948717057705,0.013363934122025967,1.0096533298492432,-3.059252977371216,-12.983996391296387,0.48712509870529175,1.935092806816101,4.045952796936035,0.3072153627872467,-1.1744415760040283,-0.043443772941827774,1.5878270864486694
128,21973,21972,0.01740843988955021,-0.04547324404120445,0.9878667593002319,-0.38883665204048157,-11.346351623535156,0.06175559014081955,1.9349799156188965,4.045042514801025,0.30782416462898254,-1.1233115196228027,-0.07109545916318893,1.5859967470169067
129,21983,21982,-0.016580939292907715,-0.048834361135959625,0.9920037984848022,0.6625995635986328,-7.703505039215088,-0.41060781478881836,1.9364432096481323,4.044137477874756,0.3120669424533844,-1.034584641456604,-0.07371170818805695,1.584467887878418
130,21993,21992,-0.01387734804302454,0.006955705117434263,0.987460196018219,2.2149665355682373,-6.076812267303467,-0.7922835946083069,1.9374051094055176,4.043057918548584,0.3128773868083954,-1.1345152854919434,-0.05469191074371338,1.5852501392364502
131,22003,22002,-0.039483506232500076,0.008146246895194054,0.9752840995788574,1.5121740102767944,-4.3362884521484375,-0.43004336953163147,1.939902663230896,4.042534828186035,0.31353050470352173,-1.0110777616500854,-0.03172066807746887,1.577622652053833
132,22013,22012,-0.02981608733534813,0.02190203033387661,0.972689151763916,0.4273762106895447,-5.4579267501831055,-1.126861333847046,1.9409314393997192,4.0431437492370605,0.3123932182788849,-0.8968097567558289,-0.025608869269490242,1.5690288543701172
133,22023,22022,-0.04404481127858162,0.027091700583696365,0.9207162857055664,-0.7454918026924133,-7.128635406494141,-1.2433102130889893,1.9409371614456177,4.042486190795898,0.3130616843700409,-0.91126948595047,-0.03832075372338295,1.553014874458313
134,22033,22032,-0.03704942762851715,0.01355951838195324,0.9374989867210388,-1.6774427890777588,-8.224970817565918,-0.7906326055526733,1.9421958923339844,4.042407512664795,0.3135649561882019,-0.8334723114967346,-0.0506102591753006,1.5494987964630127
135,22043,22042,-0.01618974655866623,0.010397524572908878,0.9901680946350098,-0.5644406676292419,-9.384429931640625,-0.3726581335067749,1.9412862062454224,4.041869640350342,0.312041699886322,-0.7325366139411926,-0.09276609122753143,1.5452044010162354
136,22053,22052,0.05623699724674225,0.008444962091743946,0.9527567625045776,-0.18415190279483795,-10.02302074432373,-0.26200753450393677,1.9433811902999878,4.042812347412109,0.31231454014778137,-0.6310531497001648,-0.10514114797115326,1.5390061140060425
137,22063,22062,-0.07847926020622253,0.09993855655193329,1.0418908596038818,0.4961501657962799,-11.10342788696289,-0.28008702397346497,1.943702220916748,4.042514801025391,0.3126290440559387,-0.47861412167549133,-0.02357720024883747,1.541128158569336
138,22073,22072,-0.076754629611969,0.0875621885061264,1.0446985960006714,-0.21085141599178314,-8.540699005126953,-0.4514206051826477,1.9441893100738525,4.041644096374512,0.3130089342594147,-0.3700011968612671,-0.036314647644758224,1.5368622541427612
139,22083,22082,-0.05608741194009781,0.09112133830785751,1.024303674697876,-0.6463095545768738,-5.366299629211426,-0.6905774474143982,1.9452284574508667,4.040688514709473,0.31415924429893494,-0.3754701614379883,-0.05272272229194641,1.5274673700332642
140,22093,22092,-0.013529187068343163,0.08002880215644836,0.9637452363967896,-1.5186907052993774,-1.8378430604934692,-1.047287940979004,1.9464341402053833,4.040816783905029,0.3141233026981354,-0.2820569574832916,-0.08204635232686996,1.5168958902359009
141,22103,22102,0.02428126335144043,0.052796900272369385,0.9147428870201111,-1.831705093383789,-0.08033757656812668,-1.5692654848098755,1.9466185569763184,4.04179048538208,0.3146703243255615,-0.30339401960372925,-0.11994793266057968,1.5134246349334717
142,22113,22112,0.02985629439353943,0.054149284958839417,0.9090869426727295,-1.7583225965499878,0.6901419758796692,-1.7279092073440552,1.9478574991226196,4.041479110717773,0.3147031366825104,-0.3417836129665375,-0.1342138797044754,1.508437991142273
143,22123,22122,0.03684501722455025,0.052509043365716934,0.9224118590354919,-0.4254327714443207,-3.4616341590881348,-1.358455777168274,1.9487911462783813,4.04121732711792,0.31502625346183777,-0.2720409631729126,-0.2317694127559662,1.4855318069458008
144,22133,22132,0.03548946604132652,-0.013764039613306522,0.9519689679145813,-0.19783516228199005,-0.5436224341392517,-1.0669052600860596,1.9495550394058228,4.043035984039307,0.3152928650379181,-0.4306981563568115,-0.23512428998947144,1.4900832176208496
145,22143,22142,0.08061634749174118,-0.047965627163648605,0.9441283345222473,1.934351921081543,-3.075430393218994,-0.8781564831733704,1.951869249343872,4.041986465454102,0.3135105073451996,-0.2517693042755127,-0.14227746427059174,1.4717777967453003
146,22153,22152,0.06768304109573364,-0.10404072701931,0.9537929892539978,3.3188259601593018,-7.1630988121032715,-0.6955066919326782,1.951663613319397,4.041881561279297,0.3136387765407562,-0.21599070727825165,-0.12428845465183258,1.4620329141616821
147,22163,22162,0.038199327886104584,-0.17099930346012115,0.9981032013893127,3.7625632286071777,-9.583301544189453,-0.09862129390239716,1.9522993564605713,4.040560245513916,0.3135705292224884,-0.25967124104499817,-0.19706371426582336,1.4523979425430298
148,22173,22172,-0.01704796589910984,-0.09020587801933289,1.0444071292877197,3.563497304916382,-8.45943832397461,-0.4006286859512329,1.9547004699707031,4.041112899780273,0.3133387267589569,-0.17090676724910736,-0.1591511070728302,1.4496945142745972
149,22183,22182,0.005701615009456873,0.012112239375710487,0.9515648484230042,2.8663101196289062,-6.450234889984131,-0.8347893357276917,1.9541912078857422,4.041088581085205,0.31082841753959656,0.10859718918800354,-0.16442237794399261,1.4287556409835815
150,22193,22192,0.03885606303811073,-0.028729544952511787,0.9099727272987366,2.7891788482666016,-6.531464576721191,-0.42216894030570984,1.9545512199401855,4.038863658905029,0.31065672636032104,0.19234934449195862,-0.02223796397447586,1.414523720741272
151,22203,22202,0.016055025160312653,-0.023361941799521446,0.9866998791694641,1.4432663917541504,-1.2394304275512695,-0.588209867477417,1.955278992652893,4.040194511413574,0.3103508949279785,0.3040558993816376,-0.030746478587388992,1.4183686971664429
152,22213,22212,0.06923390179872513,0.005021802149713039,0.9541470408439636,-0.15061311423778534,4.207287788391113,-0.9997308254241943,1.9555245637893677,4.0391693115234375,0.312757670879364,0.3329218626022339,-0.005905339494347572,1.4057133197784424
153,22223,22222,0.14927226305007935,0.012616116553544998,0.8875269889831543,-0.5544978976249695,3.7868189811706543,-0.6046391129493713,1.9570726156234741,4.039444446563721,0.3125326931476593,0.2085876315832138,-0.0023573823273181915,1.4034448862075806
154,22233,22232,0.18325361609458923,-0.08250724524259567,0.8977291584014893,-2.6435532569885254,5.348532676696777,-0.06488905102014542,1.9584133625030518,4.039373397827148,0.3121820390224457,0.08723016828298569,-0.011339977383613586,1.4014731645584106
155,22243,22242,0.07803653925657272,-0.18213790655136108,0.9685484766960144,-0.9123334884643555,-1.8041554689407349,-0.2762225568294525,1.9603161811828613,4.039247989654541,0.30882707238197327,0.1102747768163681,-0.04890534654259682,1.3877599239349365
156,22253,22252,0.02570348232984543,-0.02139515057206154,1.0118900537490845,-0.06537795066833496,-4.389133930206299,-0.11790937185287476,1.9597141742706299,4.039766788482666,0.3083459734916687,0.10820863395929337,-0.06325540691614151,1.3902846574783325
157,22263,22262,0.027237221598625183,-0.00853039138019085,0.995593786239624,0.9218500256538391,-5.977667808532715,-0.04468756541609764,1.960458517074585,4.039438247680664,0.3076772093772888,0.135902538895607,-0.12818951904773712,1.393874168395996
158,22273,22272,-0.020441768690943718,0.02497171051800251,1.0550227165222168,2.2399306297302246,-5.5844011306762695,-0.05572565644979477,1.9617398977279663,4.040584087371826,0.30696937441825867,0.20015151798725128,-0.11792759597301483,1.3921440839767456
159,22283,22282,0.03773655742406845,0.09363486617803574,1.0033129453659058,2.1685569286346436,-4.892152786254883,0.20180699229240417,1.9612668752670288,4.039280891418457,0.30996763706207275,0.38404586911201477,-0.040467653423547745,1.364292860031128
160,22293,22292,-0.020114881917834282,0.022751225158572197,1.0715548992156982,2.1123974323272705,-2.9365198612213135,0.11874481290578842,1.9620217084884644,4.03794002532959,0.30956992506980896,0.4301823079586029,-0.018978508189320564,1.3566795587539673
161,22303,22302,0.058769337832927704,-0.026250051334500313,0.9885309338569641,1.6962851285934448,0.8620344996452332,0.3874899446964264,1.9629923105239868,4.036396026611328,0.3091990649700165,0.3609376549720764,0.04205014184117317,1.3590320348739624
162,22313,22312,0.05736825615167618,-0.014857576228678226,1.0304837226867676,0.39773377776145935,2.6184675693511963,0.15171895921230316,1.9641377925872803,4.036373138427734,0.3120538890361786,0.36976879835128784,0.06608587503433228,1.3620961904525757
163,22323,22322,0.03726619854569435,-0.007683847565203905,1.0433200597763062,0.03690780699253082,2.2403361797332764,0.14805543422698975,1.9651302099227905,4.036395072937012,0.31195032596588135,0.33805572986602783,0.07251893728971481,1.362966775894165
164,22333,22332,-0.00019853685807902366,0.04943574219942093,1.0355150699615479,-1.4804356098175049,2.3311309814453125,-0.34883609414100647,1.965344786643982,4.03601598739624,0.3119628429412842,0.4132142961025238,0.07241176813840866,1.3610738515853882
165,22343,22342,0.037835728377103806,-0.030153097584843636,1.0521279573440552,-1.5966720581054688,1.5115442276000977,-0.7674735188484192,1.9661014080047607,4.0366082191467285,0.31299105286598206,0.2436889410018921,-0.0311572402715683,1.3746644258499146
166,22353,22352,0.0024404157884418964,-0.006989817600697279,1.0224326848983765,-0.9656392931938171,0.6530486941337585,-0.5250746011734009,1.9678614139556885,4.035758972167969,0.3130243122577667,0.25492510199546814,-0.04207730293273926,1.3579926490783691
167,22363,22362,-0.0025284590665251017,-0.03289148956537247,1.0270459651947021,1.5893144607543945,-1.3402560949325562,-0.28664764761924744,1.9681252241134644,4.035595417022705,0.31316518783569336,0.2064611315727234,-0.03060867078602314,1.349704384803772
168,22373,22372,0.022937364876270294,0.004842728842049837,1.0128637552261353,3.2689075469970703,-0.9223207235336304,0.06660841405391693,1.9697092771530151,4.036081314086914,0.31327417492866516,0.21570946276187897,-0.020571354776620865,1.3467159271240234
169,22383,22382,0.0535532683134079,-0.008461031131446362,0.9908639192581177,4.349888801574707,-2.577977418899536,-0.15165334939956665,1.9716379642486572,4.036612510681152,0.3161070644855499,0.1885775476694107,0.043723445385694504,1.3430920839309692
170,22393,22392,0.06047486141324043,-0.019360067322850227,1.0197288990020752,4.615138053894043,-3.895110607147217,-0.07760632038116455,1.9707915782928467,4.037594795227051,0.3165949583053589,0.3439777195453644,-0.0345742329955101,1.3532251119613647
171,22403,22402,0.032114218920469284,-0.01701265014708042,1.0474950075149536,3.406646966934204,-2.190728187561035,-0.8592328429222107,1.9721033573150635,4.0364766120910645,0.31692230701446533,0.38513311743736267,0.0963342934846878,1.3341487646102905
172,22413,22412,0.049896325916051865,-0.12038939446210861,0.9927483201026917,3.750103235244751,-1.7534093856811523,-0.42018958926200867,1.972282886505127,4.035239219665527,0.31802642345428467,0.4399051070213318,0.16769881546497345,1.3083114624023438
173,22423,22422,0.01038315985351801,-0.08309684693813324,1.0209466218948364,2.8068087100982666,0.06649523228406906,-0.6861392855644226,1.9728058576583862,4.034399509429932,0.3184977173805237,0.4553043246269226,0.20594604313373566,1.298210859298706
174,22433,22432,-0.01367932464927435,0.02991606667637825,0.9764090180397034,1.142470121383667,2.518482208251953,-0.8197760581970215,1.9738212823867798,4.034120559692383,0.31889161467552185,0.38373973965644836,0.09960581362247467,1.2951843738555908
175,22443,22442,0.023762060329318047,0.013060406781733036,0.92813640832901,0.6803835034370422,3.342428207397461,-0.3978317379951477,1.974473237991333,4.033672332763672,0.3188704252243042,0.3573589622974396,0.1583869308233261,1.2771555185317993
176,22453,22452,0.061211273074150085,-0.002736504888162017,0.9408360719680786,0.9488313794136047,3.169630289077759,-0.22997619211673737,1.975083827972412,4.03267240524292,0.319230854511261,0.32382842898368835,0.1869589239358902,1.259209394454956
177,22463,22462,0.0028544082306325436,-0.009776068851351738,0.9854416847229004,0.9495882391929626,2.3405890464782715,-0.6077468991279602,1.9754964113235474,4.030844688415527,0.3195163309574127,0.2892696261405945,0.13286755979061127,1.256413221359253
178,22473,22472,0.03460678458213806,-0.08375135064125061,0.949985146522522,2.379225015640259,1.193472146987915,-0.8922191262245178,1.9758214950561523,4.0318989753723145,0.3205437958240509,0.35090920329093933,0.09751925617456436,1.2645503282546997
179,22483,22482,0.027446798980236053,-0.10113821178674698,0.9841333627700806,2.117316722869873,0.6649697422981262,-0.8077483773231506,1.9752494096755981,4.03210973739624,0.3208543658256531,0.26098400354385376,0.15047624707221985,1.2581982612609863
180,22493,22492,0.03718874976038933,-0.06644698232412338,0.9492642879486084,3.738173246383667,1.227143406867981,-1.0669935941696167,1.976220965385437,4.031916618347168,0.32109740376472473,0.2546851336956024,0.17323358356952667,1.2527594566345215
181,22503,22502,0.036151763051748276,0.002619311911985278,0.9239534139633179,3.4708051681518555,1.8137584924697876,-1.190919041633606,1.975873351097107,4.031759738922119,0.32135501503944397,0.3193501830101013,0.25039350986480713,1.2394286394119263
182,22513,22512,0.0176096148788929,0.12178996950387955,0.9108468890190125,2.5657143592834473,2.7518882751464844,-1.1881489753723145,1.9778234958648682,4.031125068664551,0.3227391541004181,0.27471640706062317,0.3503058850765228,1.206704020500183
183,22523,22522,0.02082645148038864,0.07271534949541092,0.9150474071502686,2.535210132598877,2.507960557937622,-0.6929624676704407,1.9776965379714966,4.03194522857666,0.3229246735572815,0.3090558648109436,0.39972490072250366,1.2133868932724
184,22533,22532,0.05100854113698006,-0.017146073281764984,0.9275170564651489,1.0429738759994507,0.5731161236763,-1.5085636377334595,1.9771597385406494,4.03098726272583,0.322978675365448,0.19994880259037018,0.35460853576660156,1.2106122970581055
185,22543,22542,0.0014461445389315486,-0.021488085389137268,0.9719157218933105,-0.5792378783226013,1.608964204788208,-0.5328969359397888,1.9780129194259644,4.03091287612915,0.3239936828613281,0.26213252544403076,0.3708502948284149,1.1971461772918701
186,22553,22552,0.0012677747290581465,-0.02895766869187355,0.9735649824142456,-3.3511240482330322,3.6093599796295166,-0.564059317111969,1.9775617122650146,4.031128406524658,0.3240406811237335,0.29909542202949524,0.3524230122566223,1.2023295164108276
187,22563,22562,0.06280503422021866,-0.2783404588699341,1.0451552867889404,-3.944234848022461,3.668919563293457,-0.5680158138275146,1.9777746200561523,4.031192779541016,0.32402631640434265,0.31286510825157166,0.30352485179901123,1.188227891921997
188,22573,22572,0.02026890218257904,-0.19483822584152222,1.0412615537643433,-2.2343626022338867,4.816216945648193,-0.7819293141365051,1.9776089191436768,4.031684398651123,0.32301846146583557,0.31008562445640564,0.33900147676467896,1.19306218624115
189,22583,22582,9.866800246527418e-05,-0.10352664440870285,1.0125350952148438,-0.6128746867179871,7.125887870788574,-1.2740834951400757,1.976885437965393,4.030104637145996,0.3229752480983734,0.25869157910346985,0.31656110286712646,1.186637043952942
190,22593,22592,-0.008137968368828297,-0.028780093416571617,0.9845064878463745,-0.5781708359718323,11.035802841186523,-2.1117258071899414,1.9775006771087646,4.0302276611328125,0.32298827171325684,0.12015226483345032,0.3045579195022583,1.1815873384475708
191,22604,22602,0.019478419795632362,0.01706080324947834,0.9688825011253357,1.1676104068756104,7.838290691375732,-1.0734132528305054,1.977811336517334,4.029820442199707,0.3229605257511139,0.049410127103328705,0.3103378713130951,1.1574738025665283
192,22613,22612,0.03367719426751137,-0.021457388997077942,0.9178116321563721,0.2904669940471649,6.792424201965332,-1.1773289442062378,1.9784519672393799,4.030418872833252,0.3212326765060425,-0.02708195522427559,0.3227468430995941,1.1536996364593506
193,22623,22622,0.014744210988283157,-0.022266007959842682,1.0149643421173096,-1.3902945518493652,4.972470760345459,-1.4551341533660889,1.9790898561477661,4.030304431915283,0.3211165964603424,-0.07097772508859634,0.32288244366645813,1.1487042903900146
194,22633,22632,0.08377265185117722,-0.048388637602329254,0.9947940707206726,-1.7862290143966675,3.06520414352417,-0.7774966955184937,1.9793791770935059,4.030064105987549,0.32093313336372375,-0.2133723646402359,0.28208741545677185,1.123363971710205
195,22643,22642,0.09497272968292236,-0.1465638130903244,0.9736135005950928,-1.9931472539901733,1.5216103792190552,-0.3035464286804199,1.9805114269256592,4.030160903930664,0.32585376501083374,-0.3402833640575409,0.32650408148765564,1.1086889505386353
196,22653,22652,0.014916502870619297,-0.17481543123722076,1.0332611799240112,-1.285727858543396,0.5611794590950012,0.0022722750436514616,1.9814828634262085,4.028820991516113,0.32583221793174744,-0.27477896213531494,0.29115983843803406,1.1075927019119263
197,22663,22662,-0.025145811960101128,-0.12105748802423477,1.0399608612060547,-1.3064591884613037,-0.369709312915802,-0.4719928503036499,1.9814152717590332,4.028783321380615,0.32599079608917236,-0.2758439779281616,0.26200294494628906,1.1062623262405396
198,22673,22672,0.011607547290623188,-0.0029433858580887318,0.9744074940681458,-2.601825475692749,-1.2736424207687378,-0.8130733966827393,1.9817874431610107,4.028985500335693,0.3250400424003601,-0.33882400393486023,0.22440707683563232,1.1074506044387817
199,22683,22682,0.01663830131292343,-0.013943418860435486,0.9838085770606995,-2.540158748626709,-1.8383214473724365,-1.3659144639968872,1.9831393957138062,4.028482913970947,0.3250412046909332,-0.30750805139541626,0.17981481552124023,1.0869178771972656
200,22693,22692,0.01838407665491104,0.04770032688975334,0.9920780062675476,-1.6216779947280884,-1.1878178119659424,-1.1402533054351807,1.983608603477478,4.029082298278809,0.32510310411453247,-0.2033730149269104,0.22075295448303223,1.0817475318908691
201,22703,22702,0.08561405539512634,0.052653320133686066,0.9423338770866394,-1.6045269966125488,-0.7483716011047363,-0.9776374697685242,1.9835621118545532,4.028380393981934,0.32517412304878235,-0.19702421128749847,0.20301814377307892,1.069942831993103
202,22713,22712,0.12053035944700241,0.0017878836952149868,0.9449982643127441,-2.3915297985076904,-1.836345911026001,-1.4078677892684937,1.9850226640701294,4.027358055114746,0.32750174403190613,-0.2797195017337799,0.2381725311279297,1.0357308387756348
203,22724,22722,-0.055716659873723984,0.06711228936910629,0.9896848797798157,-3.3392398357391357,-0.3974904716014862,-1.0055649280548096,1.9844664335250854,4.026747703552246,0.3276319205760956,-0.16729959845542908,0.1818549931049347,1.0327365398406982
204,22733,22732,0.025911375880241394,-0.03973212465643883,0.9738500118255615,-4.106882572174072,0.9617800116539001,-1.1443476676940918,1.984680414199829,4.026888847351074,0.32771217823028564,-0.08609183132648468,0.11417427659034729,1.0230131149291992
205,22743,22742,0.045263633131980896,-0.134530171751976,0.9721820950508118,-3.69960880279541,2.1161091327667236,-1.1035802364349365,1.9860424995422363,4.02686071395874,0.33054906129837036,-0.19912070035934448,0.11620811372995377,1.0090968608856201
206,22753,22752,-0.006998837925493717,-0.16101989150047302,1.0038365125656128,-3.2843000888824463,3.0043487548828125,-1.3437837362289429,1.9873452186584473,4.027495384216309,0.3306722939014435,-0.24066196382045746,0.04263300076127052,1.0006518363952637
207,22763,22762,-0.0070939213037490845,-0.026138119399547577,0.9888802170753479,-2.2517449855804443,2.9721434116363525,-1.4101676940917969,1.9874080419540405,4.026816368103027,0.3308229446411133,-0.21440701186656952,0.05796438455581665,0.9893648028373718
208,22773,22772,0.01930152252316475,0.06652719527482986,0.964545726776123,-0.8838263154029846,2.955568790435791,-1.423284649848938,1.9878524541854858,4.026778221130371,0.33058708906173706,-0.26596853137016296,0.01079652365297079,0.9831132292747498
209,22783,22782,0.06369676440954208,0.04558856040239334,0.936955988407135,-0.29477378726005554,1.463906168937683,-1.6548818349838257,1.9874664545059204,4.025944709777832,0.3306672275066376,-0.23140807449817657,-0.01416774932295084,0.9616779088973999
210,22793,22792,0.04597293958067894,-0.014660153537988663,0.936933159828186,-1.1008204221725464,-0.05657254904508591,-1.6026475429534912,1.9882349967956543,4.026066303253174,0.33066779375076294,-0.33271974325180054,0.0456552654504776,0.9588046073913574
211,22803,22802,0.03452005982398987,-0.026933105662465096,0.9543289542198181,-1.5038743019104004,-1.052769422531128,-1.6891214847564697,1.9882980585098267,4.024725437164307,0.33004099130630493,-0.3281722962856293,0.012530590407550335,0.9203435778617859
212,22813,22812,0.044172510504722595,-0.04346645250916481,0.9724236130714417,-2.4566590785980225,-2.145886182785034,-1.6954660415649414,1.9887677431106567,4.02489709854126,0.3298974931240082,-0.3087972104549408,-0.028378266841173172,0.9125697612762451
213,22823,22822,0.049921873956918716,-0.090328149497509,0.9720383882522583,-1.9888733625411987,-1.9272501468658447,-1.7197239398956299,1.9883246421813965,4.024130821228027,0.3297613263130188,-0.19922246038913727,-0.0816245824098587,0.8778825998306274
214,22833,22832,0.058289553970098495,-0.14366158843040466,0.9550074338912964,-1.2810215950012207,-0.5553364157676697,-1.565308690071106,1.9879769086837769,4.023980617523193,0.32959455251693726,-0.10363171249628067,-0.12226514518260956,0.8605004549026489
215,22843,22842,0.01476035825908184,-0.035771772265434265,0.9691269993782043,-0.4904228746891022,0.7682588696479797,-1.2764745950698853,1.989386796951294,4.024257659912109,0.3294658958911896,-0.1808558851480484,-0.1506640464067459,0.8449921011924744
216,22853,22852,0.040104541927576065,-0.10478021204471588,0.9685137867927551,-0.03304075077176094,3.7352216243743896,-1.3313976526260376,1.9902132749557495,4.02335786819458,0.3291831612586975,-0.21076229214668274,-0.16281060874462128,0.8106001615524292
217,22863,22862,0.025792544707655907,-0.12613070011138916,0.9688464403152466,1.3210184574127197,4.7295451164245605,-1.0409058332443237,1.990674376487732,4.023355007171631,0.32890406250953674,-0.2074403613805771,-0.16476160287857056,0.7959174513816833
218,22873,22872,-0.009677846916019917,-0.21447411179542542,0.9688550233840942,1.664941430091858,4.5477094650268555,-0.8314723968505859,1.991848111152649,4.023752689361572,0.3287027180194855,-0.29854509234428406,-0.1451694667339325,0.7977436780929565
219,22883,22882,0.007912330329418182,-0.10605350881814957,0.942759096622467,2.3683249950408936,3.7171571254730225,-1.1704704761505127,1.9917911291122437,4.022531509399414,0.3283909857273102,-0.30367472767829895,-0.11553232371807098,0.7653084993362427
220,22893,22892,-0.0492129810154438,-0.10905792564153671,0.9637826085090637,1.616339921951294,2.20526385307312,-1.1360949277877808,1.9917858839035034,4.023121356964111,0.32804182171821594,-0.29346293210983276,-0.08326196670532227,0.7761926054954529
221,22903,22902,-0.043433792889118195,-0.09442522376775742,0.9541590213775635,0.9174292683601379,2.2137115001678467,-0.7137854099273682,1.9921908378601074,4.022693157196045,0.3284628391265869,-0.26388785243034363,-0.05951792374253273,0.7532197833061218
222,22913,22912,0.006857004947960377,-0.06538346409797668,0.9639737010002136,-0.005293119233101606,2.7243568897247314,-0.505836546421051,1.9931381940841675,4.021594524383545,0.3280273973941803,-0.3151300847530365,0.02710024267435074,0.7479187250137329
223,22923,22922,0.026468578726053238,-0.05007733032107353,1.0060575008392334,-0.6016770601272583,2.7682743072509766,-0.5791891813278198,1.9943342208862305,4.020833969116211,0.3275581896305084,-0.373115599155426,0.014347278513014317,0.7248334288597107
224,22933,22932,0.09558644145727158,-0.16048897802829742,0.9971923232078552,-1.7421140670776367,3.846752405166626,-0.9945763945579529,1.9949300289154053,4.019918918609619,0.3271086513996124,-0.4298040270805359,-0.009834541007876396,0.6993356347084045
225,22943,22942,0.000732816697563976,0.012518594041466713,0.9966697692871094,-1.843465805053711,2.2739908695220947,-0.5940994620323181,1.995489239692688,4.020638942718506,0.330908864736557,-0.426553875207901,-0.05479893088340759,0.694409191608429
226,22953,22952,-0.01445013377815485,-0.040762316435575485,1.0263402462005615,-3.0818967819213867,3.24851655960083,-0.7745829224586487,1.995678186416626,4.020118713378906,0.33066222071647644,-0.47596415877342224,-0.09635331481695175,0.6805833578109741
227,22963,22962,0.009118502028286457,-0.04275158792734146,0.9792433381080627,-2.118722438812256,2.7731974124908447,-0.25670090317726135,1.9957786798477173,4.02020263671875,0.3304920196533203,-0.4550366699695587,-0.15241363644599915,0.6713956594467163
228,22973,22972,0.0066298143938183784,0.06822177022695541,1.0165703296661377,-0.02290225587785244,0.6969729065895081,-0.47975268959999084,1.9956461191177368,4.018002510070801,0.3272310793399811,-0.5221026539802551,-0.11540700495243073,0.6535050868988037
229,22983,22982,0.00247441534884274,0.029193131253123283,1.0200754404067993,2.133617877960205,0.31413426995277405,-0.465082049369812,1.9963150024414062,4.0179829597473145,0.3268289864063263,-0.5464398264884949,-0.11803029477596283,0.6542249321937561
230,22993,22992,0.022744804620742798,-0.020494142547249794,0.9784778952598572,5.043094635009766,-1.4176350831985474,0.20223790407180786,1.9970924854278564,4.018189430236816,0.3264215886592865,-0.5607205033302307,-0.16433174908161163,0.6548681855201721
231,23003,23002,0.01201010961085558,-0.03029472567141056,0.9802127480506897,4.0436482429504395,-0.4963822364807129,0.057334575802087784,1.9986425638198853,4.01778507232666,0.32561013102531433,-0.6178916692733765,-0.08197714388370514,0.6513140201568604
232,23013,23012,-0.019073642790317535,0.02832997590303421,1.0104631185531616,2.5930049419403076,-0.5055056810379028,-0.16485550999641418,1.9981348514556885,4.017791748046875,0.32527896761894226,-0.5229470729827881,-0.017869288101792336,0.656642735004425
233,23023,23022,0.03850860148668289,-0.08148778229951859,1.0111602544784546,0.5938896536827087,0.13991059362888336,-0.438789427280426,2.000770092010498,4.018085479736328,0.32469895482063293,-0.6802141070365906,0.015153358690440655,0.670619547367096
234,23033,23032,0.0006426994223147631,0.028712304309010506,1.0314233303070068,-0.9176818132400513,1.5488007068634033,-1.2156263589859009,2.0007245540618896,4.0185370445251465,0.3239268958568573,-0.5945630669593811,0.016547348350286484,0.6516115665435791
235,23043,23042,0.022382725030183792,0.018137125298380852,0.9862368106842041,-0.9214445948600769,-0.6524755358695984,-1.2403703927993774,2.001154899597168,4.018258571624756,0.3235069215297699,-0.6105534434318542,-0.005755725782364607,0.655764639377594
236,23053,23052,0.03442758694291115,0.00668873218819499,0.9540038704872131,-2.374295234680176,-1.3553143739700317,-1.8620089292526245,2.00053334236145,4.016746997833252,0.3231367766857147,-0.5187563300132751,0.04967086762189865,0.6361120343208313
237,23063,23062,-0.025270402431488037,0.0040994142182171345,1.0196611881256104,-2.8727567195892334,-1.8702911138534546,-1.7528305053710938,2.000930070877075,4.017245769500732,0.32273510098457336,-0.4862247705459595,-0.0077616432681679726,0.628066897392273
238,23073,23072,0.015320062637329102,-0.009152354672551155,0.9908114075660706,-1.2563090324401855,0.27539685368537903,-1.5127280950546265,2.0013136863708496,4.015946865081787,0.3226679563522339,-0.5294560194015503,-0.05739540234208107,0.5883897542953491
239,23083,23082,0.024164926260709763,0.045737914741039276,1.0025177001953125,-1.0931161642074585,-0.605900228023529,-0.10839627683162689,2.0020933151245117,4.015822410583496,0.32222145795822144,-0.6107849478721619,-0.0819028690457344,0.578264594078064
