,timestamp_start,timestamp_end,acc.x,acc.y,acc.z,gyro.x,gyro.y,gyro.z,stateEstimate.x,stateEstimate.y,stateEstimate.z,stabilizer.pitch,stabilizer.roll,stabilizer.yaw
0,20076,20066,0.028118615970015526,-0.054043885320425034,1.024932622909546,1.2438101768493652,-7.379007816314697,1.0193114280700684,2.0430498123168945,4.055901050567627,0.17885425686836243,-0.19471073150634766,0.11903247237205505,1.0011076927185059
1,20086,20076,0.010313872247934341,-0.12753942608833313,1.0413230657577515,-2.0159695148468018,-1.46495521068573,0.9116231799125671,2.0407791137695312,4.055400848388672,0.18005603551864624,-0.1254376918077469,0.09156299382448196,1.0091173648834229
2,20096,20086,0.01189347729086876,-0.05694356933236122,1.027410626411438,-5.442172527313232,0.06359143555164337,0.5786062479019165,2.03904128074646,4.05525541305542,0.1790306121110916,-0.27128010988235474,0.015502837486565113,1.0074830055236816
3,20106,20096,0.021196050569415092,0.0746903121471405,1.04390287399292,-5.599605083465576,3.6401679515838623,0.6114311218261719,2.0390613079071045,4.054775714874268,0.1801450550556183,-0.2582572102546692,-0.09392974525690079,1.0109723806381226
4,20116,20106,0.05783616006374359,0.014380315318703651,1.0363391637802124,-6.0226826667785645,2.0978095531463623,1.123235821723938,2.035966396331787,4.053877353668213,0.18120677769184113,-0.2959800660610199,-0.19386382400989532,1.0151256322860718
5,20126,20116,0.02088291570544243,0.05139685049653053,1.1093255281448364,-2.616973638534546,-0.6311011910438538,0.4436052739620209,2.0338187217712402,4.05212926864624,0.18186603486537933,-0.0918232798576355,-0.2532327175140381,1.025146722793579
6,20136,20126,0.04902561008930206,-0.1772666871547699,1.0885865688323975,2.9573886394500732,-0.5983430743217468,0.5225340127944946,2.0324878692626953,4.052065849304199,0.18317811191082,-0.24533557891845703,-0.23144137859344482,1.0318385362625122
7,20146,20136,-0.022461306303739548,-0.12012075632810593,1.1309417486190796,7.11885929107666,-1.138766884803772,1.4538987874984741,2.0316178798675537,4.051846027374268,0.1845983862876892,0.1920725256204605,-0.08608252555131912,1.048285722732544
8,20156,20146,0.015361638739705086,0.04182342439889908,1.0510932207107544,5.608449459075928,-2.803961753845215,2.069518566131592,2.0275790691375732,4.050968647003174,0.1862122267484665,0.14985017478466034,0.00972379557788372,1.0645487308502197
9,20166,20156,0.022353770211338997,0.10200317203998566,1.1009658575057983,3.102978467941284,-1.0345574617385864,1.662359356880188,2.025313377380371,4.0503621101379395,0.18633410334587097,-0.16419734060764313,0.29223644733428955,1.1038998365402222
10,20176,20166,0.060607410967350006,-0.08990653604269028,1.119628667831421,0.5852465629577637,2.5030391216278076,1.6374692916870117,2.0267863273620605,4.048286437988281,0.18830254673957825,0.09794718772172928,-0.14964185655117035,1.0828553438186646
11,20186,20176,0.013896583579480648,-0.07442579418420792,1.099336862564087,-4.174493789672852,4.597707271575928,1.4347001314163208,2.0249547958374023,4.050443649291992,0.19095508754253387,-1.0747584104537964,1.1252542734146118,1.2063919305801392
12,20196,20186,-0.015558257699012756,-0.029156910255551338,1.0203999280929565,-4.608057498931885,3.8175599575042725,0.5063490271568298,2.0338644981384277,4.041648864746094,0.19458697736263275,-1.0231504440307617,0.9641810655593872,1.2065142393112183
13,20206,20196,0.03910471126437187,0.006978901103138924,1.0489956140518188,-12.28774642944336,-7.533698081970215,0.8688938021659851,2.033846378326416,4.041982650756836,0.19769132137298584,-0.9812422394752502,0.6930378675460815,1.1874204874038696
14,20216,20206,0.03883726894855499,-0.11031237244606018,1.1096577644348145,-16.2973575592041,-14.210878372192383,0.28400495648384094,2.0343821048736572,4.042139053344727,0.20093512535095215,-0.8553454875946045,0.40727680921554565,1.1734569072723389
15,20226,20216,-0.009068080224096775,-0.09258601069450378,1.1543259620666504,-17.72962760925293,-20.755128860473633,-0.15074029564857483,2.0336670875549316,4.042387008666992,0.19912125170230865,-0.533861517906189,0.1612042635679245,1.1709712743759155
16,20236,20226,0.008627960458397865,0.0001477165933465585,1.0056169033050537,-19.886959075927734,-26.28081703186035,0.7158210873603821,2.0339715480804443,4.0443243980407715,0.20173610746860504,-0.410176157951355,-0.1098456159234047,1.1539596319198608
17,20246,20236,0.011536319740116596,0.055093131959438324,0.9906999468803406,-17.67660140991211,-29.75802993774414,1.6263481378555298,2.035219192504883,4.045323848724365,0.2038753479719162,0.0699349194765091,-0.5127856135368347,1.148568034172058
18,20256,20246,0.009889256209135056,0.06317347288131714,1.085898518562317,-12.543906211853027,-28.279186248779297,1.8649848699569702,2.0339391231536865,4.047906875610352,0.20659609138965607,0.16351211071014404,-0.8293430805206299,1.139233946800232
19,20266,20256,0.03226609155535698,-0.03535822033882141,1.0783745050430298,-4.928822994232178,-18.58204460144043,1.8343271017074585,2.0350680351257324,4.048808574676514,0.20466452836990356,0.3616015315055847,-0.8007176518440247,1.1741268634796143
20,20276,20266,-0.011555167846381664,-0.019034279510378838,1.0768742561340332,2.658597469329834,-11.116354942321777,1.9096823930740356,2.0359151363372803,4.047186374664307,0.206920325756073,0.5806177854537964,-0.8780292868614197,1.1897401809692383
21,20286,20276,0.025377213954925537,-0.034014176577329636,0.9874451756477356,8.999034881591797,-4.07482385635376,1.5337013006210327,2.036261558532715,4.047440528869629,0.20911680161952972,0.8335132002830505,-0.8157688975334167,1.20980703830719
22,20296,20286,0.03474191948771477,0.047272734344005585,0.9922290444374084,10.543581008911133,-0.9104804992675781,2.2950494289398193,2.035395860671997,4.047656059265137,0.20859555900096893,0.7622284889221191,-0.8349547982215881,1.2280926704406738
23,20306,20296,-0.013081186451017857,0.05903981998562813,0.9807835221290588,8.869440078735352,-0.2744506299495697,2.7463793754577637,2.0364601612091064,4.047571659088135,0.21061943471431732,0.7294247150421143,-0.8344342112541199,1.2525155544281006
24,20316,20306,0.03592269495129585,0.05620429664850235,0.9677812457084656,5.845221996307373,-2.4748637676239014,2.7164931297302246,2.0373899936676025,4.0483245849609375,0.21252350509166718,0.6892076134681702,-0.7129808068275452,1.285068154335022
25,20326,20316,0.0010744509054347873,0.01143480185419321,1.0206283330917358,3.763014316558838,-2.6147427558898926,2.7724647521972656,2.0384039878845215,4.047994136810303,0.21538281440734863,0.6108977198600769,-0.6392672061920166,1.3213485479354858
26,20336,20326,0.006363661494106054,-0.08885814994573593,0.9864904880523682,2.587773323059082,-9.868368148803711,3.3072075843811035,2.039081335067749,4.046821117401123,0.21737930178642273,0.7837564945220947,-0.7319455742835999,1.3392257690429688
27,20346,20336,-0.005938003771007061,-0.05572137236595154,1.0454951524734497,3.0417699813842773,-9.792582511901855,3.687990665435791,2.0378899574279785,4.047443389892578,0.21954460442066193,0.8075189590454102,-0.67368084192276,1.3801641464233398
28,20356,20346,-0.026278803125023842,-0.03345721960067749,1.0511715412139893,4.402843475341797,-12.274650573730469,3.043408155441284,2.038121223449707,4.045492172241211,0.22139613330364227,0.9949354529380798,-0.6805909872055054,1.4092379808425903
29,20366,20356,0.02923760749399662,-0.06716836243867874,0.9376556873321533,6.156662940979004,-12.50851821899414,3.293363332748413,2.0370092391967773,4.044689178466797,0.2235005497932434,1.2175151109695435,-0.6413173675537109,1.4359474182128906
30,20376,20366,0.031069694086909294,0.013717897236347198,0.93800288438797,7.481064319610596,-10.952737808227539,3.9778635501861572,2.035451650619507,4.044748306274414,0.22565066814422607,0.9208121299743652,-0.513692319393158,1.5110270977020264
31,20386,20376,0.057576339691877365,0.08177254348993301,0.9601819515228271,8.393348693847656,-8.644722938537598,4.44143533706665,2.03961443901062,4.044045925140381,0.22783632576465607,1.0769939422607422,-0.37213611602783203,1.5441431999206543
32,20396,20386,0.07508521527051926,0.07636325806379318,0.9795174598693848,8.3922758102417,-8.289969444274902,4.32451868057251,2.039299249649048,4.0430827140808105,0.2281656414270401,1.3381825685501099,-0.368626207113266,1.579878807067871
33,20406,20396,0.04623520374298096,0.045656658709049225,1.0105584859848022,7.1657185554504395,-8.024066925048828,3.938915729522705,2.0381553173065186,4.042932510375977,0.2302091419696808,1.3508206605911255,-0.36624225974082947,1.6382291316986084
34,20416,20406,0.008192907087504864,0.03776128217577934,1.0287920236587524,5.319802761077881,-6.441208839416504,3.119483470916748,2.03822660446167,4.043598175048828,0.23202112317085266,1.5704829692840576,-0.23897771537303925,1.6585569381713867
35,20426,20416,-0.01997559145092964,0.05151006206870079,0.9781880974769592,6.244654178619385,-6.105884075164795,3.8184988498687744,2.0369551181793213,4.042002201080322,0.2349817156791687,1.6035468578338623,-0.12222956120967865,1.6869298219680786
36,20436,20426,-0.01735309325158596,0.012599537149071693,0.938585638999939,4.163112163543701,0.7024682760238647,3.7430670261383057,2.0356414318084717,4.04136323928833,0.23687969148159027,1.7314002513885498,-0.09760121256113052,1.722809910774231
37,20446,20436,-0.019367506727576256,0.025862477719783783,0.992250919342041,3.1696150302886963,4.221046447753906,3.931990623474121,2.035372018814087,4.041748046875,0.23877684772014618,1.7658780813217163,-0.09040231257677078,1.76398503780365
38,20456,20446,-0.009165938012301922,0.09933535754680634,0.9505982995033264,4.044146537780762,3.8888022899627686,4.703710079193115,2.0328502655029297,4.041829586029053,0.24100030958652496,1.7332110404968262,-0.014376319944858551,1.7981235980987549
39,20466,20456,0.01934196427464485,0.024223309010267258,0.9580070972442627,2.873960494995117,7.579510688781738,4.241247653961182,2.0332069396972656,4.04146671295166,0.2428317368030548,1.545282244682312,0.06127064302563667,1.8430594205856323
40,20476,20466,-0.008601351641118526,-0.06541731208562851,1.0137834548950195,4.217564582824707,7.585081100463867,4.1697001457214355,2.033172845840454,4.0407562255859375,0.2447240799665451,1.4581626653671265,0.13488440215587616,1.8783433437347412
41,20486,20476,-0.017147541046142578,-0.0905662477016449,0.9859062433242798,3.914193630218506,5.716631889343262,4.0325446128845215,2.033578872680664,4.040431022644043,0.24651628732681274,1.5700147151947021,0.2045360803604126,1.9000880718231201
42,20496,20486,-0.09799540787935257,-0.07309827208518982,1.060494303703308,2.8065896034240723,5.390902042388916,4.12123441696167,2.0308547019958496,4.036184787750244,0.24779115617275238,1.494055986404419,0.2611270546913147,1.9349175691604614
43,20506,20496,-0.09069490432739258,-0.02881908230483532,1.022973895072937,0.5165911316871643,3.6928396224975586,4.4961700439453125,2.031104803085327,4.0353474617004395,0.2496296614408493,1.4323681592941284,0.2855702340602875,1.977779507637024
44,20516,20506,0.03340056911110878,-0.03569039702415466,0.9366956353187561,-0.6901630759239197,3.0824804306030273,3.779468059539795,2.0316271781921387,4.035292625427246,0.2514941394329071,1.3997722864151,0.2872392535209656,2.020502805709839
45,20526,20516,0.03237910941243172,-0.06182187795639038,0.9243440628051758,-1.553041696548462,0.2807931900024414,3.519920587539673,2.031251907348633,4.035250663757324,0.2531280517578125,1.4429831504821777,0.32792532444000244,2.044004201889038
46,20536,20526,-0.025331806391477585,0.00450390949845314,0.9866222739219666,-3.031677484512329,0.6876225471496582,3.1715645790100098,2.030747175216675,4.034385681152344,0.2548619210720062,1.1224724054336548,0.2010762244462967,2.094529390335083
47,20546,20536,-0.0688725933432579,0.017800651490688324,1.0286710262298584,-3.1817965507507324,4.692361354827881,2.4831316471099854,2.0342202186584473,4.037423610687256,0.2567943036556244,1.3237314224243164,0.14868639409542084,2.1322858333587646
48,20556,20546,-0.029272235929965973,-0.04229695349931717,0.9600857496261597,-2.069739818572998,4.094415187835693,2.155235528945923,2.0315260887145996,4.036951065063477,0.25771716237068176,1.2510135173797607,0.17724308371543884,2.143641710281372
49,20566,20556,0.021338121965527534,-0.06595054268836975,0.876837432384491,1.6173889636993408,0.9129599332809448,1.9489837884902954,2.031740427017212,4.0370659828186035,0.2593784034252167,0.5137821435928345,0.08298829942941666,2.161048173904419
50,20576,20566,0.05400250479578972,-0.06938987225294113,0.8494026064872742,3.274618148803711,0.7457036375999451,1.924576759338379,2.037416696548462,4.0378642082214355,0.2609778046607971,0.6294968724250793,0.12415618449449539,2.1820220947265625
51,20586,20576,-0.06808058172464371,0.1268480271100998,0.9332860708236694,3.4351704120635986,-2.043107509613037,1.9665789604187012,2.0334720611572266,4.036214828491211,0.26264357566833496,0.7036309838294983,0.18230950832366943,2.1995840072631836
52,20596,20586,-0.03599569946527481,0.09051460772752762,0.9510744214057922,3.1059517860412598,-6.551953315734863,2.003025770187378,2.0336694717407227,4.038325786590576,0.2609737515449524,0.8408399820327759,0.24039289355278015,2.218485116958618
53,20606,20596,0.0008385793771594763,-0.015212113037705421,0.9602197408676147,1.0132763385772705,-10.618433952331543,2.0452942848205566,2.0330100059509277,4.0377302169799805,0.2621804475784302,1.0247151851654053,0.195646733045578,2.250727653503418
54,20616,20606,0.016591288149356842,-0.036200422793626785,0.9385986328125,-0.3007928431034088,-10.962654113769531,1.486918568611145,2.0321927070617676,4.0374603271484375,0.2633102834224701,1.2371548414230347,0.12479218095541,2.2806689739227295
55,20626,20616,-0.024316810071468353,-0.0014834387693554163,0.9710133075714111,-1.5093251466751099,-7.271984577178955,1.125547170639038,2.030951738357544,4.037418842315674,0.2652856111526489,1.340275526046753,0.12447170913219452,2.2929162979125977
56,20636,20626,-0.058291640132665634,0.03809031471610069,0.9506308436393738,-2.196183443069458,-0.5884727239608765,1.6472467184066772,2.0305395126342773,4.037322521209717,0.2663460671901703,1.4224004745483398,0.17622806131839752,2.2973334789276123
57,20646,20636,-0.04702301323413849,0.07081581652164459,0.9362586140632629,-1.520321249961853,4.402871131896973,1.4019339084625244,2.030196189880371,4.037251949310303,0.26737669110298157,1.400525689125061,0.14277994632720947,2.31264328956604
58,20656,20646,0.0033584842458367348,-0.0274033285677433,0.9626133441925049,-0.9879315495491028,11.269023895263672,0.8789246678352356,2.0302045345306396,4.035679340362549,0.2678278982639313,1.337210774421692,0.12759095430374146,2.326079845428467
59,20666,20656,0.031638726592063904,0.06851722300052643,0.9334781169891357,0.8542684316635132,11.661643028259277,0.8811306357383728,2.0298080444335938,4.0360798835754395,0.26872166991233826,1.3036408424377441,0.13134531676769257,2.335995674133301
60,20676,20666,-0.00785200297832489,0.07578869163990021,1.0073683261871338,2.288012742996216,11.93705940246582,0.36891719698905945,2.0278220176696777,4.036275863647461,0.2696155905723572,1.0879206657409668,0.08414704352617264,2.348714828491211
61,20686,20676,0.030384700745344162,-0.05321752279996872,0.9566152095794678,3.3740439414978027,10.202203750610352,0.986605167388916,2.0279152393341064,4.036855220794678,0.27046912908554077,1.061037540435791,0.14129756391048431,2.3514366149902344
62,20696,20686,-0.04024848714470863,-0.06103282421827316,1.0122331380844116,5.152146816253662,6.803833484649658,0.9996532797813416,2.0272181034088135,4.036524295806885,0.2700210511684418,0.905209481716156,0.0614900216460228,2.3747637271881104
63,20706,20696,-0.028777727857232094,-0.014237265102565289,0.9932659268379211,5.277276039123535,2.7934906482696533,0.6517748832702637,2.0275027751922607,4.037736415863037,0.27077993750572205,0.9772418737411499,0.16888736188411713,2.380296230316162
64,20716,20706,-0.0030666200909763575,-0.0073251184076070786,0.9534011483192444,3.3440897464752197,2.0162975788116455,0.6818549036979675,2.026136875152588,4.037849426269531,0.2715582847595215,0.9038001298904419,0.26493313908576965,2.375549077987671
65,20726,20716,-0.01533797848969698,0.024414433166384697,0.9709829688072205,2.5440168380737305,0.545571506023407,1.0338923931121826,2.02577543258667,4.037472248077393,0.27381792664527893,1.0600157976150513,0.32418951392173767,2.3822436332702637
66,20736,20726,0.011480857618153095,0.006244000978767872,0.9448642134666443,1.6549469232559204,0.9924503564834595,1.152847170829773,2.023207902908325,4.037083148956299,0.27450740337371826,1.0123800039291382,0.36409133672714233,2.391963481903076
67,20746,20736,-0.03497738018631935,-0.022269783541560173,1.027923345565796,-1.085986852645874,7.146200180053711,1.1147350072860718,2.022824764251709,4.036802768707275,0.2752854824066162,1.0649181604385376,0.3658045530319214,2.4076035022735596
68,20756,20746,-0.023559914901852608,-0.02220500446856022,0.99908047914505,-2.9600608348846436,11.123409271240234,0.9102054238319397,2.020611524581909,4.036109447479248,0.2748497724533081,0.8645473122596741,0.2580684721469879,2.4220945835113525
69,20766,20756,0.014580952934920788,-0.009506700560450554,1.0062100887298584,-4.343089580535889,14.261042594909668,1.160813808441162,2.0207226276397705,4.037200927734375,0.2756393551826477,0.7708737254142761,0.2145189493894577,2.4348108768463135
70,20776,20766,0.023414961993694305,-0.02450587786734104,0.9983009696006775,-3.0520107746124268,14.437485694885254,1.704562783241272,2.0197560787200928,4.036281585693359,0.27629896998405457,0.7962484955787659,0.17620094120502472,2.4561686515808105
71,20786,20776,-0.01785050518810749,0.08480000495910645,0.9958434104919434,-1.1928373575210571,12.22396469116211,0.7116175293922424,2.018061637878418,4.036556720733643,0.2752109169960022,0.582422137260437,0.23252743482589722,2.4604694843292236
72,20796,20786,-0.0022693490609526634,-0.04987463355064392,0.9897834658622742,1.0655100345611572,11.133749961853027,0.8344412446022034,2.0174994468688965,4.036266803741455,0.27587589621543884,0.410183846950531,0.31362277269363403,2.4603798389434814
73,20806,20796,0.008981146849691868,-0.11020117253065109,0.9875952005386353,1.6084208488464355,9.07973575592041,1.2831465005874634,2.0169026851654053,4.035334587097168,0.27643701434135437,0.49562758207321167,0.3304395377635956,2.4766829013824463
74,20816,20806,0.002964985091239214,-0.03600095957517624,1.003344178199768,0.7315946221351624,6.514974594116211,1.9379384517669678,2.0141026973724365,4.034265995025635,0.27692335844039917,0.371466726064682,0.3509245812892914,2.489879608154297
75,20826,20816,0.003609813516959548,-0.026771225035190582,1.023597002029419,0.1977718472480774,4.082954406738281,2.013498067855835,2.0133960247039795,4.034048557281494,0.27927231788635254,0.3021467924118042,0.3504639267921448,2.5123658180236816
76,20836,20826,0.053012456744909286,-0.1345016211271286,1.0338670015335083,-3.9439353942871094,4.018960952758789,1.5523205995559692,2.012577533721924,4.033474445343018,0.2799471914768219,0.3923586308956146,0.3183780908584595,2.537487268447876
77,20846,20836,-0.0026715868152678013,-0.0347009152173996,1.0292612314224243,-5.7660136222839355,7.882310390472412,1.4609851837158203,2.009871482849121,4.033569812774658,0.28060299158096313,0.35833540558815,0.22244752943515778,2.559424877166748
78,20856,20846,0.03431757539510727,-0.10796241462230682,0.9751637578010559,-6.373795986175537,11.791688919067383,0.9080524444580078,2.007647752761841,4.032687187194824,0.2849736511707306,0.11115666478872299,0.19165323674678802,2.565683364868164
79,20866,20856,-0.017488397657871246,0.01624518632888794,1.0477735996246338,-4.723893165588379,14.113085746765137,1.297059416770935,2.008582592010498,4.032100200653076,0.286037802696228,0.052685368806123734,0.1763318032026291,2.581207513809204
80,20876,20866,0.026819417253136635,-0.027640363201498985,0.9938703179359436,-2.0052413940429688,13.620950698852539,2.0953474044799805,2.007272720336914,4.031497001647949,0.2869585156440735,-0.11415122449398041,0.099226213991642,2.598891019821167
81,20886,20876,-0.01014024019241333,-0.008132392540574074,1.0191985368728638,-1.4765148162841797,13.31624984741211,2.2287111282348633,2.006293773651123,4.032317161560059,0.28930747509002686,-0.4158657491207123,0.1343238800764084,2.612283229827881
82,20896,20886,0.004665114916861057,-0.02065969817340374,0.9918042421340942,-0.4737096428871155,11.080158233642578,1.9677636623382568,2.0070486068725586,4.03264045715332,0.29044151306152344,-0.375177800655365,0.17760023474693298,2.648834466934204
83,20906,20896,0.04981532692909241,-0.00750608230009675,1.0177521705627441,1.0477982759475708,5.359034538269043,1.945741057395935,2.0047149658203125,4.031298637390137,0.2916160523891449,-0.5117043852806091,0.16606839001178741,2.662712812423706
84,20916,20906,-0.0005878930678591132,0.0037982442881911993,1.007982611656189,1.2769581079483032,1.5539612770080566,2.1858232021331787,2.0038704872131348,4.030056953430176,0.292703777551651,-0.6292636394500732,0.16707228124141693,2.679272174835205
85,20926,20916,0.020135127007961273,-0.01937607116997242,0.9740342497825623,-0.20381446182727814,-1.034947156906128,2.072003126144409,2.0032572746276855,4.029129505157471,0.29056060314178467,-0.5332252383232117,0.15410614013671875,2.7009952068328857
86,20936,20926,0.016414564102888107,-0.042455051094293594,0.981027364730835,-0.08408747613430023,-2.198180675506592,2.1804311275482178,2.0013203620910645,4.030355930328369,0.291410893201828,-0.5675390362739563,0.13434241712093353,2.7199583053588867
87,20946,20936,0.02097957208752632,-0.11684639751911163,1.0271174907684326,-2.059691905975342,4.654389381408691,1.7970163822174072,2.0003318786621094,4.029316425323486,0.2922738790512085,-0.4872939884662628,0.17393814027309418,2.748695135116577
88,20956,20946,-0.0034883650951087475,-0.0605013370513916,1.0044699907302856,-3.263519048690796,11.78403091430664,1.4536839723587036,1.998349666595459,4.027607440948486,0.2898499667644501,-0.7053659558296204,0.1824941635131836,2.766253709793091
89,20966,20956,0.029855448752641678,-0.07588069885969162,0.9457031488418579,-4.087553024291992,21.34099578857422,0.6905723810195923,1.9991860389709473,4.027059078216553,0.2905622124671936,-0.9882697463035583,0.09210889041423798,2.7663307189941406
90,20976,20966,0.03250572830438614,-0.04493633285164833,0.9453577995300293,-4.492787837982178,26.429719924926758,0.7116131782531738,1.9991787672042847,4.0265607833862305,0.29123881459236145,-1.1432915925979614,0.0053947800770401955,2.7685441970825195
91,20986,20976,0.018159745261073112,-0.03183848038315773,0.9646312594413757,-3.912980079650879,25.974830627441406,0.8958441615104675,1.9970635175704956,4.026358604431152,0.2910713255405426,-1.474685788154602,-0.0837351530790329,2.7660653591156006
92,20996,20986,-0.047353729605674744,0.03164658322930336,1.0152473449707031,-3.5577893257141113,23.799591064453125,1.1437588930130005,1.9964689016342163,4.025951862335205,0.29158782958984375,-1.7902024984359741,-0.08391283452510834,2.7838802337646484
93,21006,20996,0.020917335525155067,-0.053033553063869476,1.0048332214355469,-2.4778473377227783,18.314281463623047,0.36209729313850403,1.996447205543518,4.025195121765137,0.2920784652233124,-1.716118335723877,-0.07112815231084824,2.8055336475372314
94,21016,21006,0.021179713308811188,-0.08027102798223495,0.9989844560623169,-0.4099276661872864,11.710807800292969,-0.08104435354471207,1.9930166006088257,4.024228096008301,0.2942570447921753,-1.7803272008895874,-0.1075265184044838,2.801644802093506
95,21026,21016,0.017529085278511047,-0.05675221234560013,0.9722928404808044,0.5923967957496643,7.160839080810547,-0.8651859164237976,1.9908345937728882,4.023386478424072,0.2948724329471588,-1.9874248504638672,-0.12042362987995148,2.7898080348968506
96,21036,21026,0.021468600258231163,-0.029600508511066437,0.9787485003471375,0.15432307124137878,4.80435848236084,-0.9679474234580994,1.9912443161010742,4.023172855377197,0.29542088508605957,-2.142301321029663,0.024574274197220802,2.814478635787964
97,21046,21036,-0.018664419651031494,0.10034928470849991,0.9692783355712891,-1.4551461935043335,2.526644229888916,-1.590043067932129,1.9919073581695557,4.021052837371826,0.2959270477294922,-2.1555707454681396,-0.015968255698680878,2.793642997741699
98,21056,21046,0.0023009111173450947,-0.08118359744548798,1.0130072832107544,-2.9212260246276855,3.469564437866211,-1.640672206878662,1.9918686151504517,4.021688461303711,0.2978454530239105,-2.162168264389038,-0.08688321709632874,2.765096664428711
99,21066,21056,-0.04726612567901611,-0.07681497186422348,1.0836910009384155,-4.414390563964844,2.9192535877227783,-1.6750273704528809,1.991197109222412,4.021389961242676,0.2985031306743622,-2.301145076751709,-0.1184224933385849,2.7542672157287598
100,21076,21066,0.006786870304495096,-0.012485552579164505,1.0204730033874512,-5.68911600112915,3.8367502689361572,-1.6444792747497559,1.9917389154434204,4.020952224731445,0.2991568148136139,-2.370251178741455,-0.15100696682929993,2.7436912059783936
101,21086,21076,-0.016287000849843025,0.07344673573970795,0.9739800691604614,-5.864692211151123,3.899430274963379,-1.4023066759109497,1.9920400381088257,4.020471096038818,0.3010726869106293,-2.298715829849243,-0.2721227705478668,2.705721616744995
102,21096,21086,-0.004727569408714771,0.0985189899802208,0.9748060703277588,-4.66722297668457,1.4796348810195923,-1.0812129974365234,1.9907675981521606,4.020894527435303,0.3019045889377594,-2.4335227012634277,-0.3786894679069519,2.6760733127593994
103,21106,21096,0.015488586388528347,0.037665437906980515,0.9954677820205688,-2.1899709701538086,-0.3806029260158539,-1.6408463716506958,1.9921149015426636,4.021640300750732,0.3025793731212616,-2.43981671333313,-0.3724413514137268,2.6798617839813232
104,21116,21106,0.013658087700605392,-0.03188319131731987,1.0118963718414307,0.16076360642910004,-1.8945032358169556,-1.9170737266540527,1.9921038150787354,4.020369529724121,0.3051947057247162,-2.419895887374878,-0.32838743925094604,2.68326473236084
105,21126,21116,-0.03395183011889458,-0.010557743720710278,1.0191361904144287,1.922802209854126,-3.0578718185424805,-2.091026544570923,1.9917291402816772,4.018707752227783,0.30608731508255005,-2.367999792098999,-0.32213374972343445,2.6583199501037598
106,21136,21126,-0.031838309019804,0.0245968084782362,0.9659752249717712,1.9456220865249634,-4.386745929718018,-1.8918291330337524,1.9918327331542969,4.018118858337402,0.3069815933704376,-2.2973365783691406,-0.3053925037384033,2.6356072425842285
107,21146,21136,-0.025457097217440605,0.0694948062300682,0.9407727718353271,1.4086825847625732,-5.105217456817627,-1.8139208555221558,1.9915404319763184,4.0181660652160645,0.30783283710479736,-2.3512094020843506,-0.29766690731048584,2.618910074234009
108,21156,21146,0.0038127885200083256,0.047442808747291565,0.9437721371650696,0.2590673267841339,-4.8525214195251465,-2.2445743083953857,1.992893934249878,4.018118381500244,0.3070988059043884,-2.238218307495117,-0.30540961027145386,2.5910325050354004
109,21166,21156,-0.02441501058638096,0.07226241379976273,1.0062273740768433,-1.1539827585220337,-4.345533847808838,-2.6460585594177246,1.99248206615448,4.018787860870361,0.30778244137763977,-2.128159999847412,-0.253200501203537,2.589158296585083
110,21176,21166,-0.045551665127277374,0.04483833909034729,1.0130574703216553,-1.7987489700317383,-3.8518049716949463,-3.1699182987213135,1.9919061660766602,4.017273426055908,0.3084554672241211,-2.39892840385437,-0.296741783618927,2.5619516372680664
111,21186,21176,-0.0479842871427536,-0.052710629999637604,0.9865437150001526,-2.826359510421753,-3.655106544494629,-3.062602996826172,1.9964935779571533,4.018033027648926,0.3066764771938324,-2.2028183937072754,-0.3562139570713043,2.5069081783294678
112,21196,21186,-0.06010642647743225,-0.044248808175325394,0.9994234442710876,-3.70796275138855,-4.20270299911499,-3.251211643218994,1.9953844547271729,4.017876625061035,0.30735817551612854,-2.092653274536133,-0.4286678731441498,2.4568989276885986
113,21206,21196,-0.020285341888666153,-0.025752799585461617,0.9764595031738281,-3.1405344009399414,-5.906757831573486,-2.3997642993927,1.9952448606491089,4.017624378204346,0.3079386353492737,-2.10676646232605,-0.4908697009086609,2.4196672439575195
114,21216,21206,-0.0629430040717125,0.042749401181936264,0.9734290838241577,-1.6899770498275757,-6.421710968017578,-2.324984550476074,1.9954890012741089,4.0169854164123535,0.3090195059776306,-2.0953919887542725,-0.46179649233818054,2.422515392303467
115,21226,21216,-0.0038620219565927982,-0.016442807391285896,0.952344536781311,0.82970130443573,-7.508924961090088,-2.6478700637817383,1.9960905313491821,4.015583038330078,0.30948251485824585,-1.9178318977355957,-0.4736629128456116,2.389116048812866
116,21236,21226,0.027155959978699684,0.011633060872554779,0.9533452391624451,3.188732862472534,-8.105234146118164,-2.8541433811187744,1.995679497718811,4.015224933624268,0.3100571632385254,-1.8801217079162598,-0.2928614914417267,2.4292054176330566
117,21246,21236,0.015139052644371986,0.02629355899989605,1.0093448162078857,3.537250280380249,-9.055503845214844,-3.3174188137054443,1.996265172958374,4.012043476104736,0.3104785084724426,-1.8211921453475952,-0.25099700689315796,2.4020884037017822
118,21256,21246,-0.002107316628098488,0.008891567587852478,1.0287930965423584,1.0177412033081055,-8.281923294067383,-2.7460947036743164,1.9975090026855469,4.012043476104736,0.311419278383255,-1.617892861366272,-0.31368497014045715,2.333437204360962
119,21266,21256,-0.010288515128195286,-0.017689311876893044,0.9971718788146973,-1.343708872795105,-7.870372772216797,-2.671520471572876,1.996706247329712,4.013101100921631,0.3120293617248535,-1.7909960746765137,-0.408731073141098,2.28478741645813
120,21276,21266,-0.022615838795900345,0.025346720591187477,1.0050379037857056,-2.5761258602142334,-5.952319145202637,-2.696301221847534,2.0002846717834473,4.014047622680664,0.31241267919540405,-1.6096113920211792,-0.5261797308921814,2.2175815105438232
121,21286,21276,-0.0040935552679002285,0.12320917844772339,0.9379700422286987,-2.1912686824798584,-7.427473068237305,-2.3500301837921143,1.9994066953659058,4.014634609222412,0.310314804315567,-1.6424822807312012,-0.48992404341697693,2.220273733139038
122,21296,21286,0.014586834236979485,0.11357281357049942,0.947335422039032,-1.0111322402954102,-8.235589027404785,-2.5189833641052246,2.000654697418213,4.013230800628662,0.3105539381504059,-1.7318986654281616,-0.585486114025116,2.177443027496338
123,21306,21296,0.027836468070745468,0.10143930464982986,0.9472447037696838,2.161367416381836,-9.961910247802734,-2.8086049556732178,2.003443717956543,4.014053821563721,0.3105938136577606,-1.4652395248413086,-0.4876677393913269,2.173220634460449
124,21316,21306,0.03469092398881912,-0.03471377119421959,0.9421805143356323,3.991586208343506,-10.619058609008789,-2.715567111968994,2.002023458480835,4.012387752532959,0.31070682406425476,-1.4028635025024414,-0.5011246800422668,2.1342291831970215
125,21326,21316,0.023865099996328354,-0.04085039719939232,0.9702876210212708,4.35242223739624,-12.37000560760498,-2.750253200531006,2.003566026687622,4.012423038482666,0.3107742965221405,-1.2527495622634888,-0.4192488193511963,2.115558624267578
126,21336,21326,0.0348871648311615,-0.030967077240347862,0.9920550584793091,4.110251426696777,-13.21923542022705,-2.914259672164917,2.0038154125213623,4.011524677276611,0.31093043088912964,-1.0843194723129272,-0.3402160704135895,2.0964815616607666
127,21346,21336,0.007266815751791,-0.09543641656637192,0.9942878484725952,2.874466896057129,-11.80637264251709,-2.928696393966675,2.0045862197875977,4.011684894561768,0.30961787700653076,-1.0728559494018555,-0.35938894748687744,2.061370372772217
128,21356,21346,-0.01726922206580639,-0.10778898000717163,0.9978353381156921,0.08795354515314102,-9.73171615600586,-3.063502311706543,2.0068485736846924,4.012351989746094,0.30953511595726013,-0.7860474586486816,-0.32810282707214355,2.0230696201324463
129,21366,21356,-0.032989583909511566,-0.06230581924319267,0.9957085251808167,-1.9852975606918335,-6.434061050415039,-2.693004608154297,2.005544424057007,4.011503219604492,0.30973008275032043,-0.856522262096405,-0.34087541699409485,2.003258466720581
130,21376,21366,-0.04069361090660095,-0.017573406919836998,0.9801387786865234,-3.3303897380828857,-4.886735439300537,-2.8032469749450684,2.008805751800537,4.011610507965088,0.3096688985824585,-0.797655463218689,-0.3870071768760681,1.9740735292434692
131,21386,21376,0.004192217253148556,-0.03399186581373215,0.9706330299377441,-1.6805282831192017,-5.5837931632995605,-2.489349365234375,2.0098958015441895,4.011894226074219,0.3090341091156006,-0.7459473013877869,-0.4084349572658539,1.9485267400741577
132,21396,21386,0.02360181324183941,0.025395404547452927,0.9945458173751831,0.09407922625541687,-6.925542831420898,-2.181842565536499,2.0112130641937256,4.012046813964844,0.3089786767959595,-0.5999341011047363,-0.4130125939846039,1.9214375019073486
133,21406,21396,0.0014825776452198625,0.021154431626200676,1.0273420810699463,1.8633456230163574,-7.128097057342529,-1.5132766962051392,2.011730670928955,4.012207508087158,0.3090100586414337,-0.5216388702392578,-0.3820396065711975,1.9069215059280396
134,21416,21406,0.01357524748891592,-0.025697393342852592,0.9900789856910706,4.712007522583008,-7.579602241516113,-1.6700502634048462,2.0126709938049316,4.012109279632568,0.30753716826438904,-0.5172988772392273,-0.3856140673160553,1.887479305267334
135,21426,21416,-0.03099663369357586,-0.04837033897638321,0.9766998291015625,4.968649387359619,-7.23411226272583,-1.3663705587387085,2.0149147510528564,4.012563705444336,0.30734601616859436,-0.3537066578865051,-0.2931367754936218,1.8743922710418701
136,21436,21426,-0.042088259011507034,0.013214168138802052,1.0055676698684692,5.7100372314453125,-7.090489864349365,-0.9798715114593506,2.015273094177246,4.012442588806152,0.3072761595249176,-0.4191923141479492,-0.18470245599746704,1.8769559860229492
137,21446,21436,-0.010870161466300488,0.026363980025053024,1.0299738645553589,3.9914143085479736,-6.018526554107666,-0.4981556236743927,2.0175249576568604,4.011342525482178,0.30519846081733704,-0.18286702036857605,-0.2483680695295334,1.8495843410491943
138,21456,21446,0.009579510428011417,-0.035995759069919586,0.9596336483955383,2.6790871620178223,-6.670227527618408,-0.5464038252830505,2.016984224319458,4.012511253356934,0.30512329936027527,-0.11951540410518646,-0.1779852956533432,1.8477182388305664
139,21466,21456,-0.006290880031883717,-0.07885611057281494,1.0416315793991089,2.7566111087799072,-5.0610480308532715,-0.36360064148902893,2.018049478530884,4.012419700622559,0.30491024255752563,-0.27345043420791626,-0.1447075754404068,1.8567906618118286
140,21476,21466,0.03836483508348465,-0.14295734465122223,1.0540965795516968,1.02815842628479,-3.3941569328308105,-1.1894837617874146,2.020138740539551,4.012538909912109,0.3048272132873535,-0.14066819846630096,-0.0963723212480545,1.8525350093841553
141,21486,21476,-0.011195911094546318,0.04101254791021347,0.9914994835853577,0.1616901308298111,-3.0466697216033936,-1.466543197631836,2.020854949951172,4.012469291687012,0.30832746624946594,-0.048603400588035583,-0.2179504632949829,1.8331818580627441
142,21496,21486,0.020148715004324913,0.004311754833906889,1.0241163969039917,-0.03479877859354019,-2.1079044342041016,-1.423354983329773,2.021328926086426,4.01320219039917,0.3084486126899719,-0.036548715084791183,-0.18827877938747406,1.8221372365951538
143,21506,21496,0.012294759042561054,0.03046715445816517,0.9580087661743164,2.0019445419311523,-4.623405933380127,-1.109029769897461,2.022784948348999,4.013909816741943,0.30849137902259827,0.04635578393936157,-0.15314382314682007,1.8023992776870728
144,21516,21506,0.036166898906230927,0.01339613925665617,0.9400215744972229,4.182763576507568,-4.386868476867676,-0.013032983057200909,2.023582935333252,4.012629985809326,0.3077298104763031,-0.14848187565803528,-0.09796197712421417,1.7965326309204102
145,21526,21516,-0.0336402989923954,-0.02668183110654354,1.10431969165802,5.658440589904785,-4.27450704574585,0.15268546342849731,2.0268959999084473,4.012415885925293,0.3075307607650757,0.08750002086162567,-0.013463310897350311,1.7879717350006104
146,21536,21526,-0.01008739322423935,-0.05910519137978554,1.0948150157928467,5.737196922302246,-5.672863960266113,0.37346169352531433,2.0260000228881836,4.010522842407227,0.30765533447265625,0.14748355746269226,0.09112437069416046,1.7873961925506592
147,21546,21536,-0.0618901289999485,-0.03973747789859772,1.094690203666687,4.000638961791992,-5.492384433746338,0.7517716288566589,2.0272138118743896,4.010106563568115,0.3071335554122925,0.07161542773246765,0.11178327351808548,1.7947849035263062
148,21556,21546,-0.0520026721060276,0.0444585457444191,1.051221489906311,-0.37650004029273987,-2.8439383506774902,0.735863447189331,2.029327392578125,4.010390281677246,0.30715513229370117,0.2930375933647156,0.10087120532989502,1.8011144399642944
149,21566,21556,-0.018852626904845238,0.07982715219259262,0.9863576292991638,-2.0234150886535645,-3.601879358291626,0.8479601740837097,2.0294198989868164,4.011073112487793,0.30754324793815613,0.3122762441635132,0.1128024086356163,1.8082269430160522
150,21576,21566,0.010748040862381458,-0.00199108780361712,1.0255693197250366,-2.5817155838012695,-3.771026611328125,0.8427703380584717,2.030841112136841,4.011149883270264,0.3077596127986908,0.33347126841545105,0.09012802690267563,1.816670298576355
151,21586,21576,0.0346226803958416,-0.0011295583099126816,1.0411750078201294,-1.4068512916564941,-2.623807907104492,0.9396964907646179,2.031362295150757,4.010610580444336,0.3086837828159332,0.35162097215652466,0.06608326733112335,1.8260836601257324
152,21596,21586,0.005273007787764072,-0.04127935692667961,1.007333517074585,0.9477956891059875,-2.575446844100952,0.7298016548156738,2.0324018001556396,4.010744571685791,0.30894601345062256,0.3585676848888397,0.0662151426076889,1.832998514175415
153,21606,21596,-0.005578897427767515,-0.01415601558983326,1.0287836790084839,2.588289976119995,-2.4391002655029297,0.8264898061752319,2.0329790115356445,4.0104169845581055,0.3092843294143677,0.5164096355438232,0.09802137315273285,1.8392744064331055
154,21616,21606,0.011691022664308548,-0.05663753300905228,0.9838420152664185,3.6097278594970703,-2.8039894104003906,0.9573453068733215,2.032979965209961,4.0102338790893555,0.30883651971817017,0.34865811467170715,0.07426328212022781,1.8507604598999023
155,21626,21616,0.05315105989575386,-0.046149905771017075,0.9969625473022461,4.493566989898682,-2.2562506198883057,1.1238062381744385,2.035893201828003,4.010958194732666,0.3090320825576782,0.5074169039726257,0.0722966119647026,1.8688035011291504
156,21636,21626,0.08373676985502243,-0.0914931669831276,1.0122934579849243,2.586509943008423,-0.4188506007194519,0.5454117059707642,2.034982442855835,4.0105180740356445,0.3094337284564972,0.5729919672012329,0.16066288948059082,1.8753137588500977
157,21646,21636,-0.011042044498026371,0.004748934879899025,1.0418413877487183,2.4337432384490967,-0.43967846035957336,1.4357109069824219,2.035398483276367,4.010242462158203,0.31015288829803467,0.5359901785850525,0.07352433353662491,1.8983416557312012
158,21656,21646,0.03184285759925842,-0.044918499886989594,0.9689138531684875,2.1071503162384033,1.107749104499817,1.0547853708267212,2.036827802658081,4.011585712432861,0.3104526102542877,0.4765149652957916,0.1355913281440735,1.904842734336853
159,21666,21656,0.029981499537825584,-0.02545655332505703,0.9658554196357727,1.4558517932891846,1.4593459367752075,1.1421548128128052,2.0385818481445312,4.011456489562988,0.310760498046875,0.4143548905849457,0.26428598165512085,1.8983608484268188
160,21676,21666,-0.01809054985642433,0.03353921324014664,1.0524348020553589,1.1120105981826782,2.2203264236450195,1.287554383277893,2.0404014587402344,4.010439395904541,0.31135353446006775,0.5089868307113647,0.297791063785553,1.9107263088226318
161,21686,21676,0.002527883742004633,-0.02458965964615345,0.9950719475746155,1.5541870594024658,1.6556220054626465,1.5160748958587646,2.0394325256347656,4.01045560836792,0.311807781457901,0.43088504672050476,0.25194066762924194,1.9303100109100342
162,21696,21686,0.005205465015023947,-0.03969912603497505,0.985397458076477,0.7639698386192322,-0.2932170629501343,1.7738531827926636,2.040898323059082,4.011044025421143,0.31213048100471497,0.5251100659370422,0.28166303038597107,1.950239658355713
163,21706,21696,-0.009710590355098248,-0.06491982191801071,1.0299919843673706,0.05070391669869423,-1.3340034484863281,1.6349314451217651,2.0402777194976807,4.01133394241333,0.3126627504825592,0.47765862941741943,0.3018323481082916,1.9642999172210693
164,21716,21706,0.016048511490225792,-0.06126156076788902,0.9955278038978577,-0.8192605972290039,0.08610392361879349,2.128263473510742,2.0416970252990723,4.011326789855957,0.3147214353084564,0.585882842540741,0.3131960928440094,1.9825128316879272
165,21726,21716,-0.004797838162630796,0.046358704566955566,1.0007888078689575,-1.9659111499786377,0.38986751437187195,1.9205348491668701,2.041280746459961,4.011244297027588,0.31537121534347534,0.4416165351867676,0.22590422630310059,2.008392095565796
166,21736,21726,0.018651507794857025,-0.029615696519613266,0.9520661234855652,-2.294360876083374,2.038743495941162,1.8888367414474487,2.0435712337493896,4.0122270584106445,0.31581348180770874,0.5049101710319519,0.20490014553070068,2.0313210487365723
167,21746,21736,0.06953343003988266,0.006544490810483694,0.9263036251068115,-2.054447889328003,1.617638349533081,2.1230125427246094,2.0439655780792236,4.012172698974609,0.31822603940963745,0.31330153346061707,0.1771729439496994,2.0359461307525635
168,21756,21746,0.04635680094361305,-0.029167626053094864,0.9880421161651611,-0.6438271999359131,0.9430930614471436,2.793137311935425,2.0455081462860107,4.011337757110596,0.3187013566493988,0.3861667513847351,0.1598951369524002,2.0598177909851074
169,21766,21756,0.020264890044927597,-0.03350793197751045,0.9713881015777588,0.5858135223388672,-0.11904340982437134,2.9501681327819824,2.0454952716827393,4.011386394500732,0.31931072473526,0.39362236857414246,0.16541621088981628,2.0833511352539062
170,21776,21766,0.001114501035772264,-0.1031632125377655,0.9991759061813354,1.5757945775985718,-1.8941829204559326,3.0076518058776855,2.045933485031128,4.0111236572265625,0.31701603531837463,0.34772399067878723,0.19331258535385132,2.1126229763031006
171,21786,21776,0.01933930069208145,-0.04057218134403229,0.9629926681518555,3.1766269207000732,-0.6203884482383728,2.588388442993164,2.0472819805145264,4.012090682983398,0.3173036575317383,0.3945353627204895,0.23917293548583984,2.138558864593506
172,21796,21786,0.0242552999407053,-0.024693740531802177,0.9475281834602356,2.367676019668579,0.5123132467269897,2.059763193130493,2.0477590560913086,4.011360168457031,0.3176121711730957,0.3483538329601288,0.367991179227829,2.139669418334961
173,21806,21796,0.004448548890650272,-0.012681635096669197,0.983936071395874,-0.8863692879676819,1.35980224609375,1.4868066310882568,2.0485055446624756,4.009698867797852,0.317839652299881,0.3651445209980011,0.38892844319343567,2.162787914276123
174,21816,21806,0.014654111117124557,-0.012057092040777206,0.9757555723190308,-4.237349033355713,2.571733236312866,0.6754486560821533,2.0487406253814697,4.008988380432129,0.31633663177490234,0.43495771288871765,0.360385000705719,2.1870453357696533
175,21826,21816,0.1006767526268959,-0.1001335084438324,0.9816063046455383,-5.7324724197387695,2.0943849086761475,0.3818066418170929,2.0490458011627197,4.008767604827881,0.3164876401424408,0.4839276373386383,0.28566962480545044,2.20637845993042
176,21836,21826,-0.007727119140326977,-0.001012673368677497,1.0096235275268555,-8.041918754577637,3.247575521469116,-0.443250834941864,2.0490121841430664,4.008946895599365,0.3166228234767914,0.4456365704536438,0.17998047173023224,2.2174041271209717
177,21846,21836,0.008917251601815224,-0.07679291069507599,0.9559734463691711,-6.545120716094971,3.872610092163086,-0.5250097513198853,2.050053358078003,4.009354114532471,0.31843945384025574,0.40025800466537476,0.06467520445585251,2.215019702911377
178,21856,21846,-0.006513801869004965,-0.041278596967458725,0.9771892428398132,-3.5717403888702393,5.4170427322387695,-0.5265499353408813,2.050407648086548,4.008824348449707,0.31859174370765686,0.40996527671813965,-0.027684727683663368,2.215742588043213
179,21866,21856,0.016094651073217392,-0.06725714355707169,0.9348254203796387,-0.24857503175735474,5.973049640655518,-0.9096053242683411,2.05061674118042,4.009139537811279,0.3187520205974579,0.394009530544281,-0.06975065171718597,2.21433424949646
180,21876,21866,-0.010412079282104969,-0.007310892920941114,0.9975656867027283,4.195074081420898,5.9727044105529785,-0.9932124614715576,2.050471782684326,4.00968599319458,0.31638622283935547,0.2186945676803589,-0.0507008321583271,2.203523874282837
181,21886,21876,-0.0035179101396352053,-0.0008332679863087833,1.0057413578033447,6.159923553466797,5.383056163787842,-1.366090178489685,2.0512402057647705,4.009698867797852,0.31630948185920715,0.12661048769950867,0.02374817058444023,2.1860437393188477
182,21896,21886,0.020393718034029007,-0.04277679696679115,0.9704350829124451,6.3777031898498535,4.2517991065979,-1.534187912940979,2.0526914596557617,4.009263038635254,0.31620994210243225,0.13320310413837433,0.12926208972930908,2.1687068939208984
183,21906,21896,-0.010275283828377724,-0.10001368820667267,1.0292407274246216,4.142406463623047,2.1678965091705322,-1.5663269758224487,2.052788734436035,4.008322238922119,0.3161679208278656,0.15263941884040833,0.23099316656589508,2.1418144702911377
184,21916,21906,-0.016651460900902748,-0.00980373378843069,1.0490328073501587,1.3968755006790161,2.4270081520080566,-1.3621879816055298,2.052090883255005,4.007030487060547,0.3160642683506012,0.17597347497940063,0.2130652815103531,2.1357617378234863
185,21926,21916,0.0022459030151367188,-0.03939636051654816,0.9361549019813538,-1.6123076677322388,1.6920437812805176,-1.0225720405578613,2.052358388900757,4.0078558921813965,0.31606805324554443,0.058818623423576355,0.23092417418956757,2.1115920543670654
186,21936,21926,-0.003109697951003909,-0.012686760164797306,0.9926368594169617,-4.335594177246094,2.99544358253479,-0.8264539837837219,2.053399085998535,4.007240295410156,0.31596097350120544,0.08125488460063934,0.18660596013069153,2.1131064891815186
187,21946,21936,0.0503542423248291,-0.11945062130689621,0.9696303606033325,-5.080628395080566,3.450007438659668,-1.2645149230957031,2.053572177886963,4.007698059082031,0.3183658719062805,-0.0528269037604332,0.18847180902957916,2.092150926589966
188,21956,21946,0.002590419491752982,-0.0388740710914135,1.0265254974365234,-3.0330111980438232,4.043118476867676,-1.0262386798858643,2.0548107624053955,4.006720542907715,0.3183584213256836,-0.09295831620693207,0.11198872327804565,2.083094596862793
189,21966,21956,-0.027033573016524315,-0.11795827746391296,1.070046305656433,-2.3604116439819336,4.415353298187256,-1.4132401943206787,2.055833578109741,4.006871700286865,0.31839314103126526,-0.07142126560211182,0.14224231243133545,2.0686492919921875
190,21976,21966,0.02967807464301586,-0.07716294378042221,0.9653050899505615,-0.25308239459991455,2.1349921226501465,-1.546992540359497,2.0561137199401855,4.0062255859375,0.31769856810569763,-0.20166869461536407,0.10993869602680206,2.044570207595825
191,21986,21976,-0.01977165788412094,0.0006249735597521067,1.0321367979049683,-1.1606260538101196,2.4936046600341797,-1.3544906377792358,2.057365894317627,4.005565166473389,0.3177047669887543,-0.15128231048583984,0.09736604243516922,2.0398528575897217
192,21996,21986,0.012348528020083904,-0.02354336716234684,1.0021898746490479,-0.17544260621070862,1.1344106197357178,-1.7627171277999878,2.0573320388793945,4.005578994750977,0.3178638815879822,-0.09686928987503052,0.01582152582705021,2.0244011878967285
193,22006,21996,0.0210864320397377,-0.0129697909578681,1.0171990394592285,-1.075728178024292,0.2885384261608124,-1.5710861682891846,2.056788206100464,4.005643844604492,0.31802257895469666,-0.18595978617668152,0.014001818373799324,2.006711721420288
194,22016,22006,-0.001180756837129593,0.001034933957271278,1.0079952478408813,-1.82404363155365,0.27213141322135925,-1.6346136331558228,2.0581042766571045,4.005637168884277,0.3180694580078125,-0.19342400133609772,0.004219171591103077,1.9845926761627197
195,22026,22016,0.02680315636098385,-0.1006963700056076,0.9631571769714355,-1.4133473634719849,-0.013787479139864445,-1.9201124906539917,2.0586230754852295,4.005143642425537,0.31817784905433655,-0.11756228655576706,-0.01181726809591055,1.9581117630004883
196,22036,22026,-0.00640767952427268,0.0009241377119906247,1.0319132804870605,-0.1834253966808319,-0.31828898191452026,-2.212153196334839,2.0579981803894043,4.004071235656738,0.3183739483356476,-0.12780696153640747,-0.02514778822660446,1.9440321922302246
197,22046,22036,0.03194766119122505,-0.004007035866379738,0.9920057058334351,0.7091895341873169,0.5550864338874817,-2.5502655506134033,2.058659076690674,4.004544734954834,0.31690850853919983,-0.05842418223619461,-0.022249329835176468,1.9225798845291138
198,22056,22046,0.002015693113207817,-0.027209442108869553,0.9947292804718018,1.8723316192626953,1.361979365348816,-2.925046920776367,2.05769419670105,4.004616737365723,0.31699618697166443,-0.011036437004804611,-0.07925169169902802,1.9003030061721802
199,22066,22056,0.04578816518187523,-0.08028893917798996,1.0099992752075195,1.8752657175064087,2.5739893913269043,-2.827860116958618,2.0576212406158447,4.005051612854004,0.3170146644115448,-0.06360702961683273,-0.04235139116644859,1.883870005607605
200,22076,22066,0.015805434435606003,-0.058625828474760056,1.056976079940796,1.3786954879760742,4.274875640869141,-3.100560188293457,2.058408260345459,4.005977630615234,0.32140955328941345,-0.27715227007865906,0.00048176004202105105,1.8475035429000854
201,22086,22076,0.012971209362149239,-0.040821369737386703,1.0127851963043213,1.0034078359603882,4.362220764160156,-3.48262357711792,2.060359239578247,4.005160808563232,0.3216642737388611,-0.26872411370277405,0.10725188255310059,1.8237011432647705
202,22096,22086,0.008731327950954437,-0.03905091434717178,0.9863142371177673,-0.46202296018600464,3.1297106742858887,-3.510044574737549,2.06061053276062,4.004705429077148,0.3220871686935425,-0.3623463809490204,0.10556972771883011,1.788394808769226
203,22106,22096,-0.0007242364226840436,0.039624009281396866,0.9514156579971313,-2.029402017593384,2.0970683097839355,-3.342432737350464,2.0615811347961426,4.004806995391846,0.32357919216156006,-0.43712499737739563,0.08077769726514816,1.751151442527771
204,22116,22106,0.038096316158771515,0.0324300080537796,0.9185553789138794,-1.1876146793365479,-1.6565090417861938,-3.9527480602264404,2.0625808238983154,4.004973411560059,0.32394301891326904,-0.3653204143047333,0.05180243402719498,1.717481255531311
205,22126,22116,0.004561086185276508,0.0069208694621920586,0.9892298579216003,-1.3284342288970947,-3.2483291625976562,-3.515967607498169,2.062574863433838,4.005063056945801,0.3243512213230133,-0.5569829344749451,0.02654167450964451,1.6711668968200684
206,22136,22126,0.018638955429196358,-0.025586331263184547,1.0102895498275757,-0.6107147336006165,-3.8612148761749268,-3.3039939403533936,2.065695285797119,4.004705905914307,0.3244869112968445,-0.40419137477874756,-0.06407005339860916,1.6441340446472168
207,22146,22136,0.009184163063764572,-0.0163863655179739,1.005315899848938,1.471855878829956,-5.009764194488525,-3.0835039615631104,2.065448522567749,4.005677223205566,0.32508039474487305,-0.379316508769989,-0.051684342324733734,1.619720220565796
208,22156,22146,-0.058090392500162125,-0.019799090921878815,1.0491687059402466,2.812910795211792,-4.30732536315918,-1.988922357559204,2.0665502548217773,4.005946636199951,0.3254321813583374,-0.3502010107040405,-0.01169656589627266,1.5890146493911743
209,22166,22156,0.004739987663924694,-0.03977449983358383,0.9775594472885132,4.068943023681641,-2.861455202102661,-1.9726930856704712,2.068000316619873,4.006128787994385,0.3257635235786438,-0.18102659285068512,-0.021664444357156754,1.5691479444503784
210,22176,22166,-0.03422599285840988,0.047144126147031784,0.9960726499557495,4.377028465270996,-1.8726767301559448,-2.103351593017578,2.067418336868286,4.00659704208374,0.3227021098136902,-0.12902654707431793,0.13195064663887024,1.5517840385437012
211,22186,22176,-0.010902787558734417,0.02312381938099861,1.0012699365615845,4.2719645500183105,-0.1605445146560669,-2.409231185913086,2.067709445953369,4.0050458908081055,0.3228709101676941,-0.1035253182053566,0.20231106877326965,1.54008948802948
212,22196,22186,0.0048164683394134045,-0.1643139123916626,0.9668769240379333,2.1928746700286865,3.221281051635742,-2.335585594177246,2.068138599395752,4.004899024963379,0.3229888379573822,-0.04834296181797981,0.18720367550849915,1.5164244174957275
213,22206,22196,0.009960576891899109,-0.12337986379861832,0.9575412273406982,0.2554508447647095,4.656904697418213,-2.70440411567688,2.0683882236480713,4.005142688751221,0.32008296251296997,-0.12653903663158417,0.2142404317855835,1.4893841743469238
214,22216,22206,0.022829914465546608,0.08222262561321259,1.0008918046951294,-2.7154650688171387,5.330142974853516,-2.4936397075653076,2.0696213245391846,4.004934787750244,0.31994378566741943,-0.2212962508201599,0.1994674950838089,1.46707022190094
215,22226,22216,-0.0030496055260300636,0.035890888422727585,1.0046201944351196,-4.958434581756592,4.101861953735352,-2.5294229984283447,2.0707390308380127,4.005518913269043,0.3197757303714752,-0.23024292290210724,0.143197163939476,1.4404624700546265
216,22236,22226,0.0007580345263704658,0.010882781818509102,1.016116976737976,-4.192702770233154,2.300351619720459,-2.272773265838623,2.071120023727417,4.005642890930176,0.3196915090084076,-0.36665937304496765,0.0645051822066307,1.4299705028533936
217,22246,22236,0.027552513405680656,-0.05221985653042793,0.9668467044830322,-4.861645698547363,0.8154692649841309,-2.0961647033691406,2.0729269981384277,4.00706672668457,0.3196364939212799,-0.3166491389274597,-0.010905478149652481,1.4036896228790283
218,22256,22246,0.004830981604754925,-0.019683845341205597,0.9996862411499023,-1.6705338954925537,-4.24720573425293,-2.2214088439941406,2.0722973346710205,4.007016181945801,0.31960469484329224,-0.2413775622844696,0.010477207601070404,1.392447829246521
219,22266,22256,-0.019322479143738747,-0.019893880933523178,1.0321160554885864,2.50764536857605,-2.618889570236206,-2.890223503112793,2.071831703186035,4.006785869598389,0.319566935300827,-0.3409343659877777,0.010346881113946438,1.355921983718872
220,22276,22266,0.021371090784668922,-0.08328855782747269,1.0015870332717896,2.3117129802703857,-0.1704462617635727,-3.086413621902466,2.0734097957611084,4.00560188293457,0.31953784823417664,-0.2951810359954834,0.05407220497727394,1.3215564489364624
221,22286,22276,0.006175516173243523,-0.01906404085457325,0.9965795874595642,2.076282262802124,0.9539834260940552,-2.4130899906158447,2.0738394260406494,4.004916191101074,0.3194689452648163,-0.35696765780448914,0.16595043241977692,1.312267541885376
222,22296,22286,-0.02057209052145481,0.035616010427474976,1.042199730873108,1.5259902477264404,1.062615990638733,-2.6027119159698486,2.0753819942474365,4.005210876464844,0.31932488083839417,-0.3357267379760742,0.11496342718601227,1.284051537513733
223,22306,22296,-0.030452357605099678,-0.017197072505950928,1.0606470108032227,0.7132854461669922,-1.1334785223007202,-2.8901219367980957,2.075737476348877,4.005642890930176,0.32207387685775757,-0.2400677353143692,0.13964146375656128,1.265666127204895
224,22316,22306,-0.026715043932199478,0.02429944835603237,0.985686182975769,-0.12855854630470276,-1.3933196067810059,-2.8089277744293213,2.075472831726074,4.005939960479736,0.32236307859420776,-0.25752875208854675,0.08165104687213898,1.234092354774475
225,22326,22316,-0.06827083230018616,0.018259769305586815,0.9801310896873474,-1.466809630393982,-0.13423477113246918,-1.567625880241394,2.0759103298187256,4.006219387054443,0.32257261872291565,-0.1512102484703064,0.14194262027740479,1.213606357574463
226,22336,22326,-0.07611332833766937,0.09009489417076111,1.0052783489227295,-0.8553578853607178,0.39602428674697876,-1.8615639209747314,2.076012372970581,4.005523681640625,0.322226881980896,-0.1449035257101059,0.1276187300682068,1.1970763206481934
227,22346,22336,0.0071075609885156155,0.12842315435409546,0.968708336353302,-1.432316541671753,1.4985917806625366,-1.4084352254867554,2.076782464981079,4.005562782287598,0.32237571477890015,-0.09672709554433823,0.09243308752775192,1.1817659139633179
228,22356,22346,0.04784248024225235,0.10574453324079514,0.9682906866073608,-1.835803508758545,3.3612494468688965,-1.084845781326294,2.0769193172454834,4.005715370178223,0.3225404918193817,-0.29659783840179443,-0.01791098527610302,1.1634777784347534
229,22366,22356,-0.001879631308838725,-0.006967710331082344,0.9990090131759644,-1.8358280658721924,4.860742092132568,-1.1808862686157227,2.0795629024505615,4.006697654724121,0.32255545258522034,-0.2719717025756836,-0.03952765464782715,1.1394919157028198
230,22376,22366,0.004504425451159477,-0.01290786825120449,0.9980230331420898,-0.11402332782745361,3.8409759998321533,-0.9259523153305054,2.0795013904571533,4.006200790405273,0.32177865505218506,-0.32815006375312805,-0.047204822301864624,1.1304755210876465
231,22386,22376,-0.0008417434873990715,-0.0453236848115921,1.0012320280075073,4.234645366668701,1.667289137840271,-1.1119132041931152,2.0805981159210205,4.006096363067627,0.32178473472595215,-0.3713855445384979,-0.011537959799170494,1.1298052072525024
232,22396,22386,-0.006517230533063412,-0.08962500095367432,0.9674392342567444,3.76031231880188,0.4314221143722534,-0.4471476674079895,2.0814449787139893,4.006428241729736,0.3217962980270386,-0.29716598987579346,0.135464146733284,1.1221063137054443
233,22406,22396,-0.022497830912470818,-0.08276020735502243,0.943665087223053,3.6975810527801514,-0.7683612704277039,-0.22597798705101013,2.0815162658691406,4.005395889282227,0.32365909218788147,-0.3713189363479614,0.19237020611763,1.1213465929031372
234,22416,22406,-0.0010355482809245586,-0.027927560731768608,0.9697085618972778,1.0339925289154053,-0.616676390171051,-0.10637310892343521,2.082900285720825,4.005167007446289,0.3236601948738098,-0.27676326036453247,0.21737252175807953,1.119217872619629
235,22426,22416,0.004148545674979687,-0.07380948960781097,0.9822200536727905,-2.23567533493042,-0.4674527645111084,-0.25586673617362976,2.082690954208374,4.005073070526123,0.32376623153686523,-0.18657588958740234,0.12630333006381989,1.1144899129867554
236,22436,22426,0.0016030390979722142,-0.02741263061761856,0.9893633723258972,-3.8841476440429688,1.0110206604003906,0.10496359318494797,2.0824532508850098,4.005906105041504,0.32321426272392273,-0.2751844525337219,0.15391655266284943,1.112471103668213
237,22446,22436,0.00504307122901082,0.017374223098158836,0.9971508979797363,-4.997158050537109,2.293100118637085,-0.4665907919406891,2.083519697189331,4.004884243011475,0.3231431841850281,-0.3611106276512146,0.06647952646017075,1.1063251495361328
238,22456,22446,-0.01090468093752861,-0.10896711051464081,1.036358118057251,-5.157298564910889,3.4779183864593506,-0.6635072231292725,2.0849032402038574,4.004861354827881,0.3230462670326233,-0.39466196298599243,0.049721065908670425,1.1359796524047852
239,22466,22456,0.013602103106677532,-0.16869507730007172,0.9788028001785278,-3.9350271224975586,3.155841112136841,-0.8648737668991089,2.0858256816864014,4.0059943199157715,0.3230018615722656,-0.4342922866344452,0.05028123781085014,1.1370922327041626
240,22476,22466,0.017503920942544937,-0.08986251801252365,0.9759728312492371,-1.3874027729034424,2.1336934566497803,-1.3625363111495972,2.085855007171631,4.005614280700684,0.32122471928596497,-0.4759063124656677,-0.08993417769670486,1.1242992877960205
