,timestamp_start,timestamp_end,acc.x,acc.y,acc.z,gyro.x,gyro.y,gyro.z,stateEstimate.x,stateEstimate.y,stateEstimate.z,stabilizer.pitch,stabilizer.roll,stabilizer.yaw
0,23609,23606,0.034884799271821976,0.025653941556811333,0.9566734433174133,-8.28419017791748,21.569976806640625,2.1737897396087646,1.9296095371246338,3.962733507156372,0.17296744883060455,-0.5497268438339233,0.5262540578842163,3.240773916244507
1,23619,23616,-0.003897972870618105,0.0056940908543765545,1.0972912311553955,-10.865311622619629,7.6029558181762695,1.9942353963851929,1.9300609827041626,3.9636056423187256,0.1744409054517746,-0.7881218791007996,0.4772008955478668,3.2528200149536133
2,23629,23626,-0.021113496273756027,-0.029561957344412804,1.070159673690796,-11.04262638092041,-1.5480223894119263,2.049150228500366,1.9290634393692017,3.9630966186523438,0.1746726632118225,-0.8928027153015137,0.3969123065471649,3.2678050994873047
3,23639,23636,0.023865673691034317,-0.03189697489142418,1.0658279657363892,-11.209456443786621,-7.89130973815918,2.1954214572906494,1.9284427165985107,3.96303653717041,0.1762082576751709,-0.9111670255661011,0.22866635024547577,3.2814455032348633
4,23649,23646,0.03887249156832695,-0.09632635861635208,1.040225863456726,-9.190519332885742,-12.09481430053711,2.477612257003784,1.9277747869491577,3.962244749069214,0.17777515947818756,-0.8200492858886719,0.21869038045406342,3.3165087699890137
5,23659,23656,-0.0007336732232943177,0.007704457268118858,1.0932844877243042,-6.348481178283691,-12.737554550170898,2.50395131111145,1.9268168210983276,3.9620423316955566,0.17942801117897034,-0.7593192458152771,0.09101215749979019,3.328441858291626
6,23669,23666,0.024205757305026054,-0.06728426367044449,1.001786470413208,-4.745120525360107,-9.748807907104492,2.907419443130493,1.9263395071029663,3.9604644775390625,0.1789582222700119,-0.7184685468673706,0.1469365805387497,3.370300769805908
7,23679,23676,0.057899121195077896,-0.08448953181505203,1.04813551902771,-3.680577039718628,-6.658877849578857,3.245633602142334,1.9267481565475464,3.9596307277679443,0.1803748905658722,-0.7589730620384216,0.21464502811431885,3.410628318786621
8,23689,23686,0.09743253141641617,-0.1341608315706253,1.0791181325912476,-4.045528888702393,-4.2537150382995605,2.5606114864349365,1.9265211820602417,3.957812786102295,0.18207432329654694,-0.7455242276191711,0.1420545130968094,3.4268054962158203
9,23699,23696,0.04569070041179657,-0.10469599068164825,1.0890462398529053,-6.6255292892456055,-3.783618688583374,2.8827998638153076,1.9264057874679565,3.959371566772461,0.18215379118919373,-0.7586368322372437,0.11924601346254349,3.4559381008148193
10,23709,23706,0.03362627699971199,-0.028177473694086075,1.044806718826294,-8.843971252441406,-0.8579804301261902,2.2358014583587646,1.9261099100112915,3.9596943855285645,0.18382388353347778,-0.7826765775680542,0.052803099155426025,3.480489730834961
11,23719,23716,0.012781038880348206,-0.009413719177246094,1.0112484693527222,-11.635695457458496,-2.8762266635894775,2.5750887393951416,1.927478313446045,3.960491180419922,0.18562063574790955,-0.8926097750663757,-0.1954183578491211,3.4621431827545166
12,23729,23726,2.3249710068284912e-07,3.865325197693892e-05,1.0371897220611572,-11.91650390625,-6.615536689758301,2.8213634490966797,1.9266492128372192,3.963031768798828,0.18877150118350983,-0.7261311411857605,-0.45563891530036926,3.463963508605957
13,23739,23736,0.014389030635356903,0.0020171785727143288,1.0591973066329956,-8.141644477844238,-11.208806037902832,3.346763849258423,1.9266152381896973,3.9628355503082275,0.19083252549171448,-0.6574224829673767,-0.3212769031524658,3.5493664741516113
14,23749,23746,0.022304173558950424,-0.010136486031115055,0.9773120284080505,-5.031090259552002,-13.095758438110352,2.848797559738159,1.926066517829895,3.9626200199127197,0.19290971755981445,-0.48215198516845703,-0.449992835521698,3.570462942123413
15,23759,23756,-0.028876477852463722,-0.0007580615347251296,1.1102392673492432,-2.570547103881836,-13.450851440429688,2.598673105239868,1.9246904850006104,3.96317195892334,0.1949518620967865,-0.25209224224090576,-0.5938189029693604,3.58368182182312
16,23769,23766,-0.053883787244558334,-0.0006636291509494185,1.088862657546997,-0.8710426092147827,-11.71039867401123,2.6481828689575195,1.92362380027771,3.9629499912261963,0.19592022895812988,-0.006832633167505264,-0.5300838947296143,3.627638339996338
17,23779,23776,-0.029543044045567513,0.1192370355129242,1.0023196935653687,0.7755195498466492,-7.096802711486816,2.3927550315856934,1.923094630241394,3.962326765060425,0.19792088866233826,0.15297874808311462,-0.5910797119140625,3.643819570541382
18,23789,23786,0.008083388209342957,0.06117910519242287,0.9475852251052856,-0.35316789150238037,-2.3970766067504883,1.895355224609375,1.9218047857284546,3.9621517658233643,0.2000131756067276,0.2047327756881714,-0.8483591079711914,3.6215083599090576
19,23799,23796,-0.021559767425060272,0.04616231471300125,1.055300235748291,0.3684145510196686,2.4910988807678223,2.012392044067383,1.9218891859054565,3.9597761631011963,0.2031446248292923,0.1923157423734665,-0.507083535194397,3.6958041191101074
20,23809,23806,-0.007227387744933367,-0.012511547654867172,1.022429347038269,1.1068482398986816,3.0039658546447754,1.1926878690719604,1.9215162992477417,3.9577574729919434,0.20532187819480896,0.12212970852851868,-0.48572930693626404,3.717600107192993
21,23819,23816,-0.061847392469644547,0.01762567274272442,1.017472505569458,-0.6779730319976807,8.671441078186035,1.287333369255066,1.9211909770965576,3.956874370574951,0.20755718648433685,0.017497986555099487,-0.5373127460479736,3.7233805656433105
22,23829,23826,-0.011511358432471752,0.1355038732290268,0.9685755968093872,-2.4464991092681885,7.492007255554199,0.9792811274528503,1.9224299192428589,3.954986572265625,0.20985664427280426,-0.20646819472312927,-0.5337783694267273,3.74221134185791
23,23839,23836,0.0016674846410751343,0.1292378455400467,0.9798984527587891,-3.581803798675537,2.7838103771209717,0.958828866481781,1.923488974571228,3.954925775527954,0.21206974983215332,-0.28925174474716187,-0.5634620785713196,3.7522969245910645
24,23849,23846,-0.04245501384139061,0.02948054112493992,0.9925869703292847,-5.010781764984131,-3.571333646774292,0.4813736081123352,1.924504041671753,3.95516300201416,0.21640132367610931,-0.35281845927238464,-0.6058620810508728,3.759793996810913
25,23859,23856,-0.025431709364056587,-0.00952599011361599,0.9990247488021851,-4.580765724182129,-8.504591941833496,0.5552068948745728,1.9243390560150146,3.9553279876708984,0.21649572253227234,-0.24844683706760406,-0.7360051870346069,3.7524631023406982
26,23869,23866,-0.0067479475401341915,0.06349556893110275,0.9812576770782471,-3.627650499343872,-12.539288520812988,0.6089072227478027,1.924216866493225,3.955934762954712,0.21665729582309723,-0.14643411338329315,-0.8476352691650391,3.752575397491455
27,23879,23876,-0.04817092791199684,0.13209651410579681,1.0731390714645386,0.5194368958473206,-13.861054420471191,0.6350001096725464,1.924411654472351,3.954735040664673,0.21869005262851715,-0.11560985445976257,-0.8360413312911987,3.7727584838867188
28,23889,23886,-0.06076682358980179,0.07001849263906479,1.0122661590576172,3.6504743099212646,-12.988252639770508,-0.23946115374565125,1.9238444566726685,3.954498052597046,0.22085843980312347,0.15783700346946716,-0.8313283324241638,3.765246629714966
29,23899,23896,-0.10165855288505554,0.1354990154504776,0.971989631652832,5.783550262451172,-10.753373146057129,-0.5341006517410278,1.9236325025558472,3.955493211746216,0.2222939431667328,0.3703998327255249,-0.7822563052177429,3.752063035964966
30,23909,23906,-0.03223768249154091,0.11550755798816681,0.8977448344230652,6.282230854034424,-6.056215286254883,-0.6697599291801453,1.9242233037948608,3.9545822143554688,0.2243955135345459,0.3545791804790497,-0.7082110643386841,3.7503371238708496
31,23919,23916,-0.013786174356937408,0.09400960803031921,0.9720267653465271,5.89862060546875,-0.7758733034133911,-0.8206834197044373,1.924054503440857,3.9539198875427246,0.2264384776353836,0.27211061120033264,-0.6386213302612305,3.7524166107177734
32,23929,23926,-0.014039242640137672,0.032350532710552216,0.9655657410621643,5.364291191101074,1.4344505071640015,-1.476352572441101,1.9268239736557007,3.9530229568481445,0.2278502732515335,-0.06342154741287231,-0.5656339526176453,3.7722928524017334
33,23939,23936,-0.016245122998952866,-0.005173336248844862,1.0561423301696777,2.2101728916168213,2.428457736968994,-1.2597025632858276,1.923526644706726,3.9484269618988037,0.23167820274829865,-0.02158101461827755,-0.5206289291381836,3.749795913696289
34,23949,23946,0.03793573006987572,-0.053308695554733276,0.9693760871887207,-0.6475605368614197,-0.9830079078674316,-1.3988467454910278,1.924629807472229,3.9495952129364014,0.2335527390241623,-0.05593198910355568,-0.5153517723083496,3.738924741744995
35,23959,23956,0.02657623402774334,0.04592730104923248,0.9353073239326477,-2.157804250717163,-5.207164287567139,-1.892335057258606,1.9208368062973022,3.947575092315674,0.23429396748542786,-0.04324993118643761,-0.5541307330131531,3.7076125144958496
36,23969,23966,0.029327016323804855,0.020720921456813812,0.9532750248908997,-2.1447691917419434,-9.765538215637207,-1.8179961442947388,1.9218891859054565,3.947327136993408,0.23638078570365906,0.0027925013564527035,-0.5265612602233887,3.6957647800445557
37,23979,23976,0.17661459743976593,-0.11715666204690933,0.8951165676116943,-1.4959187507629395,-15.256881713867188,-2.0638368129730225,1.9213249683380127,3.950014114379883,0.2383626103401184,0.2273648977279663,-0.5877161026000977,3.667973518371582
38,23989,23986,0.09823262691497803,-0.16483262181282043,0.9471253752708435,0.18453152477741241,-17.70140838623047,-1.5859185457229614,1.9220683574676514,3.9508399963378906,0.240200012922287,0.40274903178215027,-0.540785014629364,3.65522837638855
39,23999,23996,-0.008374543860554695,-0.16747891902923584,0.9939400553703308,2.422945737838745,-16.053112030029297,-2.1640374660491943,1.920460820198059,3.951507329940796,0.24339163303375244,0.749193549156189,-0.5428978800773621,3.6285762786865234
40,24009,24006,-0.04298900067806244,-0.1580972969532013,0.9935480356216431,4.002231121063232,-10.947678565979004,-2.197169303894043,1.922096610069275,3.9522125720977783,0.24523963034152985,0.6822237968444824,-0.5010426044464111,3.6222143173217773
41,24019,24016,-0.13796472549438477,0.018376097083091736,1.022188425064087,3.4422197341918945,-4.11461067199707,-2.088674306869507,1.9237074851989746,3.952397108078003,0.24692746996879578,0.6204334497451782,-0.4426461458206177,3.609361171722412
42,24029,24026,-0.1083172857761383,0.15170468389987946,0.9391660690307617,3.022836446762085,-0.11612387746572495,-2.0771141052246094,1.9244319200515747,3.953479051589966,0.24843937158584595,0.6705431938171387,-0.33026251196861267,3.590001106262207
43,24039,24036,-0.024569250643253326,0.22616684436798096,0.9291894435882568,0.6407225131988525,0.21070420742034912,-2.4160311222076416,1.9241459369659424,3.9519429206848145,0.2501671612262726,0.6584017276763916,-0.38738498091697693,3.568042278289795
44,24049,24046,0.006785790901631117,0.07307902723550797,0.9695349335670471,-0.8914283514022827,-1.321068286895752,-2.31221866607666,1.9248201847076416,3.9519906044006348,0.2518133819103241,0.6513163447380066,-0.40265539288520813,3.5456035137176514
45,24059,24056,0.04931103065609932,-0.0034394648391753435,0.9714420437812805,-1.2772092819213867,-4.095186233520508,-2.6378774642944336,1.925391435623169,3.9525351524353027,0.25263655185699463,0.7437833547592163,-0.4299365282058716,3.5188827514648438
46,24069,24066,0.042817164212465286,-0.04375002160668373,0.9642388820648193,-1.824480414390564,-7.939086437225342,-2.570005416870117,1.9265137910842896,3.9537250995635986,0.254128634929657,0.8134382963180542,-0.4660460352897644,3.4910783767700195
47,24079,24076,0.01966085098683834,-0.043110135942697525,0.9360575675964355,-0.9096449613571167,-9.574559211730957,-2.6903440952301025,1.9252387285232544,3.95352840423584,0.25561970472335815,0.9900462031364441,-0.42967894673347473,3.4597415924072266
48,24089,24086,0.07484404742717743,-0.09030593931674957,0.8699829578399658,1.2064108848571777,-8.228949546813965,-2.7967495918273926,1.9256237745285034,3.9535934925079346,0.25704747438430786,1.0943526029586792,-0.36892518401145935,3.428387403488159
49,24099,24096,0.042404528707265854,-0.05461420491337776,0.9263949394226074,2.2786972522735596,-6.452054023742676,-2.269630193710327,1.9239405393600464,3.954317569732666,0.25715023279190063,1.2669756412506104,-0.35269007086753845,3.3985061645507812
50,24109,24106,0.013369724154472351,-0.024930186569690704,0.9548614621162415,2.1240177154541016,-2.8111376762390137,-2.5345938205718994,1.9234435558319092,3.9531655311584473,0.2583235502243042,1.3052133321762085,-0.25483936071395874,3.370560884475708
51,24119,24116,0.032119814306497574,-0.13279873132705688,0.9975706338882446,1.1009894609451294,1.927587628364563,-2.2448809146881104,1.9239139556884766,3.9536426067352295,0.2594158351421356,1.3622173070907593,-0.243827685713768,3.3500144481658936
52,24129,24126,0.01687748171389103,-0.14772021770477295,1.025540828704834,-1.2743446826934814,7.7737135887146,-2.821878433227539,1.9241383075714111,3.9530909061431885,0.26030233502388,1.3320685625076294,-0.2576027512550354,3.3294785022735596
53,24139,24136,0.0144226448610425,-0.10901311039924622,0.9589674472808838,-2.4017860889434814,7.717823505401611,-2.8354904651641846,1.9240069389343262,3.953256845474243,0.26140233874320984,1.2080591917037964,-0.306367427110672,3.3052263259887695
54,24149,24146,-0.09031765162944794,0.043844349682331085,0.9872115850448608,-3.0731308460235596,12.81488037109375,-3.4464426040649414,1.924137830734253,3.9553093910217285,0.26247289776802063,1.0569645166397095,-0.36472004652023315,3.2762410640716553
55,24159,24156,-0.0620722696185112,0.12313798815011978,0.9342536330223083,-2.513019323348999,11.72951602935791,-3.3667891025543213,1.9236446619033813,3.957585573196411,0.265341192483902,0.8597472906112671,-0.4984755516052246,3.2507832050323486
56,24169,24166,-0.024895526468753815,0.13899879157543182,0.9203247427940369,-0.4802108705043793,7.0862226486206055,-3.030808925628662,1.9242815971374512,3.957747459411621,0.26647430658340454,0.702223002910614,-0.52747642993927,3.218642473220825
57,24179,24176,0.02694266103208065,-0.12098000943660736,0.9635116457939148,2.3813538551330566,0.4254656136035919,-2.976733684539795,1.9224085807800293,3.9557559490203857,0.26768988370895386,0.8119689226150513,-0.36028698086738586,3.170557737350464
58,24189,24186,-0.05334113538265228,-0.09445211291313171,1.0929291248321533,4.844363212585449,-2.840502977371216,-2.760190486907959,1.9231083393096924,3.9556007385253906,0.2687356770038605,0.7467275261878967,-0.31363409757614136,3.139812707901001
59,24199,24196,-0.07354583591222763,-0.08107676357030869,1.0278741121292114,5.0021138191223145,-5.2624406814575195,-2.851318120956421,1.921739101409912,3.957603931427002,0.2705910801887512,0.9038345217704773,-0.24500252306461334,3.1057522296905518
60,24209,24206,-0.12759017944335938,-0.013592938892543316,1.0249379873275757,4.377486705780029,-4.3181986808776855,-2.483936071395874,1.9215834140777588,3.957958221435547,0.2717718183994293,0.9187166094779968,-0.25351741909980774,3.0836446285247803
61,24219,24216,-0.13676126301288605,0.10073661059141159,0.9961065649986267,2.3201873302459717,-1.8755079507827759,-2.118159770965576,1.9202512502670288,3.959482431411743,0.2729875445365906,0.9812812805175781,-0.1219298467040062,3.0470807552337646
62,24229,24226,-0.07161642611026764,0.14487534761428833,0.9693794250488281,-0.4212900400161743,1.2335095405578613,-1.9060864448547363,1.9202139377593994,3.9608640670776367,0.27475741505622864,0.9894986152648926,-0.042623791843652725,3.0200822353363037
63,24239,24236,-0.0010727071203291416,0.009654389694333076,0.9511789083480835,-2.7156765460968018,4.521536350250244,-2.1565325260162354,1.9196810722351074,3.960745096206665,0.27604949474334717,0.8646417260169983,-0.08834941685199738,3.0037240982055664
64,24249,24246,-0.0009492208482697606,0.03844859451055527,1.0063958168029785,-4.32875394821167,6.702817916870117,-2.5252065658569336,1.9158192873001099,3.9607276916503906,0.2772354185581207,1.2319209575653076,-0.16730810701847076,2.985262632369995
65,24259,24256,-0.0026675178669393063,0.014055071398615837,0.9867677688598633,-5.461109638214111,7.2994890213012695,-2.584134340286255,1.920141339302063,3.9621710777282715,0.27999886870384216,0.6862918138504028,-0.11042998731136322,2.9479482173919678
66,24269,24266,-0.0004100117366760969,-0.031090252101421356,0.9962714910507202,-5.167580604553223,5.139215469360352,-2.1073691844940186,1.9259027242660522,3.9758658409118652,0.28160426020622253,-0.11113551259040833,-1.5330302715301514,3.0389928817749023
67,24279,24276,0.06455004215240479,-0.08595649152994156,0.9219697713851929,-0.03160814195871353,3.4367682933807373,-2.664726734161377,1.9255112409591675,3.975187063217163,0.2833316922187805,-0.06135164573788643,-1.48494553565979,2.9987385272979736
68,24289,24286,0.05525881424546242,0.02598649635910988,0.9162782430648804,11.662041664123535,-4.372076988220215,-2.2955071926116943,1.923595666885376,3.9762122631073,0.28543463349342346,0.1502326875925064,-1.2920011281967163,2.9608891010284424
69,24299,24296,0.020833279937505722,0.054538875818252563,0.9450059533119202,24.812292098999023,-11.785143852233887,-1.6531902551651,1.9232494831085205,3.973994493484497,0.2868528366088867,0.23369775712490082,-0.9122396111488342,2.9322571754455566
70,24309,24306,0.012914386577904224,-0.0034412245731800795,0.957778811454773,33.314056396484375,-15.575523376464844,-1.4440021514892578,1.9214204549789429,3.973762035369873,0.2880871295928955,0.4937131106853485,-0.659072995185852,2.912454128265381
71,24319,24316,-0.0056947763077914715,-0.02614220418035984,0.9697575569152832,36.281837463378906,-18.40890121459961,-1.413007140159607,1.9219945669174194,3.9736156463623047,0.28954699635505676,0.6374135613441467,-0.05953361466526985,2.8940768241882324
72,24329,24326,-0.06327953189611435,-0.02103981003165245,1.0229243040084839,30.380075454711914,-11.123676300048828,-1.2401970624923706,1.9204977750778198,3.977027654647827,0.2890301048755646,0.9256080985069275,0.12022136896848679,2.877615213394165
73,24339,24336,-0.0361364409327507,-0.011932811699807644,1.0085586309432983,20.134479522705078,-3.8589987754821777,-1.1124770641326904,1.9189761877059937,3.976834535598755,0.29011470079421997,1.076828956604004,0.4964277744293213,2.85878324508667
74,24349,24346,-0.014652891084551811,0.027623780071735382,0.9882888793945312,11.820537567138672,2.5427584648132324,-1.7547980546951294,1.919458270072937,3.9764554500579834,0.29116299748420715,1.035308599472046,0.7724596858024597,2.843616247177124
75,24359,24356,0.11119537055492401,-0.04408501833677292,0.8914473056793213,0.8927229046821594,10.67133903503418,-1.8792668581008911,1.9176194667816162,3.9776601791381836,0.2911609709262848,1.0155953168869019,0.6444466710090637,2.8359625339508057
76,24369,24366,0.08738270401954651,-0.05956529825925827,0.8929105997085571,-6.295309066772461,11.325035095214844,-2.2784359455108643,1.9187496900558472,3.9798552989959717,0.2920979857444763,0.8422892093658447,0.6843070387840271,2.8122942447662354
77,24379,24376,0.026414643973112106,-0.04366671293973923,0.931003212928772,-9.628931045532227,12.583603858947754,-2.113340139389038,1.9176886081695557,3.9807937145233154,0.29286739230155945,0.7205192446708679,0.6128043532371521,2.790071725845337
78,24389,24386,-0.04068325087428093,0.14667128026485443,0.9861840009689331,-8.332219123840332,10.61310863494873,-1.8375744819641113,1.9154239892959595,3.980268955230713,0.2920639216899872,0.8426823616027832,0.6031521558761597,2.7743782997131348
79,24399,24396,-0.06247664615511894,0.1008731797337532,0.9829153418540955,-2.5323431491851807,7.5738525390625,-1.0438170433044434,1.9158636331558228,3.9820597171783447,0.2926850914955139,0.6564589738845825,0.5448802709579468,2.754357099533081
80,24409,24406,-0.09041675180196762,0.0938340574502945,0.9721466898918152,2.539874792098999,5.204539775848389,-1.4190081357955933,1.915513277053833,3.980874538421631,0.2932514548301697,0.6068710088729858,0.7394644618034363,2.7308616638183594
81,24419,24416,-0.03551892563700676,0.005976932123303413,0.935811460018158,6.818426132202148,2.58262038230896,-0.9032700061798096,1.913756251335144,3.981719970703125,0.2937183380126953,0.6718171834945679,0.8402484655380249,2.7253570556640625
82,24429,24426,0.03935888037085533,-0.10554949939250946,0.9588164687156677,7.319256782531738,2.336357593536377,-0.7306873202323914,1.9129846096038818,3.981569528579712,0.2916697561740875,0.5979929566383362,0.9820829629898071,2.7099385261535645
83,24439,24436,0.025034639984369278,0.009607935324311256,0.9729682803153992,5.7365593910217285,4.209636688232422,-1.2114262580871582,1.9129421710968018,3.981325626373291,0.2919556796550751,0.4959290623664856,1.0327646732330322,2.6943342685699463
84,24449,24446,0.020247934386134148,0.013404280878603458,0.9536189436912537,2.243539571762085,4.63224983215332,-0.9774492383003235,1.9100514650344849,3.9798378944396973,0.2921769320964813,0.557584285736084,1.038771390914917,2.6990227699279785
85,24459,24456,0.0072937929071486,0.003793492913246155,0.9822337031364441,-1.5722322463989258,5.859988212585449,-0.846512496471405,1.9073565006256104,3.9795615673065186,0.2921248972415924,0.7442065477371216,1.0642329454421997,2.716646432876587
86,24469,24466,-0.04624773561954498,0.03808709979057312,1.0312296152114868,-5.695187568664551,7.207887649536133,-0.9675403833389282,1.906070351600647,3.9800262451171875,0.29226237535476685,0.6854400634765625,1.0234962701797485,2.7068710327148438
87,24479,24476,-0.021629447117447853,0.03963237255811691,1.015071988105774,-7.926140308380127,11.452057838439941,-0.8428915739059448,1.9052735567092896,3.9794540405273438,0.2924203872680664,0.5542919039726257,0.997559666633606,2.6928813457489014
88,24489,24486,0.06119220703840256,-0.0037268504966050386,0.9245126843452454,-9.190914154052734,14.841221809387207,-0.757774293422699,1.90463387966156,3.979163885116577,0.29298895597457886,0.4381086528301239,0.9388597011566162,2.6884868144989014
89,24499,24496,0.0034459740854799747,0.02351107820868492,1.006178855895996,-9.394892692565918,15.3495512008667,-0.3158726096153259,1.904654860496521,3.9786899089813232,0.29314327239990234,0.2050064653158188,0.9295952320098877,2.67122220993042
90,24509,24506,0.03413322940468788,-0.026313982903957367,0.9809950590133667,-8.396646499633789,14.1609525680542,-0.5505667924880981,1.9025084972381592,3.978118419647217,0.2932679355144501,0.13568107783794403,0.8354280591011047,2.6814186573028564
91,24519,24516,0.0016410540556535125,-0.036728523671627045,1.0042825937271118,-7.488382339477539,10.539841651916504,0.2319524884223938,1.90181303024292,3.9769790172576904,0.29335659742355347,0.00027044734451919794,0.7630947232246399,2.679654359817505
92,24529,24526,0.0275745689868927,-0.026523834094405174,1.0057568550109863,-5.861175537109375,6.887813568115234,0.4654013216495514,1.9006190299987793,3.9768171310424805,0.29259708523750305,-0.05220454931259155,0.6305124163627625,2.6891798973083496
93,24539,24536,0.028441933915019035,-0.02220841310918331,1.045526146888733,-5.799101829528809,6.1448140144348145,0.7850147485733032,1.898244857788086,3.9757027626037598,0.2926265597343445,-0.024189148098230362,0.673692524433136,2.711732864379883
94,24549,24546,0.0250737052410841,0.031915660947561264,1.080762267112732,-4.508045673370361,5.105824947357178,-0.06538951396942139,1.8972500562667847,3.9739034175872803,0.29269248247146606,-0.11363153159618378,0.6418656706809998,2.7095978260040283
95,24559,24556,0.018768586218357086,-0.00438668392598629,1.0148760080337524,-5.362250804901123,6.2026753425598145,-0.016178008168935776,1.8970834016799927,3.9745311737060547,0.2918873727321625,-0.20230716466903687,0.5338696241378784,2.704371929168701
96,24569,24566,-0.008333967998623848,0.011514583602547646,0.9662324786186218,-6.283075332641602,7.212904453277588,-0.15722648799419403,1.8954664468765259,3.9738950729370117,0.29196566343307495,-0.14796118438243866,0.4970216751098633,2.720720052719116
97,24579,24576,0.009487582370638847,0.09940903633832932,0.9531509280204773,-6.968679428100586,9.058610916137695,-0.1765749603509903,1.8956542015075684,3.973877429962158,0.29221203923225403,-0.370297908782959,0.36927130818367004,2.6960408687591553
98,24589,24586,0.036368727684020996,0.01973487250506878,0.9219932556152344,-6.7945170402526855,8.350659370422363,0.42368456721305847,1.8944722414016724,3.972825050354004,0.2928589880466461,-0.42252838611602783,0.4630492329597473,2.710376262664795
99,24599,24596,-0.00035031340667046607,-0.049591097980737686,1.0139408111572266,-6.766042709350586,9.927865982055664,0.29503166675567627,1.895329475402832,3.9733235836029053,0.2930176258087158,-0.6430591344833374,0.30835971236228943,2.6923043727874756
100,24609,24606,-0.014198965393006802,-0.04001479968428612,1.070386528968811,-6.940652370452881,15.616752624511719,1.0821571350097656,1.8945462703704834,3.9726288318634033,0.2930593192577362,-0.7465584874153137,0.23573708534240723,2.702937602996826
101,24619,24616,0.04055221006274223,-0.04459015652537346,0.9671842455863953,-6.022740364074707,19.56828498840332,1.0248128175735474,1.8948652744293213,3.9710962772369385,0.2937060594558716,-1.0019558668136597,0.24628809094429016,2.709801435470581
102,24629,24626,-0.018725058063864708,0.029325632378458977,1.067426323890686,-5.289886474609375,21.684635162353516,0.7508782148361206,1.8932124376296997,3.9711294174194336,0.2938880920410156,-1.0845482349395752,0.11638510972261429,2.725496292114258
103,24639,24636,0.037148892879486084,-0.04136009141802788,0.9971420168876648,-6.686183452606201,24.460155487060547,0.1119619831442833,1.8929730653762817,3.9717674255371094,0.2940515875816345,-1.3643776178359985,-0.006464141421020031,2.7177672386169434
104,24649,24646,0.04338335618376732,-0.04223446175456047,1.0290642976760864,-6.374383926391602,19.606653213500977,0.7731900811195374,1.890891671180725,3.9700710773468018,0.2942878305912018,-1.4839400053024292,0.0822991281747818,2.753720283508301
105,24659,24656,-0.00446004094555974,-0.062151096761226654,1.0386600494384766,-3.856236696243286,14.881505012512207,0.7833178043365479,1.8920799493789673,3.970094680786133,0.2956537902355194,-1.8342446088790894,0.03104352578520775,2.744630813598633
106,24669,24666,0.02024747058749199,-0.06087425351142883,1.0104464292526245,-3.875744342803955,11.034810066223145,1.5939271450042725,1.89154052734375,3.9710702896118164,0.2959107756614685,-2.0271811485290527,-0.07308866083621979,2.7434589862823486
107,24679,24676,0.007069907151162624,0.07556892186403275,1.1211808919906616,-3.9478583335876465,4.4351348876953125,1.759461760520935,1.888046145439148,3.9701626300811768,0.29653316736221313,-1.8199599981307983,-0.09641178697347641,2.7831780910491943
108,24689,24686,0.004902674350887537,0.08014778792858124,1.124025821685791,-4.806058406829834,3.761916160583496,0.6167495846748352,1.8885059356689453,3.97072696685791,0.29588747024536133,-1.940788984298706,-0.20174264907836914,2.7761588096618652
109,24699,24696,-0.018189381808042526,0.10138147324323654,0.9623201489448547,-4.911502838134766,3.4305245876312256,0.29819321632385254,1.8868178129196167,3.9682512283325195,0.29630807042121887,-1.9785743951797485,-0.23350496590137482,2.7845892906188965
110,24709,24706,-0.020425403490662575,0.0592048279941082,0.9677056074142456,-4.790815353393555,6.772352695465088,0.02320387400686741,1.8867032527923584,3.967911958694458,0.29681259393692017,-2.082167863845825,-0.2700003981590271,2.7866127490997314
111,24719,24716,-0.0052601792849600315,0.051611702889204025,1.0024725198745728,-2.294703722000122,3.7137954235076904,0.20692500472068787,1.884264588356018,3.966080665588379,0.2968767285346985,-1.9595019817352295,-0.28398382663726807,2.7975852489471436
112,24729,24726,-0.008036657236516476,0.0035863921511918306,1.0830192565917969,-1.4945425987243652,1.3041307926177979,0.6700104475021362,1.884692907333374,3.9650020599365234,0.29731452465057373,-2.121708393096924,-0.3461224436759949,2.78582501411438
113,24739,24736,-0.02685883641242981,0.009468147531151772,1.0905827283859253,-2.179150342941284,8.395293235778809,0.9807443022727966,1.885682463645935,3.966137170791626,0.29775309562683105,-2.2362546920776367,-0.4036041498184204,2.780210494995117
114,24749,24746,-0.042814601212739944,0.16641418635845184,1.009544849395752,-1.8561936616897583,9.75271987915039,1.0200878381729126,1.8855112791061401,3.965501070022583,0.2982366681098938,-2.406580686569214,-0.3849940598011017,2.80010986328125
115,24759,24756,-0.0015999349998310208,-0.10428956896066666,0.9561569690704346,-1.3088821172714233,5.351902008056641,0.7110899090766907,1.8860299587249756,3.9662277698516846,0.298432856798172,-2.4903745651245117,-0.44377821683883667,2.7967872619628906
116,24769,24766,-0.02872006967663765,-0.03992291912436485,1.0385266542434692,-1.3508309125900269,2.302504301071167,0.458857923746109,1.8856408596038818,3.9664554595947266,0.29896876215934753,-2.559216022491455,-0.48775142431259155,2.7914154529571533
117,24779,24776,0.007774611935019493,-0.016627341508865356,0.9745558500289917,-1.3910599946975708,-1.8489750623703003,-0.02673322707414627,1.8846925497055054,3.9652037620544434,0.29962459206581116,-2.493410587310791,-0.4542293846607208,2.811908721923828
118,24789,24786,-0.036326661705970764,0.04221760854125023,0.9925135970115662,-0.2980147898197174,-5.307582855224609,-0.305301696062088,1.8845374584197998,3.965264081954956,0.29863759875297546,-2.5067148208618164,-0.4114827513694763,2.8299307823181152
119,24799,24796,-0.0447225458920002,0.13613730669021606,0.9731655120849609,0.09798378497362137,-8.305204391479492,0.3097289502620697,1.8837002515792847,3.965852737426758,0.2991727292537689,-2.3784968852996826,-0.4414469599723816,2.820178508758545
120,24809,24806,0.002277964260429144,0.10070805251598358,1.0519903898239136,0.20705080032348633,-9.519172668457031,-0.11760105937719345,1.882590889930725,3.964949131011963,0.29971370100975037,-2.2101149559020996,-0.3830884099006653,2.841050624847412
121,24819,24816,-0.034109633415937424,0.07267531007528305,0.9986312985420227,0.3335205912590027,-8.563009262084961,-0.03464276343584061,1.8831754922866821,3.965583562850952,0.2993622124195099,-2.192660331726074,-0.4024324417114258,2.83303165435791
122,24829,24826,-0.05488459765911102,0.10654336214065552,0.9677228927612305,-1.0791399478912354,-5.007330894470215,-0.17701004445552826,1.8833208084106445,3.9656176567077637,0.29981616139411926,-2.1337218284606934,-0.43255481123924255,2.8211252689361572
123,24839,24836,0.03845704719424248,0.014850875362753868,0.8900099396705627,-2.9979074001312256,-2.5123634338378906,-0.2812511622905731,1.8825082778930664,3.965056896209717,0.3003259599208832,-2.0487804412841797,-0.48952287435531616,2.8025705814361572
124,24849,24846,-0.0012082165339961648,0.03405678644776344,1.0105583667755127,-1.9237520694732666,-1.8274824619293213,-0.13245889544487,1.884087324142456,3.9649996757507324,0.30069178342819214,-2.1228816509246826,-0.5459744930267334,2.794368267059326
125,24859,24856,-0.0144762322306633,0.04695134982466698,1.0043436288833618,0.2470925897359848,-1.8503992557525635,0.20422647893428802,1.8853585720062256,3.966399908065796,0.3028765618801117,-2.129681348800659,-0.5024880170822144,2.816192150115967
126,24869,24866,0.021213652566075325,-0.03301859274506569,1.0304253101348877,0.5090864896774292,-2.665557622909546,0.24259287118911743,1.8867439031600952,3.966306209564209,0.3033306896686554,-2.1291887760162354,-0.5188923478126526,2.813735246658325
127,24879,24876,0.04352942481637001,-0.10828792303800583,1.0174967050552368,0.5769875049591064,-1.0290311574935913,-0.9029594659805298,1.8881982564926147,3.9663219451904297,0.30368226766586304,-2.183776378631592,-0.5195393562316895,2.811551332473755
128,24889,24886,0.04086461663246155,-0.003716744016855955,0.9344157576560974,1.4476770162582397,-4.135946273803711,-1.193542718887329,1.89056396484375,3.9666028022766113,0.30530455708503723,-2.2914204597473145,-0.5106559991836548,2.810755491256714
129,24899,24896,0.04136281833052635,-0.031869638711214066,0.9845245480537415,0.849428117275238,-8.83520221710205,-1.0044708251953125,1.8895810842514038,3.9664041996002197,0.30596616864204407,-2.0938303470611572,-0.4983626902103424,2.793286085128784
130,24909,24906,0.0638323500752449,-0.14836186170578003,1.0022039413452148,2.7900047302246094,-13.592473983764648,-0.7760540246963501,1.8907688856124878,3.9670612812042236,0.3064316511154175,-1.9956080913543701,-0.47759854793548584,2.785810947418213
131,24919,24916,0.014428837224841118,-0.0865214392542839,0.9847475290298462,2.8934757709503174,-17.040815353393555,-0.5315374135971069,1.8895050287246704,3.9684338569641113,0.30667340755462646,-1.654080867767334,-0.5138182640075684,2.7453253269195557
132,24929,24926,0.016966691240668297,0.005096484906971455,0.9407978653907776,2.9557342529296875,-14.854272842407227,-0.6500567197799683,1.8916170597076416,3.9687247276306152,0.3070927560329437,-1.6217641830444336,-0.4637173116207123,2.7563529014587402
133,24939,24936,-0.052905693650245667,0.11492498964071274,1.0427591800689697,2.845884323120117,-12.514021873474121,-0.7725414037704468,1.8913021087646484,3.968050718307495,0.30762559175491333,-1.3747934103012085,-0.4182667136192322,2.7498061656951904
134,24949,24946,0.10089457780122757,-0.07001751661300659,0.9380589723587036,2.326338052749634,-6.699584007263184,-1.0712393522262573,1.8921514749526978,3.9668502807617188,0.31034231185913086,-1.3709028959274292,-0.37092649936676025,2.75276255607605
135,24959,24956,0.101760134100914,0.01727879047393799,0.9525611996650696,1.7569332122802734,-5.460418224334717,-0.8503179550170898,1.8937020301818848,3.969715118408203,0.31092706322669983,-1.3166111707687378,-0.48286500573158264,2.7043094635009766
136,24969,24966,0.060511067509651184,0.046161968261003494,0.9346994161605835,1.213929533958435,-3.441636800765991,-0.619376540184021,1.8946046829223633,3.9691832065582275,0.31151172518730164,-1.2334823608398438,-0.44987744092941284,2.6990623474121094
137,24979,24976,-0.04486950486898422,0.04644184932112694,1.0342140197753906,2.552701473236084,-3.3908145427703857,-0.8798266053199768,1.8966748714447021,3.9692277908325195,0.3119438588619232,-1.3290629386901855,-0.4167541563510895,2.7043967247009277
138,24989,24986,-0.09726196527481079,-0.027244558557868004,1.0213066339492798,2.6043806076049805,-3.9755260944366455,-1.7934585809707642,1.8985629081726074,3.9686155319213867,0.3089529573917389,-1.4114749431610107,-0.3667452931404114,2.705267906188965
139,24999,24996,-0.14296972751617432,0.005203093867748976,0.9926204681396484,3.7244982719421387,-6.990291595458984,-1.8661152124404907,1.8994485139846802,3.968079090118408,0.30926698446273804,-1.2926450967788696,-0.3098757565021515,2.6881144046783447
140,25009,25006,-0.14749719202518463,0.11663582921028137,1.0054290294647217,3.0515124797821045,-10.196081161499023,-1.8463810682296753,1.8992023468017578,3.9686262607574463,0.3095959424972534,-1.1202952861785889,-0.2472056895494461,2.6687302589416504
141,25019,25016,-0.06794163584709167,0.14874838292598724,0.9769455790519714,2.885854482650757,-13.148763656616211,-1.7457714080810547,1.8999451398849487,3.9695844650268555,0.3060970902442932,-1.1717596054077148,-0.3033220171928406,2.6590211391448975
142,25029,25026,-0.01231306605041027,0.13907477259635925,1.0331733226776123,3.551302909851074,-14.354762077331543,-1.753487467765808,1.8997275829315186,3.969376564025879,0.306225061416626,-0.7924285531044006,-0.2199137657880783,2.626617908477783
143,25039,25036,-0.019103502854704857,0.10064398497343063,1.0493552684783936,3.0040063858032227,-13.218084335327148,-2.3525307178497314,1.899961233139038,3.9698660373687744,0.3063597083091736,-0.6697577238082886,-0.2663491368293762,2.6112380027770996
144,25049,25046,-0.05082124471664429,0.1140936017036438,1.0375193357467651,2.026981830596924,-9.150657653808594,-2.5115737915039062,1.9025739431381226,3.969196319580078,0.30561161041259766,-0.5624313354492188,-0.17911593616008759,2.5766851902008057
145,25059,25056,0.013710561208426952,0.03693290427327156,0.9264050722122192,1.281775712966919,-5.477782249450684,-2.7439005374908447,1.9052467346191406,3.9689114093780518,0.30558812618255615,-0.7139293551445007,-0.07974408566951752,2.5990688800811768
146,25069,25066,-0.001843683305196464,0.11352390050888062,0.957682192325592,0.4995860755443573,-3.5290298461914062,-2.8308348655700684,1.9049626588821411,3.9685544967651367,0.30579307675361633,-0.49552059173583984,-0.06081141158938408,2.5649471282958984
147,25079,25076,0.033187851309776306,0.033934783190488815,0.9841678142547607,0.11590024083852768,-3.664247989654541,-2.88883900642395,1.9062172174453735,3.969207525253296,0.30579856038093567,-0.4839104413986206,-0.1333879977464676,2.525275230407715
148,25089,25086,0.03428979590535164,-0.033027950674295425,1.0565111637115479,-0.7468883991241455,-3.446519136428833,-3.0375335216522217,1.9066356420516968,3.969846248626709,0.30762261152267456,-0.3940209746360779,-0.2822573184967041,2.4813411235809326
149,25099,25096,0.031579237431287766,-0.05121396854519844,1.0123876333236694,0.3108038306236267,-3.767502546310425,-3.215411901473999,1.9086474180221558,3.9691226482391357,0.30774033069610596,-0.4605526328086853,-0.19136975705623627,2.4650912284851074
150,25109,25106,-0.01414601318538189,0.03521440550684929,1.0109269618988037,2.1077048778533936,-3.858173131942749,-3.3358120918273926,1.9093117713928223,3.96899676322937,0.3078797459602356,-0.42968952655792236,-0.1741466373205185,2.436086416244507
151,25119,25116,0.056010182946920395,0.011979997158050537,0.8979907035827637,3.6292920112609863,-5.212618827819824,-3.528709888458252,1.9116095304489136,3.9685473442077637,0.30688631534576416,-0.4655095040798187,-0.1275293380022049,2.404351234436035
152,25129,25126,0.04526520147919655,0.021305693313479424,0.9704915285110474,5.016153335571289,-7.773878574371338,-3.1907310485839844,1.9126291275024414,3.9686052799224854,0.306916743516922,-0.4047029912471771,-0.0563214085996151,2.369432210922241
153,25139,25136,0.03887436166405678,-0.012060916051268578,0.9948678016662598,4.7077131271362305,-9.661559104919434,-2.9966013431549072,1.914229154586792,3.9693658351898193,0.30681440234184265,-0.3928086757659912,-0.12682412564754486,2.333418369293213
154,25149,25146,-0.004214385524392128,-0.05859002098441124,1.044197678565979,4.084935188293457,-11.569711685180664,-2.9568941593170166,1.9136698246002197,3.9691567420959473,0.3087421953678131,-0.08764587342739105,-0.03314804658293724,2.3009731769561768
155,25159,25156,-0.04627496004104614,0.028193274512887,1.0354149341583252,3.753873348236084,-9.855879783630371,-2.6668901443481445,1.916077971458435,3.9701199531555176,0.30871134996414185,-0.17924746870994568,-0.03473225235939026,2.2743160724639893
156,25169,25166,-0.0015676410403102636,-0.022474532946944237,0.9851437211036682,2.100609540939331,-4.4848527908325195,-3.588294744491577,1.9157501459121704,3.9708170890808105,0.3089388608932495,0.03872644156217575,0.03939364105463028,2.2532572746276855
157,25179,25176,0.00732342479750514,0.18013307452201843,0.9710196852684021,0.9279572367668152,-3.728426218032837,-3.522498369216919,1.9149202108383179,3.9705748558044434,0.3092415928840637,0.26500752568244934,0.0894106850028038,2.219912052154541
158,25189,25186,0.05594135820865631,0.03457145392894745,0.9515066146850586,0.693703830242157,-3.9338393211364746,-3.5748062133789062,1.9175347089767456,3.971410036087036,0.3077932298183441,0.11493656039237976,0.041925378143787384,2.178455114364624
159,25199,25196,-0.0011425212724134326,-0.057188864797353745,1.0633878707885742,0.04857057332992554,-2.437805414199829,-2.7663352489471436,1.9187970161437988,3.970978021621704,0.3077838122844696,0.13452266156673431,0.07005306333303452,2.1436824798583984
160,25209,25206,-0.03747375309467316,-0.07950106263160706,1.0997304916381836,0.9168606400489807,-2.5444772243499756,-2.3908488750457764,1.9206300973892212,3.972104549407959,0.3076924979686737,0.06702625006437302,0.08837836235761642,2.1181676387786865
161,25219,25216,-0.021319007501006126,0.014070181176066399,1.0223170518875122,1.6070799827575684,-2.8455185890197754,-2.560854196548462,1.9216175079345703,3.971604108810425,0.3065599203109741,0.17108076810836792,0.11646906286478043,2.092426300048828
162,25229,25226,-0.019371449947357178,0.15335506200790405,1.0169398784637451,1.7239327430725098,-1.5253698825836182,-2.4913203716278076,1.9223064184188843,3.972001314163208,0.3066856563091278,0.2611694931983948,0.1567201465368271,2.064857006072998
163,25239,25236,0.026364820078015327,0.1732143759727478,0.9581120014190674,1.7474757432937622,-1.1272450685501099,-2.610191822052002,1.9220603704452515,3.9711074829101562,0.3068958818912506,0.42041015625,0.200369194149971,2.0330543518066406
164,25249,25246,0.0341215506196022,0.060954004526138306,0.9888669848442078,1.085547685623169,-4.094109535217285,-2.6314785480499268,1.9243303537368774,3.973158121109009,0.3069606423377991,0.3237736225128174,0.0857652872800827,2.0164129734039307
165,25259,25256,-0.07917486131191254,-0.036829154938459396,1.1058804988861084,0.1329202502965927,-3.263535976409912,-2.7941832542419434,1.9237443208694458,3.9724507331848145,0.30713313817977905,0.5028456449508667,0.12413234263658524,1.9907302856445312
166,25269,25266,-0.08834777772426605,-0.021948574110865593,1.1002579927444458,0.7035490870475769,-1.776498556137085,-2.670156478881836,1.9256194829940796,3.973151445388794,0.3072045147418976,0.41385573148727417,0.14497391879558563,1.9659240245819092
167,25279,25276,-0.0463005006313324,0.12346487492322922,1.0172219276428223,1.2159647941589355,0.8251242637634277,-2.7860124111175537,1.9273850917816162,3.9737353324890137,0.3079260289669037,0.3900966942310333,0.17604728043079376,1.9352786540985107
168,25289,25286,-0.037292979657649994,0.26171374320983887,1.0332825183868408,1.8599694967269897,2.8278861045837402,-2.908273220062256,1.9282046556472778,3.974660873413086,0.3082370460033417,0.4015783965587616,0.12456434220075607,1.9154438972473145
169,25299,25296,0.029167329892516136,0.07741246372461319,0.9497156739234924,0.8881950378417969,4.551028728485107,-3.404747247695923,1.9293667078018188,3.9747166633605957,0.3085603713989258,0.38816776871681213,0.16187462210655212,1.8832052946090698
170,25309,25306,-0.007229524198919535,0.15668511390686035,1.0561120510101318,2.915714740753174,-1.2285115718841553,-3.637237548828125,1.9303655624389648,3.9749832153320312,0.3088083267211914,0.30165454745292664,0.20045369863510132,1.8543354272842407
171,25319,25316,-0.05726049840450287,0.02783314324915409,1.0405056476593018,3.487224578857422,-7.198800086975098,-3.67362380027771,1.9303070306777954,3.974256753921509,0.3068402409553528,0.43775033950805664,0.26088276505470276,1.8196361064910889
172,25329,25326,-0.1525135040283203,0.03221290931105614,1.014892339706421,1.7240632772445679,-2.9271507263183594,-3.5118000507354736,1.9308316707611084,3.9752135276794434,0.30703824758529663,0.4654181897640228,0.24322974681854248,1.7882002592086792
173,25339,25336,-0.09042930603027344,0.02206377312541008,1.0238631963729858,0.21120944619178772,-0.19054584205150604,-3.647097587585449,1.9313883781433105,3.975135564804077,0.3073822557926178,0.6088427901268005,0.28678098320961,1.753289818763733
174,25349,25346,0.011017666198313236,-0.022760123014450073,1.0019699335098267,-0.7733207941055298,0.36555618047714233,-3.341529607772827,1.9314836263656616,3.974843978881836,0.3095603585243225,0.6947529911994934,0.3008918762207031,1.7142735719680786
175,25359,25356,0.0016287551261484623,0.16955238580703735,1.0276516675949097,-1.0546629428863525,3.7773396968841553,-3.4288523197174072,1.9329280853271484,3.974386215209961,0.30992916226387024,0.593381941318512,0.29186922311782837,1.6770228147506714
176,25369,25366,-0.007497294805943966,0.047673795372247696,1.0045957565307617,-1.625921607017517,6.404993534088135,-3.0648069381713867,1.9337855577468872,3.973816156387329,0.3103145956993103,0.5353123545646667,0.27851933240890503,1.6448101997375488
177,25379,25376,-0.003258266020566225,-0.02213999256491661,1.0048807859420776,-1.1767957210540771,7.160741806030273,-3.576568841934204,1.9339336156845093,3.9744045734405518,0.314205139875412,0.5178003311157227,0.260050892829895,1.6146159172058105
178,25389,25386,0.0184631310403347,-0.02732950821518898,0.9831642508506775,-0.5970138907432556,7.776048183441162,-3.7461273670196533,1.935163140296936,3.9752235412597656,0.314832866191864,0.40598344802856445,0.24898554384708405,1.588793396949768
179,25399,25396,0.01626993902027607,-0.008562120608985424,1.0015074014663696,0.36728060245513916,4.1610612869262695,-3.971491575241089,1.9358248710632324,3.9760477542877197,0.3154962360858917,0.38121408224105835,0.1690271645784378,1.560660481452942
180,25409,25406,-0.011836950667202473,-0.00317218410782516,0.9898078441619873,1.270203948020935,1.636778712272644,-4.090372085571289,1.9356181621551514,3.9767422676086426,0.3161596655845642,0.3940829932689667,0.1076638475060463,1.5450085401535034
181,25419,25416,0.005414055194705725,-0.04397539421916008,0.9682974815368652,1.1963082551956177,1.305293321609497,-3.6743133068084717,1.9371534585952759,3.9764323234558105,0.3177519142627716,0.2795946002006531,0.14779795706272125,1.4891732931137085
182,25429,25426,-0.05629667267203331,0.1349598616361618,1.0214706659317017,3.879173517227173,-0.8738710284233093,-3.184023857116699,1.9369590282440186,3.9759347438812256,0.31851091980934143,0.35899868607521057,0.19098953902721405,1.4519611597061157
183,25439,25436,-0.05485326424241066,0.10135095566511154,1.03362238407135,4.544252395629883,0.6527950167655945,-3.1469204425811768,1.9369757175445557,3.975587844848633,0.3192277252674103,0.4397764205932617,0.18885698914527893,1.4163739681243896
184,25449,25446,-0.03489449992775917,0.0073124440386891365,0.9805333614349365,4.237438678741455,2.778306007385254,-3.234849691390991,1.9376139640808105,3.9755632877349854,0.31750550866127014,0.408772349357605,0.2835547626018524,1.3807690143585205
185,25459,25456,-0.008796709589660168,-0.026603830978274345,0.9561446905136108,3.9143662452697754,4.816614627838135,-3.0698366165161133,1.93813157081604,3.975578784942627,0.31803375482559204,0.34678491950035095,0.3687294125556946,1.3513838052749634
186,25469,25466,-0.0006460014265030622,-0.03770207613706589,0.9507679343223572,2.0864381790161133,5.82553768157959,-3.2265326976776123,1.9392077922821045,3.974777936935425,0.31852757930755615,0.25326111912727356,0.43678680062294006,1.318070411682129
187,25479,25476,-0.02841898985207081,0.00440240977331996,0.9200576543807983,-0.5003110766410828,5.879001617431641,-3.8094708919525146,1.9391745328903198,3.975334644317627,0.31632354855537415,0.2214478999376297,0.4695383906364441,1.2865831851959229
188,25489,25486,-0.08843889832496643,0.04808435216546059,0.9637518525123596,-3.5692718029022217,5.189599990844727,-2.9230263233184814,1.9387013912200928,3.9752659797668457,0.31660446524620056,0.18535909056663513,0.45422691106796265,1.2552634477615356
189,25499,25496,-0.048544056713581085,0.0006813970394432545,1.0365631580352783,-5.374752998352051,4.1293745040893555,-2.8084616661071777,1.9386895895004272,3.976548671722412,0.3168846368789673,0.15972737967967987,0.31485050916671753,1.2504080533981323
190,25509,25506,-0.07125068455934525,0.07350420951843262,1.0238232612609863,-5.615107536315918,5.967215538024902,-3.5883383750915527,1.9388412237167358,3.9755308628082275,0.3170624375343323,0.06119551137089729,0.31487688422203064,1.211317539215088
191,25519,25516,-0.0009391361963935196,0.05709186568856239,0.9548690319061279,-3.225611925125122,5.506269454956055,-3.1496763229370117,1.9391857385635376,3.9762468338012695,0.3190287947654724,0.031401388347148895,0.2343587726354599,1.1905555725097656
192,25529,25526,-0.009374172426760197,0.030672511085867882,0.9838689565658569,0.3694326877593994,2.4994614124298096,-3.1977031230926514,1.938989281654358,3.975958824157715,0.3194558322429657,0.007181023713201284,0.27056172490119934,1.1484631299972534
193,25539,25536,-0.04314598813652992,0.033927492797374725,1.0408118963241577,2.161590099334717,3.898371458053589,-2.7605433464050293,1.939008116722107,3.9761016368865967,0.3198247253894806,0.013507286086678505,0.2760131359100342,1.1183741092681885
194,25549,25546,-0.032246168702840805,0.03534991294145584,1.0480222702026367,2.319485902786255,4.143096446990967,-2.6330478191375732,1.9392293691635132,3.9759879112243652,0.3188500702381134,0.005571007262915373,0.3149110674858093,1.0916683673858643
195,25559,25556,-0.03583192452788353,0.06744661927223206,1.0382163524627686,1.4193933010101318,4.621939659118652,-3.271599292755127,1.9388178586959839,3.976123571395874,0.3191606104373932,-0.010837074369192123,0.34940123558044434,1.0751094818115234
196,25569,25566,-0.09946809709072113,0.2495238333940506,1.0052402019500732,-1.5365443229675293,5.560365200042725,-2.9482781887054443,1.9389877319335938,3.97617244720459,0.3195108473300934,-0.04139445349574089,0.35345259308815,1.0486924648284912
197,25579,25576,-0.024021729826927185,0.1715916246175766,0.9492418766021729,-3.1976799964904785,7.054668426513672,-2.8652350902557373,1.9389272928237915,3.976942300796509,0.3202540874481201,-0.08936116844415665,0.24254576861858368,1.0277953147888184
198,25589,25586,0.029284218326210976,0.11134187877178192,0.9043136239051819,-4.676037788391113,10.35570240020752,-3.406301975250244,1.940388560295105,3.9777908325195312,0.32051119208335876,-0.3163507878780365,0.18961146473884583,1.0000765323638916
199,25599,25596,-0.015165613032877445,0.16539855301380157,0.9356604218482971,-3.7197933197021484,6.368769645690918,-2.3032736778259277,1.9404270648956299,3.977972984313965,0.32079824805259705,-0.399075448513031,0.11623049527406693,0.9716595411300659
200,25609,25606,-0.058850258588790894,0.061079200357198715,1.0416814088821411,-2.101234197616577,4.827516078948975,-1.8883002996444702,1.9407415390014648,3.978480815887451,0.31898033618927,-0.4470324218273163,0.06712924689054489,0.956580400466919
201,25619,25616,-0.03116683103144169,-0.0009525386849418283,1.033800721168518,0.42573797702789307,4.475228786468506,-2.2557263374328613,1.9402525424957275,3.978632926940918,0.3191237449645996,-0.4749087393283844,0.05117123946547508,0.9399633407592773
202,25629,25626,-0.02697373554110527,-0.030150478705763817,1.019059181213379,3.481627941131592,1.9429931640625,-2.697272777557373,1.9400383234024048,3.9790451526641846,0.31928667426109314,-0.4594821631908417,0.07987315207719803,0.9276575446128845
203,25639,25636,-0.024968096986413002,-0.07088730484247208,1.0164740085601807,4.5220627784729,0.6429819464683533,-2.5427796840667725,1.9412742853164673,3.9800479412078857,0.3193540871143341,-0.5765625834465027,0.07795781642198563,0.9043736457824707
204,25649,25646,-0.03690226376056671,-0.09977325797080994,1.0311282873153687,5.029543876647949,-0.6207994818687439,-2.216519832611084,1.9404911994934082,3.979792356491089,0.31912457942962646,-0.5175656676292419,0.16731813549995422,0.8862503170967102
205,25659,25656,-0.05490625649690628,-0.07222209870815277,1.0523898601531982,3.933271646499634,-0.9899232387542725,-1.351857304573059,1.940438985824585,3.9798150062561035,0.31934410333633423,-0.4453223645687103,0.2572554647922516,0.8745027780532837
206,25669,25666,-0.06652769446372986,-0.01038624718785286,1.039674997329712,2.282529354095459,-0.2843921482563019,-1.452186107635498,1.94098961353302,3.9792721271514893,0.3195589780807495,-0.45135828852653503,0.3206932544708252,0.8406543135643005
207,25679,25676,-0.026797274127602577,-0.03708479925990105,0.9586524367332458,-0.7922369241714478,0.7078187465667725,-1.53054940700531,1.9401869773864746,3.9797215461730957,0.31755340099334717,-0.39899080991744995,0.26772934198379517,0.8379563093185425
208,25689,25686,0.02488965354859829,0.015147230587899685,0.9394850730895996,-2.86220383644104,3.018397569656372,-1.598045825958252,1.9411718845367432,3.9800732135772705,0.3176693618297577,-0.4457666575908661,0.25210559368133545,0.8334025740623474
209,25699,25696,0.037045594304800034,0.13028661906719208,0.9591643214225769,-2.332024574279785,5.621645927429199,-1.7777209281921387,1.9408131837844849,3.9811768531799316,0.3177974820137024,-0.45737430453300476,0.2086673378944397,0.8255452513694763
210,25709,25706,0.05316786840558052,0.1422768235206604,0.9349266290664673,-1.9848885536193848,7.098208427429199,-1.6138375997543335,1.9409679174423218,3.981743812561035,0.31894761323928833,-0.5021063089370728,0.17842566967010498,0.8225253224372864
211,25719,25716,0.11549138277769089,0.034071292728185654,0.878665566444397,-1.3466966152191162,7.533441543579102,-1.9452755451202393,1.9412671327590942,3.9808828830718994,0.31897562742233276,-0.575205385684967,0.23191741108894348,0.8089984655380249
212,25729,25726,0.0938170999288559,-0.046776894479990005,0.9451773166656494,-0.7825922966003418,5.879105567932129,-1.9168587923049927,1.9419302940368652,3.9821550846099854,0.3189316689968109,-0.6343174576759338,0.20986758172512054,0.8126017451286316
213,25739,25736,0.016596665605902672,-0.01828748732805252,0.9965075254440308,-0.22225141525268555,4.093401908874512,-1.9080719947814941,1.942059874534607,3.9810445308685303,0.31885531544685364,-0.6566994786262512,0.27793726325035095,0.7845930457115173
214,25749,25746,0.031246250495314598,-0.06777425110340118,0.966243326663971,0.8729414939880371,2.3402059078216553,-1.6887656450271606,1.9435665607452393,3.9809024333953857,0.3215767741203308,-0.815501868724823,0.2689579129219055,0.7664520144462585
215,25759,25756,-0.04454634338617325,-0.09957174211740494,1.0507086515426636,0.2761863172054291,0.47538021206855774,-1.2110635042190552,1.943652629852295,3.9807114601135254,0.32163283228874207,-0.7808863520622253,0.27063074707984924,0.7503780126571655
216,25769,25766,-0.048155855387449265,-0.08077965676784515,1.0066063404083252,-0.4080512225627899,-1.4107980728149414,-1.4592275619506836,1.9448672533035278,3.9803502559661865,0.3215860426425934,-0.8721594214439392,0.2648698389530182,0.7262207865715027
217,25779,25776,-0.035421185195446014,-0.08943590521812439,0.9717331528663635,-1.5641891956329346,-1.1660405397415161,-1.1535433530807495,1.9443519115447998,3.9817888736724854,0.31866806745529175,-0.7750394344329834,0.1678507924079895,0.7346305251121521
218,25789,25786,-0.017454687505960464,0.10010966658592224,1.0092610120773315,-1.645291805267334,-1.8641608953475952,-1.0935471057891846,1.9460983276367188,3.9814906120300293,0.31848907470703125,-0.8413156270980835,0.14093497395515442,0.7257641553878784
219,25799,25796,0.04515668749809265,0.19556446373462677,0.997554361820221,-0.9758964776992798,-1.7562922239303589,-1.1209830045700073,1.946608543395996,3.982595205307007,0.3183623254299164,-0.8133862018585205,0.11918452382087708,0.7147044539451599
220,25809,25806,0.04834979772567749,0.041907135397195816,0.945807158946991,0.34711405634880066,-4.740035057067871,-0.9503108263015747,1.9477485418319702,3.9829487800598145,0.3176743686199188,-0.8393434882164001,0.11551455408334732,0.7160119414329529
221,25819,25816,0.01989983581006527,-0.046826671808958054,0.9781569838523865,0.053511299192905426,-2.5429718494415283,-1.3756977319717407,1.949017882347107,3.9831087589263916,0.3174188435077667,-0.8479844331741333,0.1213131994009018,0.691906213760376
222,25829,25826,-0.04419524222612381,0.015529188327491283,1.0583256483078003,1.300095558166504,-4.362506866455078,-1.9123601913452148,1.9484243392944336,3.9828827381134033,0.31731054186820984,-0.7016053199768066,0.13251933455467224,0.6909831762313843
223,25839,25836,-0.03191160038113594,0.030269673094153404,1.022386908531189,0.2507832646369934,-4.184720039367676,-1.3426481485366821,1.9502662420272827,3.982808828353882,0.31699278950691223,-0.7799463272094727,0.14444971084594727,0.6752076745033264
224,25849,25846,-0.02298273891210556,0.015787027776241302,1.0076076984405518,1.3749295473098755,-4.283769607543945,-1.325556755065918,1.9502692222595215,3.982858896255493,0.3175804316997528,-0.6884132623672485,0.16225628554821014,0.6664277911186218
225,25859,25856,-0.04989982396364212,0.03726601600646973,1.0205308198928833,0.8655709624290466,-5.7904839515686035,-0.43278181552886963,1.9497874975204468,3.9821910858154297,0.3175656497478485,-0.5185154676437378,0.1831393837928772,0.6475322842597961
226,25869,25866,0.0024941228330135345,0.03586389124393463,1.0237435102462769,-1.0260989665985107,-1.8231288194656372,-0.7519508600234985,1.9509778022766113,3.9828763008117676,0.31744253635406494,-0.5197165012359619,0.11394929140806198,0.6206998825073242
227,25879,25876,0.009410684928297997,0.060531824827194214,1.032898187637329,-0.09525855630636215,-1.3439987897872925,-0.26197996735572815,1.9515149593353271,3.982614040374756,0.3143470585346222,-0.48307594656944275,0.10632538795471191,0.6251428723335266
228,25889,25886,-0.015392286702990532,0.05097522214055061,1.0287487506866455,0.16207821667194366,0.3712123930454254,-0.36842966079711914,1.952150821685791,3.9825401306152344,0.3141325116157532,-0.4629477560520172,0.11475126445293427,0.6255541443824768
229,25899,25896,-0.017402784898877144,-0.019700990989804268,1.0158215761184692,-0.4375552535057068,1.6071531772613525,-1.6607013940811157,1.9533720016479492,3.9826064109802246,0.3138737082481384,-0.5513709187507629,0.11778058856725693,0.6282939314842224
230,25909,25906,-0.01725267618894577,-0.02488280087709427,1.020531415939331,1.300735592842102,1.7330864667892456,-1.6114027500152588,1.9543914794921875,3.98305606842041,0.3144610524177551,-0.5563119649887085,0.13129974901676178,0.6221404671669006
231,25919,25916,-0.017250826582312584,0.019319284707307816,1.0197811126708984,1.4152098894119263,-1.0914579629898071,-1.7406227588653564,1.9545427560806274,3.9831085205078125,0.31443560123443604,-0.471622496843338,0.15959283709526062,0.6083028316497803
232,25929,25926,-0.016682861372828484,0.01971418410539627,1.012077808380127,0.8710571527481079,-2.527998685836792,-1.0830891132354736,1.955579400062561,3.9830210208892822,0.3143046498298645,-0.5216526985168457,0.1845845878124237,0.5940315127372742
233,25939,25936,0.05813692510128021,-0.09799568355083466,1.0248783826828003,0.6251900792121887,-3.2660465240478516,-1.2793747186660767,1.9568049907684326,3.9829163551330566,0.31418663263320923,-0.5369042158126831,0.20073328912258148,0.5808575749397278
234,25949,25946,0.014375399798154831,-0.08029384166002274,1.0767887830734253,0.4031936526298523,-3.8578712940216064,-1.2915537357330322,1.9570810794830322,3.982731580734253,0.3152274787425995,-0.45735689997673035,0.21247868239879608,0.5694267153739929
235,25959,25956,0.0536026805639267,-0.1258021891117096,1.0086592435836792,-0.670504629611969,-3.5707671642303467,-1.483967661857605,1.9577404260635376,3.9832844734191895,0.3152633607387543,-0.45558303594589233,0.13988077640533447,0.5523282289505005
236,25969,25966,0.023026637732982635,-0.05065775290131569,1.0405329465866089,-0.4444645345211029,-2.7729380130767822,-1.5785505771636963,1.9575525522232056,3.983330011367798,0.31547683477401733,-0.30705955624580383,0.13624735176563263,0.5371714234352112
237,25979,25976,0.002906499430537224,0.0030857380479574203,1.0138970613479614,-0.9123865962028503,-2.4663267135620117,-2.5275347232818604,1.9580698013305664,3.9830920696258545,0.3168834447860718,-0.2523553967475891,0.1234721764922142,0.5135681629180908
238,25989,25986,0.004530990030616522,-0.08911502361297607,0.932009220123291,0.18689626455307007,-0.3075919449329376,-1.0635790824890137,1.9598833322525024,3.9828381538391113,0.31701168417930603,-0.3615413308143616,0.12921923398971558,0.47938528656959534
239,25999,25996,0.029427194967865944,-0.06502123922109604,0.9855704307556152,0.22942028939723969,-0.012502479366958141,-1.1717280149459839,1.9605170488357544,3.9819717407226562,0.31719473004341125,-0.33357611298561096,0.13878865540027618,0.46130022406578064
