,timestamp_start,timestamp_end,acc.x,acc.y,acc.z,gyro.x,gyro.y,gyro.z,stateEstimate.x,stateEstimate.y,stateEstimate.z,stabilizer.pitch,stabilizer.roll,stabilizer.yaw
0,19158,19156,0.013896440155804157,0.004270309116691351,0.9517483115196228,-7.000051021575928,1.8671722412109375,2.1762001514434814,1.8177663087844849,3.852385997772217,0.17185117304325104,-0.9331895709037781,-1.3201607465744019,1.9002374410629272
1,19168,19166,0.035658761858940125,-0.08053748309612274,1.0188195705413818,-3.1717166900634766,0.5703971982002258,1.8145136833190918,1.8179246187210083,3.8522324562072754,0.17376868426799774,-0.9845436215400696,-1.3482565879821777,1.9334765672683716
2,19178,19176,0.018262429162859917,-0.12126369029283524,1.0911335945129395,4.439371109008789,-2.119645833969116,1.8961689472198486,1.8172224760055542,3.8495945930480957,0.17607054114341736,-0.9351603388786316,-1.0929054021835327,1.9953017234802246
3,19188,19186,-0.005124656017869711,-0.04594423249363899,1.0701241493225098,12.964831352233887,-4.920289039611816,1.6187059879302979,1.8128576278686523,3.850128412246704,0.17717282474040985,-0.3428601622581482,-1.1761125326156616,1.9109809398651123
4,19198,19196,-0.006985004525631666,0.13073855638504028,1.0033396482467651,12.210820198059082,-0.022044742479920387,3.016864776611328,1.8108619451522827,3.8507165908813477,0.17943699657917023,-0.40042921900749207,-1.066273808479309,1.9356547594070435
5,19208,19206,-0.01222409401088953,0.11948075890541077,1.021498441696167,9.936285972595215,5.49107027053833,3.6572530269622803,1.81283700466156,3.8538601398468018,0.18170155584812164,-0.5067869424819946,-1.0968223810195923,1.9567394256591797
6,19218,19216,0.05578929930925369,-0.051680490374565125,0.9990557432174683,9.24601936340332,6.5487799644470215,3.3259992599487305,1.813883900642395,3.853559732437134,0.1810511350631714,-0.5970546007156372,-0.9848058819770813,1.9987794160842896
7,19228,19226,-0.012506086379289627,0.007881827652454376,1.061449646949768,9.426295280456543,7.246152877807617,2.5892226696014404,1.8140807151794434,3.853687286376953,0.18310783803462982,-0.7826048731803894,-0.8127543926239014,2.0589194297790527
8,19238,19236,0.0046992977149784565,0.03574175015091896,1.004945993423462,8.269551277160645,5.460519790649414,2.1491305828094482,1.8150043487548828,3.8540828227996826,0.18503572046756744,-0.9498176574707031,-0.7958998680114746,2.0860002040863037
9,19248,19246,-0.008306815288960934,0.04060206562280655,0.9943252205848694,5.906845569610596,2.9978795051574707,1.8777981996536255,1.8157252073287964,3.8535406589508057,0.18835759162902832,-1.1486197710037231,-0.5653140544891357,2.1478261947631836
10,19258,19256,0.028421057388186455,0.05351949855685234,1.0343753099441528,4.880119800567627,-4.688899517059326,1.6796215772628784,1.8145496845245361,3.858839988708496,0.19096171855926514,-0.7599429488182068,-0.6813957691192627,2.0935347080230713
11,19268,19266,0.003522649873048067,0.0006013686652295291,1.0421541929244995,5.930068016052246,-8.952213287353516,2.1761038303375244,1.81447172164917,3.861903429031372,0.19281624257564545,-0.7532773017883301,-0.9983794689178467,2.056922674179077
12,19278,19276,-0.01959151215851307,0.03224286809563637,0.9806667566299438,9.18773365020752,-8.03200626373291,2.548419952392578,1.8162198066711426,3.863783597946167,0.1953710913658142,-0.752376914024353,-0.8089187741279602,2.109605073928833
13,19288,19286,-0.007974606938660145,-0.001288966042920947,1.0245189666748047,11.76333236694336,-6.905161380767822,3.3494107723236084,1.8179173469543457,3.864248037338257,0.19600869715213776,-0.7429240345954895,-0.7312360405921936,2.1426217555999756
14,19298,19296,0.050880227237939835,-0.11371592432260513,1.0449392795562744,16.957971572875977,-4.784276485443115,2.445997953414917,1.8199318647384644,3.8658833503723145,0.19803358614444733,-0.885471761226654,-0.6696500778198242,2.1816744804382324
15,19308,19306,0.004413792863488197,-0.036199770867824554,1.0361757278442383,18.917089462280273,-4.846816062927246,2.6468913555145264,1.8197369575500488,3.8662514686584473,0.20039193332195282,-0.8206049799919128,-0.38479673862457275,2.226602554321289
16,19318,19316,0.007021727506071329,0.011437552981078625,0.9976822733879089,20.23621368408203,-1.8324562311172485,1.9075489044189453,1.8206603527069092,3.8662610054016113,0.20321109890937805,-0.7561646103858948,-0.06396552175283432,2.2724108695983887
17,19328,19326,-0.003962752874940634,0.03327568620443344,0.9200199246406555,15.763774871826172,-5.318060874938965,2.9344677925109863,1.8215528726577759,3.869342565536499,0.2054302990436554,-0.7261326313018799,0.018356693908572197,2.277813196182251
18,19338,19336,-0.014613675884902477,0.04692813381552696,1.0420997142791748,10.485584259033203,-5.732717990875244,2.474818468093872,1.8235245943069458,3.8713033199310303,0.20747077465057373,-0.891353189945221,0.039878860116004944,2.2916712760925293
19,19348,19346,0.009280633181333542,-0.07006433606147766,0.9918996095657349,6.8163933753967285,-9.92109203338623,2.4119863510131836,1.8249843120574951,3.873143434524536,0.21008943021297455,-0.9198556542396545,0.2262931764125824,2.3296499252319336
20,19358,19356,-0.08265861868858337,-0.0687691941857338,1.0651674270629883,4.3169121742248535,-10.8355073928833,1.9023082256317139,1.8249160051345825,3.8740904331207275,0.21228653192520142,-0.7838612794876099,0.18724773824214935,2.335979700088501
21,19368,19366,-0.04518735781311989,0.028377529233694077,0.9715871214866638,2.610720634460449,-11.380631446838379,2.0215158462524414,1.8249831199645996,3.874302864074707,0.2146025449037552,-0.6409460306167603,0.27495402097702026,2.363407850265503
22,19378,19376,-0.034504808485507965,0.07686306536197662,1.0011305809020996,2.9947469234466553,-12.500728607177734,2.5776383876800537,1.8257275819778442,3.8756563663482666,0.21628986299037933,-0.4832591712474823,0.4089553952217102,2.4006521701812744
23,19388,19386,0.04314354807138443,-0.018298808485269547,0.9874206185340881,5.245345115661621,-13.20085334777832,2.3407747745513916,1.827846884727478,3.8760225772857666,0.21845084428787231,-0.5344234108924866,0.46042725443840027,2.422638416290283
24,19398,19396,0.007574110757559538,-0.015277164988219738,1.0437304973602295,7.177760601043701,-13.37807846069336,1.6936821937561035,1.8286679983139038,3.8751370906829834,0.22061412036418915,-0.47965726256370544,0.6144900321960449,2.453705310821533
25,19408,19406,0.01258016936480999,-0.04460039734840393,0.9610320925712585,6.376124382019043,-11.459019660949707,1.325369954109192,1.8302444219589233,3.876441478729248,0.2227599322795868,-0.4159213602542877,0.7090620398521423,2.46842098236084
26,19418,19416,0.0056635853834450245,-0.045068178325891495,0.9415433406829834,3.627459764480591,-9.439754486083984,1.7048567533493042,1.831702470779419,3.8767147064208984,0.22602397203445435,-0.36854976415634155,0.7827523946762085,2.477389335632324
27,19428,19426,0.024549072608351707,-0.06003256142139435,0.931987464427948,2.1741445064544678,-12.290838241577148,1.4750691652297974,1.8328523635864258,3.8768186569213867,0.22824163734912872,-0.254052996635437,0.8901160359382629,2.5003597736358643
28,19438,19436,0.015760498121380806,-0.024967653676867485,0.9359637498855591,-0.9100421071052551,-13.530462265014648,1.558335781097412,1.8337548971176147,3.8787243366241455,0.23058363795280457,-0.03631923720240593,0.8036579489707947,2.5139031410217285
29,19448,19446,0.012609932571649551,-0.141379252076149,0.9907523393630981,-1.709485411643982,-15.115987777709961,1.4204063415527344,1.8343427181243896,3.8798787593841553,0.23003070056438446,0.12970572710037231,0.8316594958305359,2.533959150314331
30,19458,19456,-0.043486587703228,-0.1263832151889801,1.0480890274047852,-1.1989080905914307,-12.297471046447754,0.6168756484985352,1.8369872570037842,3.879133462905884,0.23190242052078247,0.09379659593105316,0.9131966829299927,2.528190851211548
31,19468,19466,0.01917637139558792,-0.04898998886346817,0.9371119737625122,-1.4761111736297607,-10.377464294433594,0.3155378997325897,1.8376880884170532,3.879218101501465,0.23380762338638306,0.17355257272720337,0.9097163677215576,2.5261476039886475
32,19478,19476,0.006044033914804459,-0.006735211703926325,0.956977367401123,-2.127032995223999,-10.022753715515137,0.38639354705810547,1.8372031450271606,3.8790602684020996,0.23661351203918457,0.46013200283050537,0.9000318050384521,2.5531585216522217
33,19488,19486,0.005323839373886585,0.008642731234431267,0.9584712982177734,-3.5243353843688965,-10.380605697631836,0.026370026171207428,1.8379298448562622,3.879960775375366,0.23853984475135803,0.49060750007629395,0.7996363639831543,2.5403804779052734
34,19498,19496,0.02553202025592327,-0.03636645898222923,0.9321704506874084,-4.1252360343933105,-9.291706085205078,-0.42197057604789734,1.838858723640442,3.8808374404907227,0.24044230580329895,0.6061374545097351,0.766538143157959,2.5412440299987793
35,19508,19506,0.02956858091056347,-0.002583242254331708,0.9797770380973816,-4.036802291870117,-10.820672035217285,0.07565107941627502,1.8398317098617554,3.8805627822875977,0.24240019917488098,0.8597392439842224,0.7944458723068237,2.5620813369750977
36,19518,19516,-0.012471156194806099,0.05365676060318947,1.0008841753005981,-3.246137857437134,-9.929548263549805,-0.6275326013565063,1.840165615081787,3.8803553581237793,0.24579975008964539,1.1013147830963135,0.8154650926589966,2.5810251235961914
37,19528,19526,-0.009258782491087914,0.005772210191935301,0.9447306394577026,-2.999727964401245,-6.252964496612549,-1.0411216020584106,1.844395399093628,3.8801724910736084,0.2479410469532013,0.7039239406585693,0.8422982692718506,2.4875264167785645
38,19538,19536,-0.005365251563489437,0.04815153405070305,1.013140082359314,-3.864102840423584,-5.165741443634033,-0.41404131054878235,1.8457341194152832,3.880915403366089,0.24991820752620697,0.8387755751609802,0.7854809165000916,2.4901251792907715
39,19548,19546,0.010585971176624298,0.035160504281520844,0.9180799126625061,-6.1649250984191895,-5.381347179412842,-0.633057713508606,1.846193552017212,3.881624221801758,0.25116822123527527,0.9490413665771484,0.7112598419189453,2.496994733810425
40,19558,19556,0.00374740082770586,0.014333413913846016,0.9260267019271851,-7.313327789306641,-6.039154052734375,-1.063320517539978,1.8473365306854248,3.880551338195801,0.25295209884643555,1.0563582181930542,0.7544109225273132,2.489745616912842
41,19568,19566,-0.01716320775449276,0.0008961302228271961,0.9701476693153381,-7.257901191711426,-7.016768455505371,-1.4645475149154663,1.8488664627075195,3.8810081481933594,0.2546640634536743,1.0999658107757568,0.6182654500007629,2.4828312397003174
42,19578,19576,-0.024454664438962936,-0.06041789427399635,0.9786502718925476,-7.2524847984313965,-6.300590515136719,-2.03366756439209,1.8487118482589722,3.882598400115967,0.25286999344825745,1.240196704864502,0.48754259943962097,2.4872703552246094
43,19588,19586,-0.03587499260902405,0.011772554367780685,1.0084818601608276,-6.038773536682129,-5.024874210357666,-2.072636127471924,1.8483117818832397,3.882063150405884,0.25429272651672363,1.4159553050994873,0.4391723573207855,2.4823548793792725
44,19598,19596,-0.025439411401748657,0.00041624854202382267,0.9763355255126953,-3.7387614250183105,-5.000524997711182,-1.934402585029602,1.8493151664733887,3.882840871810913,0.2556861340999603,1.4709653854370117,0.4103928506374359,2.4585933685302734
45,19608,19606,-0.01731269061565399,-0.049831099808216095,0.962235689163208,-2.909707546234131,-0.2963300347328186,-1.5529338121414185,1.8513476848602295,3.884923219680786,0.2572304606437683,1.5488524436950684,0.3385038673877716,2.4457476139068604
46,19618,19616,-0.0496382862329483,0.07258034497499466,0.9597070813179016,-1.6375038623809814,0.899620771408081,-1.263736605644226,1.8514405488967896,3.8849785327911377,0.25641292333602905,1.6115529537200928,0.3661021590232849,2.4285621643066406
47,19628,19626,-0.011244374327361584,0.1400822252035141,0.9026890397071838,-2.324331521987915,4.540017604827881,-0.6944822072982788,1.8525687456130981,3.8853585720062256,0.25763651728630066,1.5412753820419312,0.3197473883628845,2.415745496749878
48,19638,19636,0.0236907247453928,0.12784969806671143,0.8998185992240906,-2.460468292236328,6.405655860900879,-0.7028167843818665,1.853467583656311,3.886139392852783,0.2587921917438507,1.4839825630187988,0.2605055272579193,2.4149632453918457
49,19648,19646,-0.004976988770067692,0.12595392763614655,0.9704136848449707,-3.1794700622558594,7.403368949890137,-0.8021958470344543,1.8536098003387451,3.886638879776001,0.25921493768692017,1.396291732788086,0.2040836066007614,2.412083148956299
50,19658,19656,-0.0077000209130346775,0.03844140097498894,0.9804856777191162,-3.0297226905822754,5.393542766571045,-1.3080745935440063,1.8554506301879883,3.887887477874756,0.26017317175865173,1.3757455348968506,0.13849371671676636,2.416656017303467
51,19668,19666,0.008942206390202045,-0.024631142616271973,0.957328200340271,-3.4343411922454834,3.9158201217651367,-1.0181596279144287,1.8556104898452759,3.88802433013916,0.261112779378891,1.3009486198425293,0.07444331794977188,2.4096016883850098
52,19678,19676,-0.060698993504047394,-0.00942380353808403,0.9866011142730713,-3.7723476886749268,3.4511635303497314,-1.019160270690918,1.8548789024353027,3.8894083499908447,0.2647460997104645,1.3561744689941406,0.02116752788424492,2.410971164703369
53,19688,19686,0.00043121070484630764,-0.02265062741935253,0.9652456641197205,-2.1548540592193604,2.424511671066284,-1.8823294639587402,1.8550984859466553,3.8891820907592773,0.2657987177371979,1.3103033304214478,-0.04154001176357269,2.4034862518310547
54,19698,19696,-0.031366199254989624,0.021629085764288902,0.9867427349090576,-1.2611998319625854,2.5635836124420166,-0.9672423601150513,1.8551278114318848,3.889512777328491,0.2668881118297577,1.2909873723983765,-0.060663968324661255,2.3877172470092773
55,19708,19706,-0.010501430369913578,0.025712216272950172,0.9772942662239075,2.4549286365509033,5.080059051513672,-1.2749016284942627,1.8556110858917236,3.8887932300567627,0.2672709822654724,1.2621793746948242,0.0037863559555262327,2.361423969268799
56,19718,19716,0.039858557283878326,-0.019791439175605774,0.9526364803314209,2.1121339797973633,5.785890579223633,-0.8617266416549683,1.856191635131836,3.889702796936035,0.26825013756752014,1.1837185621261597,0.03339359909296036,2.346742630004883
57,19728,19726,0.014822765253484249,-0.013566617853939533,0.9666556119918823,1.7950071096420288,6.505483627319336,-0.13369619846343994,1.855659008026123,3.8900306224823,0.26917481422424316,1.1462916135787964,0.07141166180372238,2.3353564739227295
58,19738,19736,0.02929738536477089,-0.07139148563146591,0.909300684928894,1.7877602577209473,7.697307109832764,-0.8681787848472595,1.8546844720840454,3.889312505722046,0.27002623677253723,1.1853291988372803,0.0937819629907608,2.3371827602386475
59,19748,19746,0.008211733773350716,-0.07828788459300995,0.8818647861480713,0.5532022714614868,8.505014419555664,0.14075593650341034,1.8547295331954956,3.890448570251465,0.27294018864631653,1.0371506214141846,0.041308481246232986,2.3444035053253174
60,19758,19756,0.038494568318128586,-0.06157437711954117,0.918215274810791,-1.6144909858703613,8.138083457946777,0.39466264843940735,1.8572267293930054,3.8912789821624756,0.2737826406955719,0.7234764099121094,-0.028362499549984932,2.3522839546203613
61,19768,19766,0.06687436997890472,-0.11807818710803986,0.9979389905929565,-1.065767526626587,5.518298625946045,0.10015946626663208,1.8640363216400146,3.900538682937622,0.27385616302490234,-0.0635458454489708,-0.8571919798851013,2.4838597774505615
62,19778,19776,0.03833083435893059,-0.1438242793083191,1.0534334182739258,5.4638895988464355,-0.6379895806312561,-1.218056082725525,1.8646910190582275,3.9010839462280273,0.2752124071121216,-0.0426393523812294,-0.7649993896484375,2.468263626098633
63,19788,19786,0.04189949110150337,-0.05659080669283867,0.9719374775886536,13.164124488830566,-8.096399307250977,-0.7307982444763184,1.8637921810150146,3.902641534805298,0.27627143263816833,0.0727781131863594,-0.6398885250091553,2.450009346008301
64,19798,19796,-0.020595144480466843,0.06036088988184929,1.0106269121170044,22.43332290649414,-15.595565795898438,0.449980229139328,1.8634358644485474,3.902773141860962,0.2776012718677521,0.29892224073410034,-0.30352091789245605,2.420546054840088
65,19808,19806,0.031909748911857605,-0.048306308686733246,0.9378170967102051,25.54660987854004,-16.743995666503906,0.37856778502464294,1.8619545698165894,3.903620481491089,0.2787531614303589,0.6176092028617859,-0.00572280865162611,2.411139488220215
66,19818,19816,0.00910289864987135,0.13046275079250336,1.0051623582839966,23.297542572021484,-14.788511276245117,0.9949953556060791,1.8628196716308594,3.905416965484619,0.27950426936149597,0.8429384827613831,0.2556869387626648,2.4129111766815186
67,19828,19826,0.01802397333085537,0.0615011565387249,1.0065001249313354,16.850793838500977,-11.039877891540527,0.6132851839065552,1.8625293970108032,3.9040465354919434,0.2802716791629791,1.1103131771087646,0.687727153301239,2.3965659141540527
68,19838,19836,-0.004349422641098499,-0.018500126898288727,1.0075072050094604,9.08658218383789,-4.44684362411499,0.18048153817653656,1.8632856607437134,3.906489372253418,0.281171977519989,1.1410335302352905,0.689185619354248,2.418976306915283
69,19848,19846,-0.05571594834327698,0.05716589465737343,0.9624027609825134,-0.6851499080657959,4.525211334228516,0.10903634130954742,1.863304615020752,3.9073007106781006,0.2861168682575226,1.2121310234069824,0.8561831116676331,2.409871816635132
70,19858,19856,-0.04260852932929993,0.0889587253332138,0.9794244766235352,-6.414881229400635,10.107083320617676,0.05886778607964516,1.8637359142303467,3.9072556495666504,0.28710970282554626,1.1444953680038452,0.867537796497345,2.4086294174194336
71,19868,19866,-0.01089484617114067,0.10983772575855255,1.0312309265136719,-10.086756706237793,13.093541145324707,0.08246274292469025,1.8620160818099976,3.9063713550567627,0.2880549430847168,1.1376678943634033,0.9295758008956909,2.398197650909424
72,19878,19876,-0.005456574726849794,0.04062617942690849,1.0415558815002441,-9.296187400817871,12.595816612243652,-0.2681190073490143,1.8616611957550049,3.9073588848114014,0.2882792055606842,1.009109616279602,0.8560264110565186,2.4021365642547607
73,19888,19886,-0.0324266292154789,0.03241760656237602,0.9987427592277527,-7.587205410003662,11.441944122314453,0.09587154537439346,1.8597606420516968,3.907557249069214,0.28932473063468933,0.9567167162895203,0.7207145094871521,2.4076647758483887
74,19898,19896,-0.00910059455782175,0.00492126727476716,0.9947191476821899,-5.931551456451416,9.704299926757812,0.6398630142211914,1.8588509559631348,3.9102795124053955,0.29031214118003845,0.9094470143318176,0.6153441071510315,2.4173073768615723
75,19908,19906,0.02363337017595768,-0.01874576136469841,0.9831957221031189,-1.5614944696426392,9.051901817321777,-0.2526837885379791,1.8575688600540161,3.911215305328369,0.2886796295642853,0.8765028715133667,0.6202854514122009,2.419999361038208
76,19918,19916,0.006550782825797796,0.07254218310117722,0.9807305335998535,3.3773815631866455,5.487870216369629,0.37227410078048706,1.85746169090271,3.911250591278076,0.2894933819770813,0.7735010385513306,0.6141101717948914,2.4186229705810547
77,19928,19926,0.019036732614040375,-0.007746418938040733,0.9726066589355469,6.0685715675354,3.7821314334869385,0.20462726056575775,1.8545318841934204,3.909839630126953,0.2901492118835449,0.9569556713104248,0.8321511149406433,2.422255277633667
78,19938,19936,0.0362258106470108,0.030819013714790344,0.9509759545326233,5.406339168548584,7.7025146484375,0.04344527795910835,1.854149580001831,3.9094862937927246,0.2909136116504669,0.9026901125907898,0.9224466681480408,2.4206857681274414
79,19948,19946,-0.03518155962228775,-0.00946593564003706,0.9861475229263306,-0.04868321120738983,10.09620189666748,0.18012714385986328,1.8550386428833008,3.9104509353637695,0.29100140929222107,0.7544828057289124,0.9887427091598511,2.4150540828704834
80,19958,19956,0.03776518255472183,-0.11763698607683182,0.9869675636291504,-5.289106845855713,11.581356048583984,-0.26086312532424927,1.8533483743667603,3.910163164138794,0.2916301190853119,0.7508302330970764,0.9630914926528931,2.429995059967041
81,19968,19966,-0.02559257298707962,0.05714862793684006,0.9452276825904846,-10.77136516571045,13.766733169555664,-0.17705203592777252,1.8544023036956787,3.911559820175171,0.29235637187957764,0.5694747567176819,0.8463683724403381,2.4300363063812256
82,19978,19976,-0.009732719510793686,0.1294620931148529,0.9519034624099731,-14.305895805358887,15.587237358093262,-0.22307376563549042,1.851881504058838,3.9119815826416016,0.2930956184864044,0.5741883516311646,0.7915082573890686,2.443260431289673
83,19988,19986,0.025943610817193985,0.07306867092847824,0.9907324910163879,-14.542710304260254,15.167062759399414,-0.41217729449272156,1.852822184562683,3.912334680557251,0.2938658595085144,0.24501149356365204,0.6027251482009888,2.4297356605529785
84,19998,19996,-0.008942019194364548,0.03429775685071945,0.998031735420227,-12.790411949157715,13.771663665771484,-0.4673686921596527,1.852116584777832,3.9148216247558594,0.2944766879081726,0.09532252699136734,0.346356064081192,2.4349734783172607
85,20008,20006,-0.0017865863628685474,-0.010014615952968597,0.9902203679084778,-7.819626808166504,10.752726554870605,0.1096159815788269,1.8515806198120117,3.914437770843506,0.29293519258499146,-0.03315087780356407,0.360248327255249,2.424182891845703
86,20018,20016,0.01463978923857212,-0.011143030598759651,0.9810799956321716,-3.627829074859619,8.054750442504883,0.3525902330875397,1.8506487607955933,3.9147393703460693,0.2933618724346161,-0.03811779245734215,0.297881543636322,2.435826301574707
87,20028,20026,-0.004146776162087917,0.054387036710977554,0.9436620473861694,-0.5437440276145935,6.0364885330200195,-0.2091197967529297,1.8521348237991333,3.9158859252929688,0.29382291436195374,-0.23092436790466309,0.22469419240951538,2.4295170307159424
88,20038,20036,-0.016994770616292953,0.024540318176150322,0.9846837520599365,0.7324628233909607,3.374140739440918,0.05842403322458267,1.849564790725708,3.9133291244506836,0.29423534870147705,-0.07027928531169891,0.4234080910682678,2.4426631927490234
89,20048,20046,-0.011347689665853977,-0.047785449773073196,0.9750250577926636,-0.429662823677063,4.453587055206299,0.09174537658691406,1.8497005701065063,3.9132678508758545,0.29530978202819824,-0.18044179677963257,0.39999595284461975,2.4367363452911377
90,20058,20056,0.012599848210811615,-0.0448649637401104,0.9597687125205994,-4.694234371185303,6.430932998657227,0.08726572245359421,1.8484933376312256,3.913193941116333,0.2957456707954407,-0.24607473611831665,0.3450603783130646,2.4367358684539795
91,20068,20066,-0.008023640140891075,-0.007837907411158085,1.015127420425415,-7.701035022735596,6.470118522644043,0.5291966795921326,1.848992943763733,3.910930871963501,0.29609739780426025,-0.4125790596008301,0.4538058638572693,2.435478448867798
92,20078,20076,-0.00029114331118762493,0.09324830025434494,0.9434524178504944,-12.034863471984863,7.248196125030518,1.0689690113067627,1.8471672534942627,3.9114832878112793,0.29824578762054443,-0.3523571789264679,0.26297056674957275,2.447265863418579
93,20088,20086,-0.006094956770539284,0.03693404048681259,1.0105680227279663,-13.926889419555664,7.301519393920898,1.8500624895095825,1.8461405038833618,3.910623550415039,0.2986486852169037,-0.39260146021842957,0.1658869832754135,2.462376117706299
94,20098,20096,0.007275092881172895,-0.0004544423136394471,1.0096839666366577,-13.756845474243164,4.98029088973999,1.3651856184005737,1.8453412055969238,3.910001754760742,0.29903799295425415,-0.41918593645095825,0.03855012357234955,2.481074333190918
95,20108,20106,0.01005031168460846,-0.011130064725875854,1.0136021375656128,-10.911311149597168,3.6311774253845215,0.9523631930351257,1.8465126752853394,3.909329414367676,0.29702889919281006,-0.5684816241264343,-0.07062410563230515,2.490558385848999
96,20118,20116,0.02422724850475788,-0.01415741816163063,0.9936522841453552,-7.641871929168701,1.9981189966201782,0.9786292314529419,1.8458795547485352,3.9104971885681152,0.2973439395427704,-0.6153716444969177,-0.2980597913265228,2.491304874420166
97,20128,20126,-0.01618308015167713,0.02661268226802349,1.0064592361450195,-4.78002405166626,2.4794020652770996,2.0374324321746826,1.8458729982376099,3.9085769653320312,0.2976471185684204,-0.6297587156295776,-0.23580820858478546,2.516664505004883
98,20138,20136,0.06802818924188614,-0.10280954092741013,0.9630383849143982,-1.7293578386306763,2.6364760398864746,1.6156179904937744,1.8454855680465698,3.908581018447876,0.2961728572845459,-0.6583888530731201,-0.2830754518508911,2.533799171447754
99,20148,20146,0.01666916161775589,0.06629548966884613,1.0250847339630127,0.147474467754364,1.8311407566070557,2.014723062515259,1.845581293106079,3.907886028289795,0.29633623361587524,-0.6997163891792297,-0.28590768575668335,2.550581216812134
100,20158,20156,0.033989571034908295,-0.038719307631254196,0.9235790967941284,0.25105851888656616,2.2251625061035156,1.1469247341156006,1.8449256420135498,3.9065306186676025,0.29647722840309143,-0.7161200642585754,-0.25918179750442505,2.57220458984375
101,20168,20166,-0.002206350676715374,-0.057973094284534454,0.8971515893936157,-1.91243314743042,2.013662576675415,1.3397936820983887,1.8448835611343384,3.9071061611175537,0.29663988947868347,-0.8111209869384766,-0.30929067730903625,2.577460765838623
102,20178,20176,-0.002493977313861251,-0.07060588896274567,0.9395156502723694,-5.124077320098877,3.7645201683044434,1.8364064693450928,1.8444029092788696,3.906909942626953,0.2967933118343353,-0.8296489715576172,-0.39563530683517456,2.582895278930664
103,20188,20186,0.023538334295153618,-0.03569960594177246,1.0015926361083984,-7.535346508026123,8.403122901916504,1.77462637424469,1.8451142311096191,3.90614914894104,0.2967744469642639,-0.9590182900428772,-0.455967515707016,2.601062297821045
104,20198,20196,0.013413455337285995,-0.10167408734560013,1.0607422590255737,-6.749629497528076,13.619023323059082,1.154808759689331,1.843491792678833,3.9046294689178467,0.29675865173339844,-0.8973889350891113,-0.47037824988365173,2.6225008964538574
105,20208,20206,0.00496593676507473,-0.07405205816030502,1.0328009128570557,-6.164033889770508,19.494495391845703,-0.2030467540025711,1.8441165685653687,3.9050283432006836,0.2993375360965729,-1.0959314107894897,-0.6252176761627197,2.6199755668640137
106,20218,20216,0.007541696075350046,-0.021946411579847336,0.9174186587333679,-6.809462070465088,22.673641204833984,-0.5588281154632568,1.8433088064193726,3.9038126468658447,0.29953256249427795,-1.2559231519699097,-0.6114444136619568,2.627093553543091
107,20228,20226,0.02840898185968399,-0.04470605403184891,1.0008172988891602,-4.708431720733643,22.26319694519043,-0.5073176026344299,1.8448278903961182,3.9035353660583496,0.29971179366111755,-1.5906217098236084,-0.6896957755088806,2.626420736312866
108,20238,20236,-0.005313918925821781,0.019118275493383408,1.048473834991455,-2.1133713722229004,14.755407333374023,-0.47414201498031616,1.844889760017395,3.903784990310669,0.303070604801178,-1.8162506818771362,-0.7226328253746033,2.620906114578247
109,20248,20246,0.05715653672814369,-0.1686142534017563,1.009019136428833,0.37345144152641296,9.09919548034668,-0.7839249968528748,1.8437297344207764,3.9040334224700928,0.30352070927619934,-1.8326785564422607,-0.7924079298973083,2.5952365398406982
110,20258,20256,-0.007031566929072142,-0.0665803998708725,1.0292712450027466,0.2813594937324524,5.216165065765381,-0.9289665222167969,1.843644142150879,3.904179334640503,0.30402296781539917,-1.8695101737976074,-0.8111684918403625,2.575284481048584
111,20268,20266,-0.010546984151005745,-0.021049166098237038,0.9891487956047058,0.9532825946807861,1.3819246292114258,-1.0665900707244873,1.8450928926467896,3.9050188064575195,0.30437272787094116,-2.019491195678711,-0.8338371515274048,2.5673961639404297
112,20278,20276,0.001056196866557002,0.017311707139015198,0.996845006942749,-0.12141672521829605,0.35249096155166626,-1.0729749202728271,1.8445749282836914,3.9033379554748535,0.3050006330013275,-1.9457834959030151,-0.7031250596046448,2.5789830684661865
113,20288,20286,0.01383150089532137,-0.0384468175470829,0.9919159412384033,-1.2670799493789673,0.7307475209236145,-1.3293181657791138,1.8447825908660889,3.9034340381622314,0.305408239364624,-2.004936933517456,-0.7499774098396301,2.5546798706054688
114,20298,20296,0.001042880117893219,0.07003083825111389,0.993990421295166,-1.3173364400863647,1.2996714115142822,-1.5592241287231445,1.8445394039154053,3.9036388397216797,0.3057219982147217,-2.1115071773529053,-0.797063946723938,2.5426697731018066
115,20308,20306,0.008623825386166573,0.06327827274799347,0.988746166229248,-1.1150115728378296,2.4294917583465576,-1.5790319442749023,1.844588279724121,3.902928113937378,0.3029470443725586,-2.1528713703155518,-0.8349918723106384,2.5210511684417725
116,20318,20316,-0.025156473740935326,-0.0003456379927229136,0.991752028465271,0.42328348755836487,2.0920932292938232,-1.856977939605713,1.8453729152679443,3.9032673835754395,0.3031332492828369,-2.1858670711517334,-0.8662498593330383,2.498171806335449
117,20328,20326,-0.007044001016765833,0.021193603053689003,1.0442878007888794,0.1696193516254425,2.6454102993011475,-1.5273914337158203,1.8467144966125488,3.9032862186431885,0.30334973335266113,-2.225908041000366,-0.8847271800041199,2.475649118423462
118,20338,20336,-0.048367902636528015,0.06173459067940712,0.9914273619651794,3.5560576915740967,0.3789420425891876,-2.201931953430176,1.8468738794326782,3.9026525020599365,0.30230891704559326,-2.2459921836853027,-0.8065589666366577,2.482126235961914
119,20348,20346,-0.04787054285407066,0.1007271558046341,0.9794309139251709,2.8828182220458984,-0.14173942804336548,-1.6280055046081543,1.8468854427337646,3.9024462699890137,0.30244794487953186,-2.231588125228882,-0.7724812030792236,2.4637043476104736
120,20358,20356,0.017535651102662086,-0.022787749767303467,0.9900470972061157,4.982460021972656,-2.953178882598877,-2.210683822631836,1.8479382991790771,3.902470588684082,0.3025128245353699,-2.2817437648773193,-0.7390784621238708,2.4526331424713135
121,20368,20366,0.00015191627608146518,-0.02374565415084362,0.9978883862495422,4.970698833465576,-3.820650339126587,-1.2717833518981934,1.8483017683029175,3.9030673503875732,0.3026520013809204,-2.199434518814087,-0.6662997603416443,2.433701515197754
122,20378,20376,0.028063291683793068,-0.05850020423531532,0.9693384170532227,2.2212307453155518,-3.2568488121032715,-1.5510880947113037,1.8489879369735718,3.902712345123291,0.30284392833709717,-2.134582996368408,-0.611763596534729,2.4192802906036377
123,20388,20386,0.014264357276260853,-0.02863963320851326,1.0003741979599,2.1419031620025635,-4.8004255294799805,-1.526368498802185,1.8515042066574097,3.9043145179748535,0.30289003252983093,-2.216097116470337,-0.5948652625083923,2.4153895378112793
124,20398,20396,0.030873306095600128,-0.062111131846904755,0.9940495491027832,-0.35750123858451843,-3.9796624183654785,-1.6533422470092773,1.8514448404312134,3.903719663619995,0.3030602037906647,-2.0966458320617676,-0.5865252614021301,2.390228271484375
125,20408,20406,-0.0012309972662478685,-0.030607178807258606,1.003382682800293,-0.8763630986213684,-5.371267795562744,-1.765460729598999,1.852034330368042,3.903907299041748,0.3066168427467346,-2.0631697177886963,-0.6115411520004272,2.3695266246795654
126,20418,20416,0.018726496025919914,-0.05378256365656853,0.9845621585845947,-0.11067162454128265,-5.584293842315674,-2.1159050464630127,1.8532510995864868,3.904146671295166,0.3068404197692871,-2.0879132747650146,-0.6368127465248108,2.35304594039917
127,20428,20426,-0.008018424734473228,0.036522090435028076,1.032097339630127,0.06535447388887405,-6.089214324951172,-2.251957654953003,1.854310393333435,3.9041380882263184,0.30715247988700867,-2.02807354927063,-0.6495393514633179,2.327805757522583
128,20438,20436,0.040283188223838806,-0.0019041654886677861,0.917809247970581,2.2343637943267822,-6.534518241882324,-2.1011648178100586,1.8552186489105225,3.9039385318756104,0.30691131949424744,-2.0593037605285645,-0.6453472375869751,2.3113250732421875
129,20448,20446,-0.0005396990454755723,-0.0010220190742984414,0.978571355342865,2.8316938877105713,-8.118873596191406,-1.8415905237197876,1.857175588607788,3.9037911891937256,0.3071170449256897,-2.034301519393921,-0.6142845153808594,2.2995877265930176
130,20458,20456,-0.05004815384745598,0.057032227516174316,1.046643853187561,3.700855016708374,-10.716355323791504,-1.622945785522461,1.8558295965194702,3.9032604694366455,0.30748701095581055,-1.7801593542099,-0.5613203644752502,2.272707223892212
131,20468,20466,-0.002912576077505946,-0.03613656014204025,1.0020456314086914,3.172025680541992,-12.108914375305176,-1.3653223514556885,1.857499122619629,3.9029934406280518,0.30881211161613464,-1.68063223361969,-0.49858173727989197,2.2669425010681152
132,20478,20476,-0.023347727954387665,-0.08155795931816101,1.0699602365493774,3.302436590194702,-10.67765998840332,-1.4839603900909424,1.8569549322128296,3.9021031856536865,0.3092133104801178,-1.4125916957855225,-0.4477703273296356,2.2457187175750732
133,20488,20486,0.025897955521941185,-0.12554217875003815,0.9838399887084961,3.53520131111145,-12.1126127243042,-1.3305704593658447,1.860509991645813,3.903630256652832,0.3095109164714813,-1.5655471086502075,-0.4766143560409546,2.235884189605713
134,20498,20496,-0.031066030263900757,-0.06680267304182053,1.073801875114441,1.231184959411621,-6.659176826477051,-1.194261908531189,1.8611963987350464,3.9033875465393066,0.3099760115146637,-1.3995455503463745,-0.42982804775238037,2.2222461700439453
135,20508,20506,0.08395456522703171,0.03163609653711319,0.9420453906059265,0.7310395240783691,-3.0363731384277344,-1.3514330387115479,1.8641421794891357,3.903538942337036,0.3123480975627899,-1.5653361082077026,-0.40775054693222046,2.230240821838379
136,20518,20516,0.009798014536499977,0.025888318195939064,0.9930576682090759,-0.27349868416786194,-7.318179130554199,-1.6365710496902466,1.863305926322937,3.9030086994171143,0.313061386346817,-1.369495153427124,-0.40129321813583374,2.205674171447754
137,20528,20526,-0.013900614343583584,-0.029360996559262276,0.9804775714874268,-1.2166017293930054,-9.85412311553955,-1.0792187452316284,1.8656007051467896,3.9038522243499756,0.31350722908973694,-1.3692431449890137,-0.48536980152130127,2.1775176525115967
138,20538,20536,-0.014110284857451916,-0.10901769995689392,1.004576563835144,0.37768951058387756,-12.380915641784668,-1.3098704814910889,1.8655929565429688,3.903991937637329,0.31453943252563477,-1.1773688793182373,-0.5027740597724915,2.1571600437164307
139,20548,20546,0.004435098264366388,-0.02695598267018795,0.9907984137535095,2.640608072280884,-14.031121253967285,-1.37864351272583,1.8652453422546387,3.903836488723755,0.31520363688468933,-0.8550999164581299,-0.4735661745071411,2.136484146118164
140,20558,20556,-0.019417835399508476,-0.13719169795513153,1.0049114227294922,4.44719123840332,-12.929098129272461,-1.154487133026123,1.869223952293396,3.9039273262023926,0.3156050443649292,-1.012814998626709,-0.4143291115760803,2.1526880264282227
141,20568,20566,0.03979086875915527,0.029362699016928673,0.9531834721565247,7.40647029876709,-11.13257122039795,-1.2132487297058105,1.8698136806488037,3.9033758640289307,0.31665462255477905,-0.7831438183784485,-0.3204708397388458,2.14288067817688
142,20578,20576,0.04171837866306305,0.11395522952079773,0.9990231394767761,7.129839897155762,-9.497532844543457,-0.8773759603500366,1.8716775178909302,3.904235363006592,0.31712719798088074,-0.7613958120346069,-0.34619832038879395,2.117852210998535
143,20588,20586,0.024034254252910614,0.06644564867019653,1.0181550979614258,5.456249237060547,-7.789841651916504,-1.3509026765823364,1.871862769126892,3.903479814529419,0.31767797470092773,-0.6106986403465271,-0.22915387153625488,2.1123290061950684
144,20598,20596,0.018135927617549896,-0.014905741438269615,0.9687451720237732,4.784816741943359,-6.216101169586182,-1.3421494960784912,1.8726017475128174,3.903092384338379,0.3182312250137329,-0.45703569054603577,-0.12859277427196503,2.1033642292022705
145,20608,20606,-0.0073709855787456036,-0.019294921308755875,0.979116678237915,3.0863242149353027,-4.66447114944458,-1.0067589282989502,1.874389410018921,3.9045212268829346,0.3167772591114044,-0.49345284700393677,-0.2052277773618698,2.0789620876312256
146,20618,20616,-0.014100481756031513,-0.01874595321714878,0.9675424695014954,1.9698145389556885,-2.7699966430664062,-0.8403031229972839,1.8745036125183105,3.904273748397827,0.31722480058670044,-0.3180186450481415,-0.14705240726470947,2.0675222873687744
147,20628,20626,-0.003172170137986541,-0.012851919047534466,0.9326188564300537,1.8627383708953857,-1.590050220489502,-0.948361337184906,1.8768680095672607,3.9040138721466064,0.3175182044506073,-0.4203526973724365,-0.10160841047763824,2.066333293914795
148,20638,20636,-0.002881404710933566,0.0032845691312104464,0.9750590324401855,2.265382766723633,-1.226794719696045,-1.2600892782211304,1.8795663118362427,3.905937433242798,0.31577590107917786,-0.5187830924987793,-0.13584116101264954,2.054870128631592
149,20648,20646,-0.005160356871783733,-0.020105402916669846,0.9668612480163574,2.712444543838501,-3.0676307678222656,-1.7603952884674072,1.8805007934570312,3.907076597213745,0.3158554434776306,-0.5264445543289185,-0.0862395390868187,2.0428032875061035
150,20658,20656,-0.020422890782356262,-0.00461553642526269,0.9968045949935913,2.461758613586426,-5.2693562507629395,-1.598298192024231,1.8816781044006348,3.907512664794922,0.31600746512413025,-0.42007961869239807,-0.024420425295829773,2.025819778442383
151,20668,20666,0.014343230985105038,-0.03984716907143593,0.9637645483016968,2.1532130241394043,-6.952913761138916,-1.4101248979568481,1.8832426071166992,3.9094483852386475,0.31676071882247925,-0.37349244952201843,-0.053112030029296875,2.0047175884246826
152,20678,20676,-0.0036603137850761414,-0.013716991990804672,0.9660435318946838,2.2308406829833984,-8.5352783203125,-1.7582019567489624,1.8840636014938354,3.9090237617492676,0.31692907214164734,-0.22989889979362488,0.003989197313785553,1.9864007234573364
153,20688,20686,-0.020323820412158966,-0.013851280324161053,1.0158710479736328,3.374297857284546,-11.325608253479004,-1.5398101806640625,1.8836798667907715,3.910463809967041,0.3171047866344452,0.030450565740466118,0.05366360768675804,1.968199372291565
154,20698,20696,0.027090149000287056,-0.035858504474163055,0.9483128190040588,1.69874107837677,-6.218588829040527,-2.5628204345703125,1.888318657875061,3.9109482765197754,0.31769663095474243,-0.2063712179660797,0.10653963685035706,1.9488528966903687
155,20708,20706,0.01442165020853281,-0.009130324237048626,0.9921393990516663,1.9109925031661987,-4.72086238861084,-2.275768995285034,1.8875340223312378,3.9114787578582764,0.3179205060005188,-0.004166916944086552,0.06067116558551788,1.9248279333114624
156,20718,20716,0.009737211279571056,-0.012572997249662876,0.9877418875694275,1.1712714433670044,-3.3300371170043945,-2.0774245262145996,1.8868471384048462,3.912135601043701,0.31811854243278503,0.17441542446613312,0.10156600177288055,1.9057462215423584
157,20728,20726,-0.014538361690938473,0.012779983691871166,1.019651174545288,1.4762202501296997,-0.6924768686294556,-1.6577608585357666,1.8894996643066406,3.9115982055664062,0.3181203603744507,0.013121905736625195,0.1337542086839676,1.883726954460144
158,20738,20736,0.020262232050299644,-0.035712096840143204,0.9714615345001221,1.4916774034500122,0.37231525778770447,-1.8849533796310425,1.890376091003418,3.9127817153930664,0.3166775107383728,-0.016465455293655396,0.16807986795902252,1.8644592761993408
159,20748,20746,-0.016344349831342697,-0.012444106861948967,1.0108363628387451,-0.18707962334156036,0.9039455652236938,-2.377891778945923,1.8906197547912598,3.914748191833496,0.3167516887187958,0.09548817574977875,0.19574810564517975,1.850319504737854
160,20758,20756,-0.0018579155439510942,-0.02516799420118332,1.006852388381958,1.5057291984558105,-0.9944319725036621,-2.91833758354187,1.8920025825500488,3.9161782264709473,0.3166927397251129,0.052260108292102814,0.051390837877988815,1.8330751657485962
161,20768,20766,-0.02472059614956379,0.0045469519682228565,1.0517427921295166,1.558218002319336,-3.0470051765441895,-2.5821399688720703,1.8933607339859009,3.9152235984802246,0.3164801299571991,0.1170850470662117,0.17427562177181244,1.7982664108276367
162,20778,20776,0.010814988985657692,0.021690011024475098,1.0645428895950317,1.413074016571045,-0.664554238319397,-2.7868165969848633,1.8937339782714844,3.915656328201294,0.3165764808654785,0.23262059688568115,0.1989046335220337,1.7769759893417358
163,20788,20786,0.01437465101480484,-0.03334471210837364,1.0260862112045288,0.7519335746765137,0.3258483409881592,-3.3353161811828613,1.8974623680114746,3.9176909923553467,0.31651291251182556,0.0405486524105072,0.22776509821414948,1.7450419664382935
164,20798,20796,0.013461364433169365,-0.092532679438591,0.9862115383148193,1.5659571886062622,-1.9285554885864258,-2.9743645191192627,1.8984538316726685,3.9194483757019043,0.31607478857040405,0.08062461763620377,0.18317875266075134,1.7189691066741943
165,20808,20806,-0.07043533772230148,0.06900520622730255,1.0211942195892334,1.3459810018539429,-2.5642621517181396,-2.6448466777801514,1.8985974788665771,3.9190518856048584,0.31620368361473083,0.1864507645368576,0.22657142579555511,1.6883561611175537
166,20818,20816,-0.05437355861067772,0.1948455572128296,0.9682126045227051,2.4256350994110107,-4.720550537109375,-2.8240764141082764,1.8983118534088135,3.9203429222106934,0.3163602352142334,0.3403968811035156,0.2609049081802368,1.6719197034835815
167,20828,20826,-0.03331034258008003,0.2371012270450592,0.9874840974807739,-1.141232967376709,-0.7943987250328064,-2.0899500846862793,1.8990390300750732,3.92092227935791,0.31650957465171814,0.4736577570438385,0.2876402735710144,1.6509956121444702
168,20838,20836,0.00881959218531847,0.10712900012731552,0.9908992052078247,-2.140467405319214,0.19359122216701508,-2.0794529914855957,1.9026678800582886,3.9233179092407227,0.3159332573413849,0.23758293688297272,0.25921547412872314,1.6282014846801758
169,20848,20846,0.0089556984603405,-0.12124411016702652,0.9917095899581909,0.09743218868970871,1.2379930019378662,-1.8824695348739624,1.9023762941360474,3.924715042114258,0.31601014733314514,0.33423545956611633,0.2373519092798233,1.6230965852737427
170,20858,20856,-0.05728331580758095,-0.11367509514093399,1.0715631246566772,-1.4709219932556152,2.9692649841308594,-2.358320713043213,1.902537226676941,3.9247453212738037,0.31607475876808167,0.3361968994140625,0.2298119217157364,1.6066240072250366
171,20868,20866,0.05347542092204094,-0.02909344993531704,0.9818233847618103,-0.7747479677200317,6.036182880401611,-2.723902702331543,1.9035091400146484,3.9249517917633057,0.319277286529541,0.2839009463787079,0.21478331089019775,1.5804318189620972
172,20878,20876,0.018422596156597137,-0.007702170871198177,0.9719623923301697,-0.44658899307250977,2.224501132965088,-2.6115167140960693,1.904239535331726,3.926159381866455,0.3195241093635559,0.24959558248519897,0.13570041954517365,1.5682071447372437
173,20888,20886,0.008671882562339306,-0.0102660171687603,0.971282422542572,0.5029366612434387,1.8284560441970825,-2.4465503692626953,1.9053832292556763,3.926497220993042,0.31975096464157104,0.23068366944789886,0.06250054389238358,1.5551553964614868
174,20898,20896,0.017870955169200897,-0.028405895456671715,0.9862961173057556,1.1880576610565186,1.0365052223205566,-2.5985703468322754,1.905750036239624,3.9264700412750244,0.31906449794769287,0.2849104702472687,0.08611147850751877,1.5303425788879395
175,20908,20906,0.04933776333928108,-0.0792270079255104,1.010087251663208,2.4417784214019775,0.6180662512779236,-1.7966022491455078,1.9073745012283325,3.9262986183166504,0.3191528916358948,0.1993544101715088,0.13759849965572357,1.5006446838378906
176,20918,20916,0.004805155098438263,-0.02055772952735424,0.9864454865455627,3.492577314376831,0.29704785346984863,-1.5854744911193848,1.9075676202774048,3.9265682697296143,0.319364994764328,0.2764621376991272,0.1965026557445526,1.4821629524230957
177,20928,20926,0.012379305437207222,-0.10849636793136597,0.9599857330322266,4.068626880645752,-0.9447086453437805,-2.6946732997894287,1.9090688228607178,3.9262807369232178,0.31942039728164673,0.1945502609014511,0.26826074719429016,1.451476812362671
178,20938,20936,0.006074646953493357,0.040193550288677216,1.0158140659332275,2.8475916385650635,0.8612289428710938,-2.152437686920166,1.9101332426071167,3.9269864559173584,0.3186166286468506,0.20714826881885529,0.33215785026550293,1.4310884475708008
179,20948,20946,0.02644885703921318,-0.012796446681022644,0.973219633102417,0.3183678090572357,1.9197019338607788,-2.3699023723602295,1.9112833738327026,3.9264049530029297,0.31863197684288025,0.18391720950603485,0.36543354392051697,1.405400276184082
180,20958,20956,0.04817082732915878,-0.048015572130680084,0.9796764254570007,-1.542862057685852,2.8676578998565674,-2.0995800495147705,1.9125319719314575,3.9265120029449463,0.3186042010784149,0.1482190191745758,0.3568792939186096,1.3834115266799927
181,20968,20966,0.07490357756614685,-0.10106035321950912,0.9956372976303101,-2.854551315307617,2.3591513633728027,-2.7344260215759277,1.9131901264190674,3.926682233810425,0.32094934582710266,0.17972810566425323,0.3183891475200653,1.3691349029541016
182,20978,20976,0.005511806812137365,-0.07556990534067154,1.026376724243164,-6.205811977386475,2.7499680519104004,-1.9204349517822266,1.9141277074813843,3.9272899627685547,0.32106369733810425,0.13762743771076202,0.2501586973667145,1.3435132503509521
183,20988,20986,0.012049472890794277,-0.14178034663200378,1.0518462657928467,-5.639440536499023,2.951995849609375,-3.0479166507720947,1.914388656616211,3.927746295928955,0.3212578594684601,0.15975330770015717,0.14990946650505066,1.328544020652771
184,20998,20996,0.03751404583454132,-0.06216494366526604,0.9736348986625671,-3.0627999305725098,3.716562032699585,-2.65004301071167,1.9151654243469238,3.928037405014038,0.3206677734851837,0.17455708980560303,0.08665478229522705,1.3032925128936768
185,21008,21006,-0.02510540932416916,0.06931599229574203,0.9940048456192017,-0.3255837559700012,3.130171775817871,-2.933980703353882,1.9188679456710815,3.927767753601074,0.3206869959831238,-0.12191557139158249,0.1328977793455124,1.2488170862197876
186,21018,21016,-0.005587493535131216,0.09388621896505356,0.9449797868728638,2.7269885540008545,3.785923719406128,-2.75058913230896,1.9199280738830566,3.927713394165039,0.320865273475647,-0.12619046866893768,0.14032196998596191,1.219438076019287
187,21028,21026,0.023841604590415955,0.06257046014070511,0.9347061514854431,3.6438984870910645,1.4398906230926514,-2.7239291667938232,1.9201658964157104,3.9276106357574463,0.32312363386154175,-0.11422301083803177,0.1920812875032425,1.1884009838104248
188,21038,21036,-0.0023502418771386147,0.021276546642184258,1.002915382385254,3.5377471446990967,0.12761232256889343,-2.4805142879486084,1.9211393594741821,3.9270479679107666,0.3232828974723816,-0.10322970896959305,0.2601463496685028,1.160936951637268
189,21048,21046,-0.0008540996350347996,-0.0022324975579977036,1.0352082252502441,3.1365437507629395,-1.2659807205200195,-2.7856991291046143,1.9212862253189087,3.926414966583252,0.32351526618003845,-0.013787481002509594,0.31378495693206787,1.1366826295852661
190,21058,21056,-0.03905060887336731,-0.009795921854674816,1.0659774541854858,0.6343888640403748,-2.2968902587890625,-2.15364670753479,1.9217414855957031,3.9262301921844482,0.323706716299057,0.030490603297948837,0.3426540791988373,1.1119310855865479
191,21068,21066,0.0012096455320715904,-0.025179509073495865,0.9713308215141296,-1.8800112009048462,-1.3538849353790283,-2.291860580444336,1.9221389293670654,3.9261856079101562,0.32332131266593933,0.0651618242263794,0.32631856203079224,1.0902721881866455
192,21078,21076,-0.003911891952157021,-0.04778815060853958,0.9700585603713989,-4.004675388336182,-0.13619747757911682,-2.1207363605499268,1.9228217601776123,3.92622709274292,0.3235182762145996,0.07529521733522415,0.271781325340271,1.0700286626815796
193,21088,21086,-0.07280373573303223,0.09441924840211868,0.9978707432746887,-5.060497283935547,1.699427843093872,-1.7234117984771729,1.9234651327133179,3.92653751373291,0.32370930910110474,0.08894453942775726,0.19503676891326904,1.0528597831726074
194,21098,21096,-0.03398773819208145,0.15129612386226654,0.958658754825592,-5.442463397979736,3.651611804962158,-1.5599766969680786,1.9248642921447754,3.9257700443267822,0.32398802042007446,0.049945708364248276,0.17953750491142273,1.0305629968643188
195,21108,21106,0.019879288971424103,0.14001479744911194,0.9274969696998596,-4.1330060958862305,5.540848731994629,-1.6829276084899902,1.9258843660354614,3.9256482124328613,0.3241150677204132,-0.03821548819541931,0.1640261709690094,1.0095967054367065
196,21118,21116,-0.029085630550980568,-0.0441279374063015,1.0217616558074951,-2.3169093132019043,3.939865827560425,-1.840012788772583,1.9264953136444092,3.9259464740753174,0.32426756620407104,-0.05091693624854088,0.0953470766544342,0.998568058013916
197,21128,21126,-0.03158886730670929,-0.09044230729341507,1.0124465227127075,-0.4051753282546997,4.6459059715271,-1.155444860458374,1.9274717569351196,3.926020860671997,0.3242068886756897,-0.16041894257068634,0.05635232478380203,0.9827700257301331
198,21138,21136,-0.0187841709703207,-0.07737253606319427,0.9747518301010132,0.3291475474834442,4.1445183753967285,-1.3955419063568115,1.9281337261199951,3.926293134689331,0.3243159055709839,-0.1704282909631729,0.053698692470788956,0.9714564681053162
199,21148,21146,-0.013281160034239292,-0.023154262453317642,0.9857065677642822,0.7391101717948914,2.455566883087158,-1.3833470344543457,1.9287747144699097,3.9265928268432617,0.3244783580303192,-0.14274245500564575,0.06598953902721405,0.9619841575622559
200,21158,21156,-0.06927121430635452,-0.05309811234474182,1.0041730403900146,0.9215126037597656,0.7540344595909119,-1.1598840951919556,1.931275486946106,3.927060127258301,0.3244655728340149,-0.3068375289440155,0.0816476047039032,0.9389930367469788
201,21168,21166,-0.00834115594625473,-0.016070963814854622,0.9948108792304993,0.11992429196834564,0.29286980628967285,-0.9649358987808228,1.9316117763519287,3.926499366760254,0.3266465663909912,-0.23055364191532135,0.08597611635923386,0.9238057732582092
202,21178,21176,-0.04407881572842598,0.03252864256501198,0.9681493639945984,-0.45148035883903503,-1.0797406435012817,-0.9089154005050659,1.932969331741333,3.9265034198760986,0.3267713487148285,-0.27273479104042053,0.08763261139392853,0.9138632416725159
203,21188,21186,-0.001107680844143033,0.0016390742966905236,0.9806751012802124,-1.368448257446289,-1.0238275527954102,-1.0187485218048096,1.9348671436309814,3.926617383956909,0.3268606960773468,-0.3282393515110016,0.06019102409482002,0.9036194682121277
204,21198,21196,-0.03091093897819519,0.040233857929706573,0.9828008413314819,-2.894740343093872,-2.2249481678009033,-1.0352816581726074,1.9344253540039062,3.9263336658477783,0.32679349184036255,-0.2116246223449707,0.028079122304916382,0.891495406627655
205,21208,21206,-0.04267578199505806,0.07400485128164291,0.9946411848068237,-1.9516550302505493,-1.953792691230774,-0.727335512638092,1.9347268342971802,3.9250869750976562,0.3269095718860626,-0.14970658719539642,0.14192454516887665,0.8815796971321106
206,21218,21216,-0.010512237437069416,-0.002244011964648962,1.0133044719696045,-2.1011500358581543,-0.47415196895599365,-0.585822343826294,1.9354426860809326,3.9249887466430664,0.32689595222473145,-0.18110515177249908,0.09317436814308167,0.870286226272583
207,21228,21226,-0.00553838862106204,0.009199506603181362,1.0126949548721313,-1.9512392282485962,0.5443602800369263,-0.6428502798080444,1.9355504512786865,3.9259724617004395,0.32674360275268555,-0.09856243431568146,0.04078283533453941,0.8771735429763794
208,21238,21236,0.0005365864490158856,-0.028245454654097557,0.980105996131897,-1.4272964000701904,2.9086098670959473,-0.5707557797431946,1.9367971420288086,3.9260642528533936,0.32685336470603943,-0.10292840003967285,0.003235048148781061,0.8690313100814819
209,21248,21246,-0.013513022102415562,-0.0014588030753657222,0.9683523178100586,-0.05954881012439728,2.484851360321045,-0.6590168476104736,1.9378069639205933,3.9261624813079834,0.3270421326160431,-0.07067333906888962,-0.02199043147265911,0.8706895112991333
210,21258,21256,-0.014671776443719864,-0.002765872748568654,0.9722632169723511,-0.05881980061531067,4.474159240722656,-0.5570827722549438,1.9382940530776978,3.926502227783203,0.3270171880722046,-0.1393231600522995,-0.029770221561193466,0.8641074299812317
211,21268,21266,0.009205328300595284,0.015575505793094635,0.9123538732528687,0.17154978215694427,4.035510063171387,-0.9531773924827576,1.9399595260620117,3.9266891479492188,0.3277404308319092,-0.2225031554698944,-0.033993374556303024,0.8556620478630066
212,21278,21276,-0.007000403944402933,-0.0025694435462355614,0.9530335068702698,-1.181761384010315,3.6088855266571045,0.23566408455371857,1.9397443532943726,3.9266343116760254,0.3278500735759735,-0.20532360672950745,-0.041067615151405334,0.8509826064109802
213,21288,21286,-0.009739900939166546,-0.1035962775349617,0.9792212843894958,-0.28665685653686523,2.7502994537353516,-0.8202362656593323,1.938509464263916,3.9267160892486572,0.3277808427810669,-0.18358062207698822,-0.05926685407757759,0.8567674160003662
214,21298,21296,-0.0028270103503018618,-0.09981746971607208,0.988239049911499,-0.09920526295900345,3.1225476264953613,-0.5668305158615112,1.940236210823059,3.92810320854187,0.3217211365699768,-0.3021330237388611,-0.07462211698293686,0.8694380521774292
215,21308,21306,-0.016448434442281723,-0.10322815924882889,1.0218052864074707,0.41232484579086304,2.906236410140991,-0.8093835115432739,1.941978931427002,3.928117036819458,0.32129406929016113,-0.32401925325393677,-0.07291156053543091,0.8637329339981079
216,21318,21316,-0.04721824452280998,-0.0850410908460617,1.0644242763519287,0.8641135692596436,2.745392084121704,-0.35448509454727173,1.9431798458099365,3.9272360801696777,0.32088032364845276,-0.32905080914497375,0.009128342382609844,0.8563515543937683
217,21328,21326,0.016013802960515022,-0.027823997661471367,0.9752008318901062,0.42682597041130066,1.8375009298324585,-0.0356370285153389,1.946136713027954,3.92857027053833,0.3198382258415222,-0.4528154730796814,0.017139524221420288,0.8747484683990479
218,21338,21336,0.009990285150706768,-0.015215926803648472,0.9841580390930176,-0.44915294647216797,0.4328751564025879,0.551427960395813,1.9459491968154907,3.9286508560180664,0.3199378252029419,-0.39337658882141113,0.0044169737957417965,0.8759783506393433
219,21348,21346,0.0015917728887870908,0.04054875671863556,0.9521889686584473,-2.328735828399658,0.026993386447429657,0.8168807625770569,1.9474743604660034,3.9284636974334717,0.3195246160030365,-0.44336870312690735,-0.01682664081454277,0.8819603323936462
220,21358,21356,-0.0037345970049500465,-0.02792114019393921,0.979930579662323,-2.2527027130126953,-1.3155133724212646,0.5793676376342773,1.9484413862228394,3.9284706115722656,0.31914785504341125,-0.43584439158439636,-0.07138144224882126,0.8987500667572021
221,21368,21366,0.003953307401388884,-0.018008893355727196,1.0177297592163086,-2.2545554637908936,-1.6587085723876953,1.0074483156204224,1.9490193128585815,3.9293768405914307,0.31959906220436096,-0.3229875862598419,-0.11739882081747055,0.9060912728309631
222,21378,21376,0.021180113777518272,-0.004230912774801254,1.0050939321517944,-1.4898881912231445,-1.3396515846252441,1.4036296606063843,1.9510400295257568,3.929241895675659,0.31908339262008667,-0.44864168763160706,-0.15657003223896027,0.9168909192085266
223,21388,21386,-0.008313730359077454,0.049458593130111694,1.020694375038147,-0.4329778254032135,-1.9556645154953003,1.7280678749084473,1.9509797096252441,3.92822265625,0.31879618763923645,-0.32051342725753784,-0.09582751244306564,0.925531804561615
224,21398,21396,0.006651431787759066,0.1004905179142952,1.0266456604003906,0.7431780695915222,-0.7072418928146362,1.3792283535003662,1.9510918855667114,3.929006576538086,0.31599724292755127,-0.20134608447551727,-0.09932202845811844,0.9513527750968933
225,21408,21406,0.0037990601267665625,-0.0037993600126355886,1.0155733823776245,1.0435450077056885,0.734839677810669,1.131300687789917,1.9525073766708374,3.929131507873535,0.31548836827278137,-0.20223475992679596,-0.0876525491476059,0.9740561842918396
226,21418,21416,-0.004401061218231916,-0.01816699467599392,1.0190837383270264,1.5850613117218018,2.2297418117523193,1.4284336566925049,1.9536961317062378,3.929818630218506,0.31501489877700806,-0.2135157585144043,-0.07386776059865952,0.9864115118980408
227,21428,21426,0.05104893445968628,0.017106886953115463,1.0481343269348145,0.5406579971313477,3.7684061527252197,1.4238908290863037,1.9554356336593628,3.9296388626098633,0.31144022941589355,-0.35156139731407166,-0.05751476436853409,1.002745509147644
228,21438,21436,0.05493869259953499,-0.02818385884165764,1.0431177616119385,-0.7046486735343933,3.4734368324279785,0.9752172231674194,1.9582997560501099,3.9288651943206787,0.31068819761276245,-0.5626165270805359,0.01986147277057171,1.0181440114974976
229,21448,21446,-0.04547349736094475,0.14137861132621765,1.0322132110595703,-1.168251872062683,1.5796351432800293,0.848655641078949,1.9586842060089111,3.929863929748535,0.31020379066467285,-0.510303258895874,-0.0071404194459319115,1.034806251525879
230,21458,21456,-0.036272235214710236,0.16808253526687622,0.952288806438446,-3.378016710281372,-0.8624303936958313,0.6137929558753967,1.9593055248260498,3.930123805999756,0.30855223536491394,-0.4367906451225281,-0.04962034896016121,1.0451111793518066
231,21468,21466,-0.0567791573703289,0.10416632145643234,1.0520991086959839,-3.6548218727111816,-2.7614433765411377,0.8187507390975952,1.9610732793807983,3.930371046066284,0.3079052269458771,-0.47655367851257324,-0.12495734542608261,1.0531415939331055
232,21478,21476,0.01695394143462181,-0.00016343928291462362,1.041683554649353,-3.2319297790527344,-3.526841640472412,0.6670606732368469,1.9613584280014038,3.930351495742798,0.3072998821735382,-0.3898642659187317,-0.1877497136592865,1.0588462352752686
233,21488,21486,-0.002325785579159856,-0.055660638958215714,1.0885270833969116,-0.23099824786186218,-4.111930847167969,0.7923025488853455,1.961350917816162,3.930891752243042,0.30687686800956726,-0.17150960862636566,-0.22722816467285156,1.0658875703811646
234,21498,21496,-0.025557873770594597,-0.03447951003909111,1.1201248168945312,0.9480881094932556,-2.1521894931793213,0.5855899453163147,1.96470046043396,3.9308993816375732,0.3057710528373718,-0.4369257092475891,-0.23334646224975586,1.0778570175170898
235,21508,21506,0.0220633577555418,-0.004114113748073578,1.0246412754058838,2.15625262260437,0.39374014735221863,0.8071135878562927,1.9651274681091309,3.930354595184326,0.30544111132621765,-0.32447412610054016,-0.21000507473945618,1.070850133895874
236,21518,21516,0.054185934364795685,-0.12408436089754105,0.9941983222961426,2.771103620529175,0.24542032182216644,1.236131191253662,1.9660090208053589,3.9302875995635986,0.3051075041294098,-0.34618815779685974,-0.184443861246109,1.0817415714263916
237,21528,21526,0.014769213274121284,0.02564445324242115,1.027273416519165,2.84493088722229,1.5695511102676392,1.6079556941986084,1.9668492078781128,3.9301068782806396,0.3055124878883362,-0.3184985816478729,-0.13232286274433136,1.0941201448440552
238,21538,21536,-0.004310776013880968,0.03759310021996498,1.0490460395812988,3.315096616744995,-3.6895086765289307,1.1855298280715942,1.9685068130493164,3.9309051036834717,0.3051871657371521,-0.37536683678627014,-0.15523776412010193,1.110122799873352
