,timestamp_start,timestamp_end,acc.x,acc.y,acc.z,gyro.x,gyro.y,gyro.z,stateEstimate.x,stateEstimate.y,stateEstimate.z,stabilizer.pitch,stabilizer.roll,stabilizer.yaw
0,152027,152023,-0.007985224016010761,-0.03426786884665489,1.036279559135437,-0.6570795178413391,-5.5362324714660645,2.936077356338501,1.8661301136016846,3.9943788051605225,0.1635071039199829,-0.6555585265159607,0.31784507632255554,3.3677403926849365
1,152037,152033,0.01689775288105011,0.01117118913680315,1.0722302198410034,-2.1294829845428467,-8.26048755645752,2.294734239578247,1.863729476928711,3.9935050010681152,0.1657547652721405,-0.5330287218093872,0.05918194353580475,3.3459360599517822
2,152047,152043,0.009910640306770802,0.06347200274467468,0.9996100068092346,-3.1201229095458984,-8.321866989135742,2.0305685997009277,1.8652132749557495,3.9944980144500732,0.16585995256900787,-0.47852030396461487,0.3757788836956024,3.4345407485961914
3,152057,152053,0.02613803930580616,0.02099776081740856,0.9820641875267029,-5.432189464569092,-6.3762664794921875,1.6105294227600098,1.8632481098175049,3.993335485458374,0.16779673099517822,-0.34808897972106934,0.2641565501689911,3.4463493824005127
4,152067,152063,-0.004163839854300022,0.013538138009607792,1.0635221004486084,-5.538873672485352,-8.807265281677246,1.9640390872955322,1.864253282546997,3.996669292449951,0.16973000764846802,-0.22183656692504883,0.07185591012239456,3.44584321975708
5,152077,152073,0.007467251271009445,0.03180237114429474,1.0517324209213257,-6.4156060218811035,-4.033977508544922,2.0708823204040527,1.8572618961334229,3.999790668487549,0.1710309386253357,1.0190235376358032,-0.32948964834213257,3.5252480506896973
6,152087,152083,-0.00079064053716138,-0.03795439004898071,1.0594815015792847,-3.8269505500793457,0.9385076761245728,1.8365923166275024,1.8557575941085815,3.9988062381744385,0.17426513135433197,0.9272048473358154,-0.3699844777584076,3.5357589721679688
7,152097,152093,0.02007952518761158,-0.038107823580503464,1.0431874990463257,1.1649168729782104,9.789713859558105,1.9523288011550903,1.8542845249176025,4.000518798828125,0.17795319855213165,0.6027371883392334,-0.2842537462711334,3.543302297592163
8,152107,152103,0.01883751153945923,-0.011936625465750694,1.0413079261779785,6.745826721191406,22.932228088378906,1.2881786823272705,1.8549035787582397,4.000871658325195,0.18089844286441803,0.20825880765914917,-0.19341880083084106,3.547214984893799
9,152117,152113,-0.010054275393486023,-0.034646980464458466,1.0450084209442139,7.615145683288574,24.666988372802734,1.8762832880020142,1.8556967973709106,4.003946781158447,0.1821100115776062,-0.059909574687480927,-0.05219266936182976,3.5661168098449707
10,152127,152123,0.02088797092437744,-0.006744686514139175,1.116927146911621,11.131643295288086,22.006423950195312,1.2940783500671387,1.8554884195327759,3.9986491203308105,0.18454162776470184,-0.6155516505241394,0.26085034012794495,3.5727694034576416
11,152137,152133,0.008786892518401146,0.04216894134879112,0.9898366928100586,8.239551544189453,15.933680534362793,1.194527268409729,1.8565565347671509,4.001121520996094,0.18682654201984406,-0.9866522550582886,0.18272356688976288,3.5678203105926514
12,152147,152143,0.0003588011604733765,0.013340205885469913,1.04315185546875,3.0123960971832275,4.842531204223633,0.5623119473457336,1.8556098937988281,4.002006530761719,0.18762923777103424,-0.981199324131012,0.21379545331001282,3.5822010040283203
13,152157,152153,-0.01943017914891243,-0.056241169571876526,1.060977816581726,0.11819488555192947,-6.111446380615234,0.5442938208580017,1.857973337173462,4.005755424499512,0.18965783715248108,-1.1531902551651,0.25257185101509094,3.5806005001068115
14,152167,152163,-0.00846939254552126,0.005536258220672607,1.060041904449463,-3.75058650970459,-18.006202697753906,0.5649054050445557,1.8611280918121338,4.006864070892334,0.19112995266914368,-1.3920361995697021,0.22626864910125732,3.5610971450805664
15,152177,152173,0.012747966684401035,-0.060069430619478226,1.098872184753418,-3.281012773513794,-25.432079315185547,-0.16749437153339386,1.8630144596099854,4.004897594451904,0.1938779652118683,-1.060835838317871,0.17251448333263397,3.566657543182373
16,152187,152183,0.019041892141103745,-0.09004242718219757,0.9517560005187988,-2.0439536571502686,-29.110824584960938,-0.4414937198162079,1.8621312379837036,4.003217697143555,0.19655762612819672,-0.6435010433197021,0.4162607192993164,3.618082046508789
17,152197,152193,-0.017756395041942596,-0.04098738729953766,1.0140429735183716,-3.2560935020446777,-26.19612693786621,-0.4596831798553467,1.8638899326324463,4.00485897064209,0.19921211898326874,-0.5069180727005005,0.12996594607830048,3.556856155395508
18,152207,152203,0.048631876707077026,-0.14759187400341034,1.0717291831970215,-2.5888400077819824,-23.465444564819336,-0.16266021132469177,1.8640787601470947,4.003245830535889,0.20157258212566376,-0.32330963015556335,0.2989228367805481,3.5811572074890137
19,152217,152213,0.05002942681312561,-0.1333625614643097,1.0154088735580444,-3.2358670234680176,-17.542407989501953,-1.1088248491287231,1.8643178939819336,4.005139350891113,0.2004976123571396,-0.16167207062244415,0.16235114634037018,3.5493414402008057
20,152227,152223,-0.009643103927373886,-0.04166228324174881,1.040221929550171,-2.4380319118499756,-5.612924098968506,-2.3716471195220947,1.8648735284805298,4.004716873168945,0.20283059775829315,-0.04959304258227348,0.17945896089076996,3.5374934673309326
21,152237,152233,-0.015513509511947632,-0.0629621297121048,0.9376646876335144,-3.048356294631958,-3.5719635486602783,-2.762289047241211,1.864745020866394,4.003209114074707,0.20526356995105743,0.10527725517749786,0.2591404318809509,3.5356435775756836
22,152247,152243,0.01060059480369091,-0.06032600626349449,0.9988412857055664,-3.653963327407837,-4.206287860870361,-2.5206236839294434,1.8644838333129883,4.004002094268799,0.2078566551208496,0.22097958624362946,0.09875897318124771,3.502239942550659
23,152257,152253,0.027061887085437775,-0.11812304705381393,1.011352300643921,-3.123572587966919,-2.5469257831573486,-3.067498207092285,1.8637607097625732,4.0028605461120605,0.210215225815773,0.307782918214798,0.1695379763841629,3.4862165451049805
24,152267,152263,0.004495764616876841,-0.035606060177087784,0.9511003494262695,-2.06868052482605,0.6721292734146118,-3.5567777156829834,1.8639373779296875,4.00328254699707,0.21259532868862152,0.3469901382923126,0.0885026827454567,3.450322151184082
25,152277,152273,0.01765388995409012,0.00019593763863667846,0.8892309665679932,-3.179872751235962,0.9845948219299316,-3.380171060562134,1.8652116060256958,4.004030227661133,0.21494199335575104,0.3648822009563446,0.16103319823741913,3.424886703491211
26,152287,152283,0.03155359998345375,-0.06328801065683365,0.9237493276596069,-2.3400208950042725,3.991278886795044,-3.895813465118408,1.8644161224365234,4.005859851837158,0.21733222901821136,0.38950595259666443,-0.1374264657497406,3.379687547683716
27,152297,152293,-0.008006475865840912,0.10473962873220444,0.9668594002723694,-1.5922887325286865,-5.10565710067749,-3.0623083114624023,1.86456298828125,4.0071330070495605,0.21948115527629852,0.43068161606788635,-0.17642974853515625,3.347524642944336
28,152307,152303,-0.04610518366098404,-0.028275467455387115,1.0011279582977295,0.9211859107017517,-1.358078956604004,-2.8711495399475098,1.8634049892425537,4.006083965301514,0.22156137228012085,0.48603302240371704,-0.1794775426387787,3.319645643234253
29,152317,152313,-0.010401912964880466,-0.005764152854681015,0.9890151619911194,2.922922372817993,-1.5251637697219849,-2.799074172973633,1.8628758192062378,4.004425525665283,0.22350095212459564,0.5238122344017029,0.0729864239692688,3.29327130317688
30,152327,152323,0.01977328024804592,0.10867093503475189,0.9522459506988525,3.7182776927948,0.20528355240821838,-2.5388734340667725,1.8617117404937744,4.008359909057617,0.22595417499542236,0.5385045409202576,-0.6252776980400085,3.2732622623443604
31,152337,152333,0.002797131659463048,0.09722470492124557,0.9967647790908813,4.447635650634766,-0.2582867741584778,-2.601691722869873,1.8571351766586304,4.0087785720825195,0.22792640328407288,1.1216001510620117,-0.49768635630607605,3.2672228813171387
32,152347,152343,-0.019403671845793724,-0.03612103685736656,0.9739504456520081,9.491060256958008,2.8296167850494385,-2.2199673652648926,1.8576337099075317,4.010383605957031,0.2297852784395218,0.9633267521858215,-0.32535260915756226,3.2378580570220947
33,152357,152353,-0.03019222803413868,-0.01756765879690647,0.9933280348777771,12.850128173828125,8.447709083557129,-2.190843105316162,1.8559280633926392,4.0050272941589355,0.23240751028060913,0.9764430522918701,0.4828881025314331,3.176654100418091
34,152367,152363,0.00956331193447113,0.0037613126914948225,0.9553398489952087,12.608966827392578,12.498614311218262,-1.7594577074050903,1.8618557453155518,4.006054401397705,0.23555809259414673,0.16371698677539825,0.7362345457077026,3.135283946990967
35,152377,152373,-0.010197348892688751,0.10716209560632706,0.9672681093215942,6.246191024780273,15.535553932189941,-2.3515257835388184,1.862708330154419,4.004848003387451,0.23426373302936554,-0.05722924321889877,0.8420838713645935,3.1151881217956543
36,152387,152383,-0.0079380813986063,0.008845219388604164,0.9703748226165771,-3.943668842315674,10.526464462280273,-3.029310464859009,1.857295274734497,4.0049028396606445,0.23706677556037903,0.4035407304763794,0.7265617847442627,3.1265053749084473
37,152397,152393,-0.05448276177048683,0.10026007145643234,0.918620765209198,-15.216534614562988,2.259101152420044,-4.377831935882568,1.8582524061203003,4.003344535827637,0.23882178962230682,0.25092995166778564,0.7521181702613831,3.0733816623687744
38,152407,152403,-0.01730596274137497,0.1188422292470932,0.9358978271484375,-20.74922752380371,0.040763214230537415,-4.633144855499268,1.855991005897522,4.002956867218018,0.24088403582572937,0.34582439064979553,0.384275883436203,3.0461981296539307
39,152417,152413,0.04157280921936035,0.0671212449669838,0.9041681289672852,-21.38713264465332,-3.370208978652954,-4.79884147644043,1.8557639122009277,4.0110368728637695,0.24259532988071442,0.2581445574760437,-0.8291825652122498,3.04247784614563
40,152427,152423,0.030200647190213203,-0.0036570557858794928,0.9761437177658081,-13.94185733795166,-1.8016400337219238,-4.4942803382873535,1.867408275604248,4.006795406341553,0.2466440349817276,-1.277983546257019,-0.40124496817588806,2.8589324951171875
41,152437,152433,0.028351498767733574,-0.02219117246568203,0.9671460390090942,-3.0104572772979736,-3.575474500656128,-3.324310302734375,1.867466926574707,4.0049543380737305,0.2494109570980072,-1.090226411819458,-0.2472187876701355,2.8298580646514893
42,152447,152443,-0.008260214701294899,-0.03044099733233452,0.9962652325630188,6.934199333190918,-11.380093574523926,-3.0733163356781006,1.868608832359314,4.005620002746582,0.25009027123451233,-0.9891370534896851,-0.24386951327323914,2.800234079360962
43,152457,152453,-0.0014070379547774792,-0.12843181192874908,0.9698746800422668,13.143095016479492,-21.33039665222168,-3.2613730430603027,1.8688169717788696,4.00578498840332,0.2519496977329254,-0.7414467930793762,-0.16277287900447845,2.7700307369232178
44,152467,152463,-0.0029747856315225363,-0.05966774746775627,0.914212703704834,14.492008209228516,-28.510753631591797,-3.1142125129699707,1.8681260347366333,4.004923343658447,0.2543500065803528,-0.20510222017765045,0.05697890371084213,2.7535834312438965
45,152477,152473,0.018425393849611282,-0.009625023230910301,0.918271541595459,9.625222206115723,-32.16993713378906,-3.4162564277648926,1.8670012950897217,4.0040154457092285,0.2554515600204468,0.252769410610199,0.24362829327583313,2.7284746170043945
46,152487,152483,0.011851056478917599,-0.031017305329442024,0.9455400705337524,1.5515881776809692,-27.95723533630371,-3.125863552093506,1.8694102764129639,4.004329681396484,0.2569076716899872,0.39750781655311584,0.32299819588661194,2.6912546157836914
47,152497,152493,-0.026128491386771202,0.013383888639509678,0.987062394618988,-7.183823108673096,-20.709001541137695,-3.338778495788574,1.8679105043411255,4.004146575927734,0.2585602104663849,0.8964133858680725,0.25098198652267456,2.6631112098693848
48,152507,152503,0.005939275026321411,-0.06019255891442299,0.9350109100341797,-14.181279182434082,-11.255419731140137,-3.841749668121338,1.8684076070785522,4.004774570465088,0.26005294919013977,1.0080827474594116,0.04549676179885864,2.6211085319519043
49,152517,152513,0.0010792417451739311,-0.0530729740858078,0.9365008473396301,-16.708585739135742,-1.8239136934280396,-4.124421119689941,1.8697203397750854,4.003719806671143,0.26352450251579285,0.9614282846450806,-0.013733264058828354,2.576986789703369
50,152527,152523,-0.005307231564074755,-0.04477672278881073,0.9551804065704346,-15.735876083374023,5.005986213684082,-3.655787944793701,1.8696705102920532,4.003661155700684,0.2650212347507477,1.013182282447815,-0.24322150647640228,2.5410144329071045
51,152537,152533,0.0009158957400359213,-0.036556921899318695,0.951555073261261,-12.176262855529785,6.8853888511657715,-3.1514267921447754,1.8702538013458252,4.004525184631348,0.2664533257484436,0.9804372191429138,-0.4276539087295532,2.5102174282073975
52,152547,152543,0.011351993307471275,-0.12274067848920822,0.9777548313140869,-5.572169780731201,4.920964241027832,-3.0577657222747803,1.87131929397583,4.0056562423706055,0.26973459124565125,0.9361624121665955,-0.6015528440475464,2.482423782348633
53,152557,152553,0.010516991838812828,-0.14722634851932526,1.0131077766418457,1.9677330255508423,4.6678667068481445,-4.149231433868408,1.8718754053115845,4.006499290466309,0.2711986005306244,0.8973082900047302,-0.6432700753211975,2.446241855621338
54,152567,152563,-0.004462696611881256,-0.0042340559884905815,0.9821575284004211,9.991161346435547,0.18842606246471405,-4.3414530754089355,1.871260643005371,4.00648832321167,0.2726910710334778,0.9776064157485962,-0.5557724833488464,2.402745008468628
55,152577,152573,0.02010602131485939,-0.03590632230043411,0.9211623072624207,13.94469165802002,-3.7968080043792725,-4.6039652824401855,1.8703283071517944,4.006263256072998,0.2730516195297241,1.0453102588653564,-0.36297446489334106,2.3519287109375
56,152587,152583,0.0044494993053376675,-0.028237877413630486,0.9492054581642151,14.813931465148926,-5.078745365142822,-4.110153675079346,1.8701573610305786,4.005260467529297,0.27438539266586304,1.154964804649353,-0.1274343729019165,2.30025315284729
57,152597,152593,0.024131644517183304,0.017284555360674858,0.9054240584373474,10.195061683654785,-5.018921852111816,-4.108546733856201,1.868886947631836,4.004532814025879,0.27568021416664124,1.2698875665664673,0.06687478721141815,2.2529220581054688
58,152607,152603,0.09993167221546173,0.026034539565443993,0.8993093371391296,3.379108190536499,-2.438824415206909,-4.278341770172119,1.8684682846069336,4.004730224609375,0.27417173981666565,1.3539448976516724,0.16434217989444733,2.2074801921844482
59,152617,152613,0.09269510954618454,-0.022974461317062378,0.9443410634994507,-3.649099588394165,-0.1069682240486145,-4.814133167266846,1.8684288263320923,4.003732681274414,0.2751382887363434,1.3818919658660889,0.14172261953353882,2.164701223373413
60,152627,152623,0.0403364896774292,-0.04271204024553299,0.9940758943557739,-10.336226463317871,4.031745910644531,-5.501661777496338,1.8693695068359375,4.005032539367676,0.2761472761631012,1.26943838596344,-0.0781419649720192,2.1319897174835205
61,152637,152633,-0.023862769827246666,-0.009795909747481346,0.9887068271636963,-11.542503356933594,7.606872081756592,-6.013863563537598,1.8690353631973267,4.005758285522461,0.2769783139228821,1.2495548725128174,-0.28057053685188293,2.087433099746704
62,152647,152643,-0.05828731134533882,0.03830515965819359,0.9644611477851868,-9.481135368347168,10.111749649047852,-5.98598575592041,1.867905855178833,4.005306720733643,0.27742910385131836,1.2486979961395264,-0.3172507584095001,2.0161993503570557
63,152657,152653,-0.009280568920075893,0.005440614186227322,0.9771367907524109,-4.374683856964111,11.090250015258789,-5.635707378387451,1.867403507232666,4.006097793579102,0.2781451642513275,1.2085719108581543,-0.4452190101146698,1.9655041694641113
64,152667,152663,0.0333523154258728,-0.03908539563417435,0.9510722160339355,0.3438602089881897,9.881823539733887,-5.788559913635254,1.8676409721374512,4.001273155212402,0.2791219651699066,1.0815049409866333,0.14078009128570557,1.8137009143829346
65,152677,152673,-0.005397692322731018,0.009161621332168579,1.007250189781189,2.6864945888519287,9.470192909240723,-5.182907581329346,1.8670958280563354,4.001420497894287,0.2796271741390228,0.9489935040473938,0.11230073869228363,1.7628103494644165
66,152687,152683,0.005341829266399145,-0.071898452937603,1.0273690223693848,0.5480107069015503,7.545699596405029,-5.346933364868164,1.8661428689956665,4.00195837020874,0.28033408522605896,0.9766803979873657,0.08685760945081711,1.7146496772766113
67,152697,152693,-0.016856258735060692,-0.10405907034873962,1.0749659538269043,-1.7216529846191406,6.5561394691467285,-6.050422191619873,1.8657667636871338,4.0022292137146,0.2811090350151062,0.8657575249671936,0.03211822733283043,1.66274094581604
68,152707,152703,-0.024306295439600945,-0.08680333942174911,1.0298771858215332,-6.198303699493408,10.84693717956543,-6.760099411010742,1.8660099506378174,4.000954627990723,0.2826284170150757,0.6585770845413208,-0.009935002774000168,1.594325304031372
69,152717,152713,0.024254828691482544,-0.04658607393503189,0.9649713635444641,-9.737178802490234,9.650984764099121,-7.023934841156006,1.86538565158844,4.001495838165283,0.283534437417984,0.6149064302444458,-0.18901146948337555,1.5410945415496826
70,152727,152723,-0.0027172695845365524,-0.007765285670757294,0.9810969233512878,-11.825655937194824,7.983176231384277,-6.695816993713379,1.8659368753433228,4.002238750457764,0.28445252776145935,0.4404672682285309,-0.4153200387954712,1.4855506420135498
71,152737,152733,0.04613350331783295,-0.0633915513753891,0.9852245450019836,-10.391743659973145,6.170470237731934,-6.850464344024658,1.8655413389205933,4.001972198486328,0.2853049337863922,0.3835807740688324,-0.5502316355705261,1.4187653064727783
72,152747,152743,0.0743049830198288,-0.12582091987133026,0.9988521933555603,-6.237076282501221,3.5825109481811523,-6.886277675628662,1.862771987915039,4.000498294830322,0.2878172993659973,0.5097359418869019,-0.560431957244873,1.3426169157028198
73,152757,152753,0.0017567649483680725,-0.003150834236294031,1.0068151950836182,-0.8552459478378296,4.089844226837158,-7.014485836029053,1.8619314432144165,4.000792503356934,0.2887346148490906,0.4937784671783447,-0.653364896774292,1.2800904512405396
74,152767,152763,0.030322114005684853,-0.05347952991724014,0.9366771578788757,3.649095296859741,2.224057912826538,-6.3715081214904785,1.8616608381271362,4.001473426818848,0.2896682620048523,0.4839330315589905,-0.6551814675331116,1.2165447473526
75,152777,152773,0.028906989842653275,-0.05290757864713669,0.9465168118476868,6.349056243896484,7.0907111167907715,-6.774554252624512,1.860756516456604,4.001492977142334,0.2892938256263733,0.5282185673713684,-0.5910570025444031,1.1489187479019165
76,152787,152783,0.0008360827923752367,0.05918357893824577,0.9460875391960144,7.908734321594238,8.580354690551758,-6.606393814086914,1.8616278171539307,4.001452445983887,0.29014745354652405,0.3644547462463379,-0.49137043952941895,1.0842639207839966
77,152797,152793,0.0014800283825024962,0.08306749910116196,0.9215847849845886,6.644540786743164,14.20078182220459,-6.667274475097656,1.8613743782043457,4.0008978843688965,0.29092878103256226,0.15970639884471893,-0.38236406445503235,1.0201027393341064
78,152807,152803,0.009093017317354679,0.038431040942668915,0.9425913691520691,3.1909401416778564,15.216747283935547,-5.7547926902771,1.8603814840316772,4.001035690307617,0.291392982006073,0.00872267596423626,-0.39664408564567566,0.9586219191551208
79,152817,152813,-0.03575439751148224,-0.03025212325155735,1.040097713470459,0.7102421522140503,25.921432495117188,-6.944766044616699,1.8601981401443481,4.001101493835449,0.2919726073741913,-0.25118181109428406,-0.3793916702270508,0.8932538032531738
80,152827,152823,-0.011575539596378803,-0.002782862400636077,1.0388989448547363,-1.4934478998184204,26.738998413085938,-6.510315418243408,1.8578236103057861,4.00025749206543,0.2925938069820404,-0.3676329553127289,-0.4054535925388336,0.8179293870925903
81,152837,152833,-0.009100654162466526,-0.04632037878036499,1.0240375995635986,-2.0513312816619873,26.10000228881836,-6.267123222351074,1.8595075607299805,4.00053071975708,0.29445478320121765,-0.8779531121253967,-0.45111700892448425,0.7617568969726562
82,152847,152843,-0.004942309111356735,-0.024610282853245735,0.992824375629425,-1.5056884288787842,19.33984375,-6.625892162322998,1.8591959476470947,4.000110149383545,0.2951667904853821,-1.1578928232192993,-0.4935210943222046,0.6950552463531494
83,152857,152853,-0.06818243116140366,-0.016895882785320282,1.0186136960983276,-0.9427955746650696,16.184871673583984,-5.989659786224365,1.8552900552749634,4.000874042510986,0.29615581035614014,-1.048201322555542,-0.5253074765205383,0.617617130279541
84,152867,152863,-0.009123824536800385,-0.0229936670511961,0.9935894012451172,1.193123698234558,8.210095405578613,-5.614140033721924,1.8544913530349731,4.0015788078308105,0.2969590723514557,-1.1629537343978882,-0.5273520946502686,0.556896448135376
85,152877,152873,-0.02116343565285206,-0.040116991847753525,0.9703571200370789,3.786071538925171,6.2538652420043945,-5.548757553100586,1.8547699451446533,4.001471042633057,0.2966921031475067,-1.3417614698410034,-0.48657917976379395,0.5047375559806824
86,152887,152883,-0.014036105945706367,-0.0010679974220693111,0.9945933222770691,4.936284065246582,4.72768497467041,-4.7959465980529785,1.8536101579666138,4.002074718475342,0.2974195182323456,-1.318368673324585,-0.4145907163619995,0.45196372270584106
87,152897,152893,0.011011316440999508,-0.07502491027116776,1.0257539749145508,6.057826995849609,5.80890417098999,-4.715217113494873,1.853026032447815,4.000538349151611,0.29806429147720337,-1.4436930418014526,-0.3269723057746887,0.40885791182518005
88,152907,152903,0.021002523601055145,-0.032813530415296555,0.9774855971336365,4.402227401733398,7.811856269836426,-5.3603596687316895,1.851738691329956,4.002052307128906,0.29401201009750366,-1.434313178062439,-0.3216663599014282,0.3477841019630432
89,152917,152913,0.009409435093402863,-0.05345643311738968,0.9533863663673401,2.7768218517303467,8.90845775604248,-5.376157283782959,1.8523855209350586,4.002678871154785,0.2944149076938629,-1.6146820783615112,-0.2623232901096344,0.30293789505958557
90,152927,152923,0.0029387606773525476,-0.1280214637517929,0.9883525371551514,1.5734223127365112,9.820629119873047,-5.468067646026611,1.852742314338684,4.00351619720459,0.2947058081626892,-1.7997989654541016,-0.23309510946273804,0.2532061040401459
91,152937,152933,-0.023930709809064865,-0.08520559221506119,0.9871840476989746,-0.544856071472168,9.769243240356445,-5.555914402008057,1.8532257080078125,4.005031108856201,0.2939978241920471,-1.9123677015304565,-0.23467154800891876,0.1993343085050583
92,152947,152943,0.031293608248233795,-0.030575288459658623,0.9632298946380615,-1.0503205060958862,7.512655735015869,-5.359009265899658,1.8524219989776611,4.005406379699707,0.2942875623703003,-1.9948585033416748,-0.26086464524269104,0.14147013425827026
93,152957,152953,0.018427418544888496,-0.011585882864892483,0.9799644351005554,-0.8741500973701477,4.462135314941406,-5.048011779785156,1.852095127105713,4.005465984344482,0.29456350207328796,-2.025919198989868,-0.28201523423194885,0.08548253774642944
94,152967,152963,-0.02027592435479164,-0.027285786345601082,0.9992556571960449,-0.4198395609855652,2.050307035446167,-4.316729545593262,1.8507120609283447,4.005010604858398,0.2948857247829437,-2.006958246231079,-0.2934539318084717,0.03500564768910408
95,152977,152973,0.020628679543733597,0.0077445111237466335,1.0023999214172363,0.9861482977867126,-0.9234840869903564,-3.5706043243408203,1.8505232334136963,4.005014896392822,0.29439815878868103,-2.022667407989502,-0.2867736220359802,-0.00465993070974946
96,152987,152983,0.024003904312849045,0.028363585472106934,1.0141994953155518,3.168391227722168,-0.39198577404022217,-4.1793670654296875,1.8508210182189941,4.005651473999023,0.29459211230278015,-2.0162618160247803,-0.2497289627790451,-0.04095352441072464
97,152997,152993,0.041552621871232986,-0.029949774965643883,0.9863032698631287,4.564479351043701,-0.2812904417514801,-3.5760130882263184,1.8488661050796509,4.00602388381958,0.29488039016723633,-1.9268860816955566,-0.2586248815059662,-0.09683103859424591
98,153007,153003,-0.023845437914133072,-0.013738791458308697,1.0328936576843262,5.027108669281006,1.5941849946975708,-3.6518144607543945,1.8505058288574219,4.008325576782227,0.2956808805465698,-2.077582597732544,-0.2483726441860199,-0.13884297013282776
99,153017,153013,0.0044341799803078175,-0.07341472059488297,0.9990456104278564,5.140847682952881,3.470128059387207,-3.492582082748413,1.8501121997833252,4.00803804397583,0.2959389090538025,-2.088665723800659,-0.15533536672592163,-0.1579122543334961
100,153027,153023,0.03724175691604614,-0.08336374908685684,0.9400393962860107,5.37926721572876,2.2152066230773926,-3.6946194171905518,1.8496811389923096,4.007875442504883,0.29621878266334534,-2.0886306762695312,-0.1393667310476303,-0.2046833336353302
101,153037,153033,-0.013270500116050243,0.06541004031896591,0.9695739150047302,2.702157974243164,-0.8773890137672424,-2.7154762744903564,1.8511688709259033,4.00705623626709,0.2997939884662628,-2.2192955017089844,-0.05990983918309212,-0.21852073073387146
102,153047,153043,0.025774594396352768,-0.006172818131744862,0.997745931148529,2.5993387699127197,-1.9477545022964478,-2.8137216567993164,1.8501108884811401,4.0079569816589355,0.3002919852733612,-2.1003222465515137,-0.1122034341096878,-0.23864145576953888
103,153057,153053,-0.00882126297801733,-0.1311253309249878,1.073015570640564,1.3893994092941284,-4.779463291168213,-2.13193416595459,1.850508451461792,4.007907390594482,0.3006832003593445,-2.0910165309906006,-0.06714697927236557,-0.2625860869884491
104,153067,153063,0.004352330230176449,-0.13134323060512543,1.04453444480896,2.7799694538116455,-4.597288608551025,-3.1386241912841797,1.8505511283874512,4.0071516036987305,0.30108073353767395,-2.056276559829712,-0.03173387423157692,-0.2757379412651062
105,153077,153073,0.0003262196551077068,-0.05804506316781044,1.00719153881073,2.140469789505005,-5.780468940734863,-2.4325976371765137,1.8494789600372314,4.006724834442139,0.29736214876174927,-1.9461758136749268,0.01713431254029274,-0.2976619303226471
106,153087,153083,-0.04388393834233284,-0.13666605949401855,1.0712296962738037,2.675248861312866,-5.170294761657715,-2.7642858028411865,1.8507611751556396,4.008002758026123,0.2975797951221466,-1.983233094215393,0.061394646763801575,-0.3176257312297821
107,153097,153093,-0.019292419776320457,-0.1588975042104721,1.0173460245132446,2.899334192276001,-3.5669944286346436,-2.5343282222747803,1.8497282266616821,4.007323265075684,0.2979400157928467,-1.8630144596099854,0.10442106425762177,-0.33768430352211
108,153107,153103,-0.03529178351163864,-0.06446711719036102,0.985458493232727,1.5035183429718018,-1.8410135507583618,-2.092829704284668,1.8510549068450928,4.009152412414551,0.29995277523994446,-1.8394383192062378,0.14398673176765442,-0.3578402101993561
109,153117,153113,-0.005956149660050869,0.07708434760570526,0.9840338230133057,-0.20808014273643494,-1.6321709156036377,-1.7531713247299194,1.8516690731048584,4.010139465332031,0.3003934621810913,-1.902824878692627,-0.059654489159584045,-0.4582127034664154
110,153127,153123,-0.007592004258185625,0.0964125469326973,0.9873955249786377,-0.37604132294654846,-3.143894672393799,-1.2242335081100464,1.852615237236023,4.011474609375,0.30083635449409485,-1.8847235441207886,-0.04106871038675308,-0.47081178426742554
111,153137,153133,0.014800624921917915,0.014481879770755768,0.9907204508781433,2.2270894050598145,-5.725346565246582,-1.614559292793274,1.8527582883834839,4.011119842529297,0.29765844345092773,-1.8419220447540283,-0.025389503687620163,-0.47434723377227783
112,153147,153143,0.017285538837313652,-0.042640913277864456,1.0072425603866577,3.6582529544830322,-8.128681182861328,-1.819293737411499,1.8558276891708374,4.011622428894043,0.2976883351802826,-1.9801552295684814,0.02395133674144745,-0.4808337688446045
113,153157,153153,-0.009261777624487877,-0.06053762137889862,1.0487521886825562,6.156575679779053,-8.366957664489746,-1.6951448917388916,1.8554068803787231,4.009771347045898,0.29806089401245117,-1.7639199495315552,0.2486959844827652,-0.4312313497066498
114,153167,153163,0.017822986468672752,-0.055052902549505234,1.0066221952438354,6.168187618255615,-7.561605930328369,-2.442974090576172,1.85565984249115,4.010141849517822,0.2983474135398865,-1.6203798055648804,0.2627163827419281,-0.45899301767349243
115,153177,153173,0.02390441671013832,-0.006818324327468872,0.9528085589408875,4.740640640258789,-5.677700996398926,-2.234894275665283,1.8562475442886353,4.010542869567871,0.2976880967617035,-1.550684928894043,0.28314679861068726,-0.4944857656955719
116,153187,153183,0.03842989355325699,0.0399654358625412,0.8976084589958191,0.3674415349960327,-8.287190437316895,-1.2549468278884888,1.8553012609481812,4.010348796844482,0.29791703820228577,-1.3463188409805298,0.3537924587726593,-0.5045856237411499
117,153197,153193,0.009166701696813107,-0.006333927158266306,1.0161712169647217,-3.2467446327209473,-10.016337394714355,-0.4755936861038208,1.8598650693893433,4.010960102081299,0.2977900505065918,-1.7379719018936157,0.2913376986980438,-0.5613475441932678
118,153207,153203,-0.05675234645605087,-0.09887683391571045,1.1099853515625,-4.635883331298828,-4.36109733581543,-0.8764450550079346,1.8592538833618164,4.011112689971924,0.30013009905815125,-1.4919108152389526,0.25656479597091675,-0.5691225528717041
119,153217,153213,-0.00221050507389009,-0.059987399727106094,1.0456702709197998,-4.727365493774414,-8.377154350280762,-0.9997853636741638,1.8598389625549316,4.011676788330078,0.30031266808509827,-1.4505901336669922,0.11961282789707184,-0.6059584021568298
120,153227,153223,-0.008202685974538326,-0.07981336116790771,1.031070590019226,-1.7559669017791748,-8.064125061035156,-0.3563668131828308,1.8614959716796875,4.012099266052246,0.30042049288749695,-1.5220184326171875,0.0663677379488945,-0.6247537136077881
121,153237,153233,0.023172130808234215,0.023178981617093086,1.0684871673583984,1.0161594152450562,-11.168038368225098,-0.21268710494041443,1.860954999923706,4.012279510498047,0.3020845651626587,-1.2585735321044922,0.05029455944895744,-0.6197810173034668
122,153247,153243,0.012611370533704758,0.016396963968873024,1.0365198850631714,3.7011523246765137,-11.581558227539062,0.08140622079372406,1.8622201681137085,4.012484550476074,0.30245476961135864,-1.2654041051864624,0.07897239178419113,-0.6238871216773987
123,153257,153253,0.024686582386493683,-0.06845110654830933,0.9619417190551758,6.084657192230225,-14.2003755569458,0.36290886998176575,1.862835168838501,4.01312255859375,0.30299994349479675,-1.089378833770752,0.07631349563598633,-0.6284015774726868
124,153267,153263,0.012706903740763664,0.006579993292689323,1.0431901216506958,6.871463298797607,-13.916943550109863,0.7997117638587952,1.8650258779525757,4.011989593505859,0.30386659502983093,-1.1121797561645508,0.1887865960597992,-0.6213183403015137
125,153277,153273,0.012326882220804691,-0.03931048884987831,1.0011076927185059,5.747005939483643,-12.820927619934082,0.5064651370048523,1.864912509918213,4.011549472808838,0.30456769466400146,-0.8233495950698853,0.3103949725627899,-0.5985788106918335
126,153287,153283,-0.010915527120232582,-0.02864777110517025,1.0044912099838257,3.539726734161377,-14.182626724243164,0.8203014731407166,1.8670170307159424,4.011887550354004,0.30504104495048523,-0.788098156452179,0.33866941928863525,-0.6038452386856079
127,153297,153293,-0.04661303758621216,-0.025056589394807816,1.03963303565979,0.29297390580177307,-8.601893424987793,0.8951960206031799,1.8669397830963135,4.011760711669922,0.30575627088546753,-0.5274197459220886,0.4059715270996094,-0.5877246856689453
128,153307,153303,0.0012928690994158387,-0.03890760987997055,1.0088659524917603,-2.4072964191436768,-6.4151177406311035,0.9085074663162231,1.8673352003097534,4.013050556182861,0.3075568377971649,-0.332681268453598,0.34669893980026245,-0.585757851600647
129,153317,153313,-0.008443951606750488,-0.015633514150977135,0.9996998906135559,-4.663601398468018,-4.974325180053711,1.1969937086105347,1.870975136756897,4.012256622314453,0.30814439058303833,-0.5474451780319214,0.31985732913017273,-0.5896680951118469
130,153327,153323,0.005010507069528103,-0.0037538183387368917,0.9952012896537781,-4.437142372131348,-1.235115647315979,0.6672407984733582,1.8723598718643188,4.014659881591797,0.3089957535266876,-0.3938336968421936,0.25993776321411133,-0.5753069519996643
131,153337,153333,0.04408091679215431,-0.037981484085321426,0.9915467500686646,-2.9764833450317383,-6.057496547698975,1.2699891328811646,1.8730157613754272,4.013970375061035,0.30628183484077454,-0.35763582587242126,0.2745721936225891,-0.5538864135742188
132,153347,153343,0.0014184331521391869,-0.05435531586408615,0.986585259437561,-0.8656458258628845,-6.850546360015869,1.3398832082748413,1.8733088970184326,4.013168811798096,0.3067968189716339,-0.2745518088340759,0.2305397391319275,-0.5401367545127869
133,153357,153353,0.025574544444680214,-0.06692354381084442,1.0117740631103516,1.7256659269332886,-8.256244659423828,1.100653052330017,1.8735456466674805,4.013303756713867,0.3073870837688446,-0.09093477576971054,0.22107025980949402,-0.5188390612602234
134,153367,153363,0.025121469050645828,-0.039141129702329636,0.9934655427932739,2.923733711242676,-8.182701110839844,0.8179075717926025,1.8761523962020874,4.012551307678223,0.30710768699645996,-0.19715619087219238,0.2488241195678711,-0.5171685814857483
135,153377,153373,0.035362277179956436,0.014015153050422668,0.9543537497520447,3.119011878967285,-6.684167385101318,0.8813943862915039,1.8784239292144775,4.0126752853393555,0.30743345618247986,-0.2028067409992218,0.29603779315948486,-0.5109667181968689
136,153387,153383,0.000869087700266391,0.08405283093452454,0.9409804344177246,1.4649202823638916,-5.025949954986572,0.871471107006073,1.8777943849563599,4.012149333953857,0.3080947995185852,0.0746396854519844,0.3430127799510956,-0.4810987412929535
137,153397,153393,-0.01407178770750761,0.11327365785837173,0.9163562059402466,0.056213002651929855,-7.164271354675293,1.4373079538345337,1.8806684017181396,4.012335777282715,0.30837902426719666,0.014190380461513996,0.36486953496932983,-0.4813643991947174
138,153407,153403,0.021081876009702682,-0.02998465485870838,0.9631302952766418,-1.5718472003936768,-6.240030288696289,1.4717015027999878,1.8800891637802124,4.011571407318115,0.30797678232192993,0.28226417303085327,0.43158459663391113,-0.45582902431488037
139,153417,153413,-0.01595984399318695,-0.0009306272258982062,1.0262176990509033,-2.859549045562744,-4.064239978790283,1.377781629562378,1.8806124925613403,4.011119842529297,0.3082064986228943,0.36946189403533936,0.3916172981262207,-0.44041451811790466
140,153427,153423,-0.015293835662305355,0.08289694786071777,1.042134165763855,-4.205252170562744,-3.1518075466156006,1.2435673475265503,1.8834645748138428,4.011237621307373,0.308319628238678,0.28051409125328064,0.3350178897380829,-0.44120708107948303
141,153437,153433,-0.007772424723953009,-0.01447052601724863,1.0152127742767334,-5.0791239738464355,-3.2647457122802734,1.0400856733322144,1.8846582174301147,4.010225772857666,0.3108897805213928,0.311077356338501,0.33188360929489136,-0.42257386445999146
142,153447,153443,-0.02093004249036312,-0.08829739689826965,1.0159101486206055,-5.0219197273254395,-3.543300151824951,0.732772171497345,1.8856642246246338,4.012098789215088,0.3114475905895233,0.4759751558303833,0.2431214451789856,-0.39616304636001587
143,153457,153453,-0.0339801125228405,-0.1292179375886917,0.9823229312896729,-3.3490614891052246,-2.594733238220215,1.2287436723709106,1.8876690864562988,4.012852668762207,0.31186679005622864,0.4212288558483124,0.16411961615085602,-0.3843003511428833
144,153467,153463,-0.010049499571323395,-0.031804393976926804,0.9966640472412109,-1.7309753894805908,-3.1986284255981445,1.5339027643203735,1.8867701292037964,4.01218318939209,0.31453773379325867,0.5819686651229858,0.1839005947113037,-0.3693926930427551
145,153477,153473,0.007470055483281612,-0.008735903538763523,1.0043628215789795,-1.0875310897827148,-2.9672296047210693,2.094034433364868,1.888326644897461,4.0113983154296875,0.315078467130661,0.594611644744873,0.22023014724254608,-0.3626818358898163
146,153487,153483,0.030072776600718498,-0.059761643409729004,1.0116416215896606,-0.18926703929901123,-1.9979568719863892,2.038135051727295,1.8888131380081177,4.01131534576416,0.31563588976860046,0.6030871272087097,0.19424885511398315,-0.34178608655929565
147,153497,153493,0.004976858384907246,-0.03807618096470833,0.9869935512542725,-0.558275580406189,-1.4594584703445435,2.720465898513794,1.8899704217910767,4.011805057525635,0.3164295554161072,0.6004111170768738,0.1786377727985382,-0.3196945786476135
148,153507,153503,0.028657186776399612,-0.14894787967205048,0.9978642463684082,-1.598479986190796,0.32208889722824097,2.6873655319213867,1.890509009361267,4.013127326965332,0.31708624958992004,0.7319701910018921,0.16328062117099762,-0.2684853971004486
149,153517,153513,-0.01078711450099945,-0.05008946359157562,0.9832032918930054,-2.0222554206848145,0.11792344599962234,2.49165415763855,1.8918383121490479,4.013180255889893,0.3176308572292328,0.6032965183258057,0.12115779519081116,-0.24552805721759796
150,153527,153523,-0.010742786340415478,-0.10257506370544434,0.9678839445114136,-1.9944651126861572,1.4489266872406006,1.9242302179336548,1.8930015563964844,4.014725208282471,0.3182620704174042,0.6301034092903137,0.08171886205673218,-0.20121753215789795
151,153537,153533,0.02446023002266884,-0.06611524522304535,0.9574870467185974,-1.8435070514678955,1.879030704498291,1.9385584592819214,1.8929589986801147,4.014967918395996,0.3166455328464508,0.708023726940155,0.03991645947098732,-0.17391210794448853
152,153547,153543,-0.014062363654375076,-0.012107175774872303,1.0092504024505615,-0.46188098192214966,3.283193349838257,1.9911197423934937,1.8946149349212646,4.014242649078369,0.3170348107814789,0.6187886595726013,0.08217769861221313,-0.16734430193901062
153,153557,153553,-0.018720589578151703,0.110488660633564,0.9992037415504456,0.09428464621305466,5.454803466796875,2.3719682693481445,1.8963299989700317,4.013145446777344,0.3173416256904602,0.5156606435775757,0.13873092830181122,-0.1586383581161499
154,153567,153563,0.02651754766702652,0.130522683262825,0.9619574546813965,0.26746276021003723,5.5025858879089355,2.5668139457702637,1.8966221809387207,4.013646125793457,0.31830891966819763,0.5504407286643982,0.1202746108174324,-0.12648646533489227
155,153577,153573,0.050553761422634125,0.10719024389982224,0.9820111989974976,-1.6496385335922241,3.430769681930542,2.599494695663452,1.8983641862869263,4.012918949127197,0.31858381628990173,0.437640905380249,0.175924152135849,-0.11359389871358871
156,153587,153583,0.05390807241201401,0.05941928178071976,1.0192975997924805,-3.6445460319519043,1.6011239290237427,2.868398666381836,1.8981636762619019,4.012650966644287,0.3190481662750244,0.5082287192344666,0.19535012543201447,-0.0758797749876976
157,153597,153593,0.016465013846755028,0.04201168194413185,1.0362805128097534,-5.805400848388672,0.5313143134117126,2.7919931411743164,1.9006390571594238,4.014193534851074,0.3196164667606354,0.43963009119033813,0.09984475374221802,-0.038228753954172134
158,153607,153603,0.024158155545592308,-0.02949310652911663,0.9687265157699585,-7.521171569824219,1.2700495719909668,2.2174525260925293,1.901586651802063,4.014596462249756,0.3199934661388397,0.37884604930877686,-0.02905256859958172,-0.0003206151886843145
159,153617,153613,0.02473447658121586,-0.0360533706843853,0.9619179964065552,-7.711306095123291,1.8783564567565918,2.445960283279419,1.901929259300232,4.01509428024292,0.3204682767391205,0.46081453561782837,-0.17246489226818085,0.03868931904435158
160,153627,153623,-0.006433311849832535,-0.013708827085793018,0.9731186628341675,-5.701084613800049,5.8126749992370605,1.5988898277282715,1.90275239944458,4.015138626098633,0.32080963253974915,0.4466593563556671,-0.23594196140766144,0.06811168044805527
161,153637,153633,0.012519679963588715,0.09369880706071854,0.9041300415992737,-2.7494685649871826,3.721261739730835,2.4509291648864746,1.9034444093704224,4.014035224914551,0.31765660643577576,0.4018199145793915,-0.2537742853164673,0.08389291167259216
162,153647,153643,0.01952274702489376,-0.019200081005692482,0.9549921154975891,0.6911085247993469,4.151554584503174,2.975680351257324,1.9046649932861328,4.0144243240356445,0.3177246153354645,0.36725157499313354,-0.21837618947029114,0.08224348723888397
163,153657,153653,-0.022576671093702316,0.010940294712781906,1.0229774713516235,3.1251466274261475,6.784511566162109,3.0401716232299805,1.9056475162506104,4.013844013214111,0.3177637755870819,0.321841299533844,-0.2153574675321579,0.12420191615819931
164,153667,153663,0.045741256326436996,0.07351744920015335,0.9574639201164246,1.963748574256897,3.8966338634490967,3.5521652698516846,1.9064772129058838,4.0133056640625,0.31643879413604736,0.2568678557872772,-0.17833468317985535,0.14601948857307434
165,153677,153673,0.035757627338171005,-0.04231666401028633,0.9447774887084961,0.2920413911342621,1.6300382614135742,3.1629836559295654,1.9091273546218872,4.014240264892578,0.31621503829956055,0.07622364163398743,-0.15895581245422363,0.1965731680393219
166,153687,153683,-0.07075756043195724,-0.03715663030743599,1.0022878646850586,-1.2148231267929077,-0.04739684239029884,3.535370111465454,1.9086745977401733,4.013708591461182,0.3162044584751129,0.16192445158958435,-0.18160979449748993,0.2389550358057022
167,153697,153693,-0.07962851971387863,0.0504273995757103,0.9758849143981934,-5.074134826660156,-0.843235194683075,4.098065376281738,1.9087553024291992,4.014956951141357,0.31752246618270874,0.2678825259208679,-0.23074059188365936,0.2744561433792114
168,153707,153703,0.025351669639348984,-0.04113881289958954,0.955798864364624,-5.94218635559082,-2.0832056999206543,4.568500995635986,1.908279299736023,4.015259265899658,0.317508727312088,0.37497302889823914,-0.33511117100715637,0.3274124562740326
169,153717,153713,-0.03858615830540657,0.03758790343999863,1.0433787107467651,-4.278383731842041,-3.170607805252075,4.559006214141846,1.9085915088653564,4.014619827270508,0.317450612783432,0.4030866324901581,-0.2816680073738098,0.35353022813796997
170,153727,153723,-0.01950463093817234,-0.020540865138173103,1.0492006540298462,-1.3816250562667847,-2.0137197971343994,4.538984775543213,1.9097851514816284,4.015260696411133,0.317421555519104,0.41061729192733765,-0.3607943058013916,0.40036898851394653
171,153737,153733,-0.030398879200220108,-0.014125206507742405,1.0784519910812378,0.5388449430465698,2.3241827487945557,3.943119525909424,1.9093046188354492,4.014393329620361,0.3159443140029907,0.4445366859436035,-0.32111549377441406,0.43093815445899963
172,153747,153743,-0.025546882301568985,0.015154357068240643,1.0407778024673462,1.7107294797897339,8.8193359375,4.058961391448975,1.9098526239395142,4.014389991760254,0.3159429132938385,0.4088144600391388,-0.3353123664855957,0.4724556803703308
173,153757,153753,-0.011220961809158325,0.016199201345443726,0.9498598575592041,1.896990418434143,9.061202049255371,4.706149101257324,1.9120335578918457,4.013553619384766,0.31585782766342163,0.1664840281009674,-0.3217533826828003,0.5105679035186768
174,153767,153763,-0.05748123303055763,0.07282787561416626,1.0286208391189575,0.17248646914958954,12.101238250732422,4.867561340332031,1.911805272102356,4.0135087966918945,0.3139168918132782,0.1826036125421524,-0.3041515648365021,0.5520215034484863
175,153777,153773,0.04199020937085152,-0.1035705953836441,0.9758891463279724,0.4289180040359497,6.894194602966309,4.750802993774414,1.9132057428359985,4.013801574707031,0.31382134556770325,0.01648848131299019,-0.3038518726825714,0.6143026947975159
176,153787,153783,-0.00434454157948494,-0.005915237125009298,1.0547393560409546,-0.139060378074646,4.815074443817139,4.721653461456299,1.9130100011825562,4.0137457847595215,0.31378990411758423,-0.020636754110455513,-0.31048673391342163,0.6727320551872253
177,153797,153793,0.02394944429397583,-0.04309689253568649,0.9876773953437805,-0.783259391784668,3.165754556655884,4.370457649230957,1.9135944843292236,4.014916896820068,0.31314805150032043,-0.024792838841676712,-0.3250730633735657,0.7236338257789612
178,153807,153803,-0.0015187590615823865,-0.012945439666509628,1.0167433023452759,-0.13999322056770325,3.4530510902404785,4.602977752685547,1.912989854812622,4.014873504638672,0.3131135404109955,-0.0048756985925138,-0.3435667157173157,0.7652345299720764
179,153817,153813,0.05095823109149933,-0.04273884370923042,0.9739828705787659,-1.0016999244689941,2.835153579711914,4.3011579513549805,1.915012001991272,4.014868259429932,0.3129505515098572,-0.13153496384620667,-0.3606850802898407,0.8150339126586914
180,153827,153823,0.03696658834815025,-0.0628722533583641,1.0494219064712524,-0.7105199694633484,1.9358495473861694,3.69279146194458,1.9159562587738037,4.014997482299805,0.3138977289199829,-0.17157942056655884,-0.38736027479171753,0.8672105669975281
181,153837,153833,0.05711202695965767,-0.06679604202508926,0.9742637872695923,0.5229182243347168,2.5301434993743896,3.4561471939086914,1.9157435894012451,4.014400005340576,0.3139095604419708,-0.13052654266357422,-0.40263456106185913,0.8828672170639038
182,153847,153843,-0.04015478119254112,0.0027550230734050274,1.0435813665390015,1.9501887559890747,7.683925628662109,3.3066563606262207,1.9159252643585205,4.0143327713012695,0.31393253803253174,-0.10318130999803543,-0.3921165466308594,0.9165465831756592
183,153857,153853,0.0183942262083292,-0.03930188715457916,0.9461978077888489,3.897789716720581,3.8555774688720703,3.587395429611206,1.9186551570892334,4.0144267082214355,0.31380900740623474,-0.3481495976448059,-0.35164421796798706,0.9604952931404114
184,153867,153863,0.013605978339910507,0.013887610286474228,1.0274083614349365,5.549515724182129,1.222981572151184,3.2498865127563477,1.91908860206604,4.01401948928833,0.3118000626564026,-0.325540691614151,-0.21382756531238556,0.9922126531600952
185,153877,153873,-0.014692407101392746,0.07716788351535797,0.9768422245979309,4.973792552947998,-0.39465007185935974,3.3175270557403564,1.9194855690002441,4.013675689697266,0.31165769696235657,-0.359422504901886,-0.14498327672481537,1.0323479175567627
186,153887,153883,-0.07320255786180496,0.10209580510854721,1.0314983129501343,2.2112486362457275,3.8874194622039795,2.938981056213379,1.9188612699508667,4.014397144317627,0.31161999702453613,-0.29586681723594666,-0.09537798911333084,1.0721933841705322
187,153897,153893,-0.010845567099750042,0.12242043763399124,0.9412385821342468,-0.5499823093414307,1.847573161125183,2.99906587600708,1.9192122220993042,4.015920639038086,0.31199419498443604,-0.27651238441467285,-0.08857618272304535,1.134224772453308
188,153907,153903,-0.026591040194034576,0.03517921268939972,1.0305501222610474,-3.241881847381592,1.4114993810653687,2.9831478595733643,1.9202287197113037,4.017152786254883,0.311870813369751,-0.307325154542923,-0.19253776967525482,1.1774921417236328
189,153917,153913,0.002205818658694625,-0.019102899357676506,1.0490010976791382,-5.672774791717529,-2.0980496406555176,2.0879857540130615,1.921981692314148,4.017334461212158,0.31169918179512024,-0.4225565195083618,-0.2704233229160309,1.2008848190307617
190,153927,153923,-0.074720099568367,0.00973462127149105,1.0537614822387695,-4.096157550811768,-1.7334576845169067,2.6703197956085205,1.9218366146087646,4.017820358276367,0.3121627867221832,-0.33333247900009155,-0.3599773943424225,1.2202677726745605
191,153937,153933,-0.05657040327787399,0.07761260867118835,1.0493215322494507,-2.334007501602173,-1.584564447402954,3.797163724899292,1.9227509498596191,4.017232894897461,0.312168687582016,-0.3972170054912567,-0.34531348943710327,1.246047019958496
192,153947,153943,0.028852829709649086,0.008049318566918373,1.035875916481018,1.3516968488693237,-0.6497184038162231,3.1116530895233154,1.9234989881515503,4.017317771911621,0.3122360408306122,-0.3816831707954407,-0.3690178692340851,1.2825847864151
193,153957,153953,-0.006897838786244392,0.019241951406002045,1.056774616241455,3.2525744438171387,-1.7126569747924805,2.8078975677490234,1.922609567642212,4.017567157745361,0.3124331533908844,-0.2963011860847473,-0.3405598998069763,1.309643030166626
194,153967,153963,-0.007294857874512672,-0.06151310354471207,0.9700228571891785,3.171640396118164,-0.011491652578115463,2.9715821743011475,1.9249622821807861,4.018706321716309,0.3144151568412781,-0.4918874204158783,-0.3543229401111603,1.3470442295074463
195,153977,153973,0.0011967597529292107,-0.07458324730396271,0.9256999492645264,1.5754140615463257,-2.187878370285034,3.826606035232544,1.9255764484405518,4.019395351409912,0.3147884011268616,-0.39073991775512695,-0.29913437366485596,1.4043225049972534
196,153987,153983,0.027810238301753998,-0.10261061042547226,1.0148992538452148,2.0405161380767822,-1.8041126728057861,2.4230170249938965,1.9247971773147583,4.020923137664795,0.31512367725372314,-0.2725580036640167,-0.2605966329574585,1.4481579065322876
197,153997,153993,-0.019685812294483185,0.0769619420170784,0.9871184229850769,0.5937025547027588,-5.353873252868652,2.2968173027038574,1.9282417297363281,4.0212578773498535,0.31448689103126526,-0.45072048902511597,-0.23216815292835236,1.4889507293701172
198,154007,154003,-0.01095507200807333,0.004601913038641214,0.997162401676178,1.3378334045410156,-5.014313697814941,1.4911091327667236,1.9275881052017212,4.019795894622803,0.3146806061267853,-0.3439473807811737,-0.22027358412742615,1.486273169517517
199,154017,154013,-0.0006564997602254152,-0.06534096598625183,0.9052309989929199,-1.1430728435516357,-1.5289244651794434,1.8603850603103638,1.9272359609603882,4.0197649002075195,0.3149069845676422,-0.17132145166397095,-0.21279017627239227,1.4813610315322876
200,154027,154023,0.043642107397317886,-0.05659714341163635,0.9153134822845459,-2.059413433074951,-7.265181541442871,3.0707929134368896,1.9284838438034058,4.019929885864258,0.31597307324409485,-0.24874621629714966,-0.30216655135154724,1.5044511556625366
201,154037,154033,0.022328771650791168,-0.07686793804168701,1.0185117721557617,-1.800971508026123,-7.029939651489258,3.755063056945801,1.9281432628631592,4.019633769989014,0.3161126375198364,-0.051625873893499374,-0.2490280419588089,1.5368350744247437
202,154047,154043,0.02338683232665062,-0.15619991719722748,1.0632195472717285,0.15647029876708984,-6.041491985321045,3.34867787361145,1.930299997329712,4.0204243659973145,0.3160867393016815,-0.10229497402906418,-0.26427173614501953,1.6025952100753784
203,154057,154053,0.03349939361214638,-0.19751223921775818,1.0163977146148682,2.250225067138672,0.5528107285499573,2.5257344245910645,1.930785059928894,4.021157264709473,0.31618374586105347,-0.04204711318016052,-0.2560822069644928,1.6469985246658325
204,154067,154063,0.00472604762762785,-0.076259084045887,0.9182722568511963,1.0526909828186035,3.707296371459961,1.8750555515289307,1.932938575744629,4.0228400230407715,0.31724295020103455,-0.12713362276554108,-0.2232627123594284,1.680446982383728
205,154077,154073,0.0002840365341398865,0.00040509397513233125,0.9965749382972717,1.119462251663208,3.602120876312256,2.496427297592163,1.9336453676223755,4.0223212242126465,0.31733256578445435,-0.1682489961385727,-0.2039746195077896,1.726889729499817
206,154087,154083,0.03503041714429855,-0.022794874384999275,0.9813437461853027,0.0459989458322525,1.4063483476638794,2.1116256713867188,1.9342106580734253,4.024035453796387,0.31738001108169556,-0.20172886550426483,-0.18541795015335083,1.7608221769332886
207,154097,154093,-0.021029232069849968,0.025809500366449356,1.0153048038482666,0.7786659002304077,-5.597565174102783,2.9946634769439697,1.9347256422042847,4.023855686187744,0.3142555058002472,-0.13075318932533264,-0.17973393201828003,1.8004766702651978
208,154107,154103,0.011617430485785007,-0.1465844362974167,0.9893847703933716,1.4773846864700317,-4.456809997558594,2.538102388381958,1.9349428415298462,4.02487850189209,0.31414246559143066,-0.06419998407363892,-0.16595549881458282,1.825305461883545
209,154117,154113,-0.007028112653642893,-0.05487944185733795,0.9248540997505188,-0.8642399311065674,-2.3685784339904785,2.237180709838867,1.9347105026245117,4.025097370147705,0.31406477093696594,0.07125674188137054,-0.15366123616695404,1.846248745918274
210,154127,154123,-0.017856627702713013,-0.042964331805706024,0.9791135191917419,-1.639076590538025,-0.1073535680770874,2.4407453536987305,1.9359149932861328,4.024886131286621,0.31554606556892395,0.03532921150326729,-0.16581326723098755,1.8761613368988037
211,154137,154133,0.036644164472818375,-0.16118915379047394,0.9862135648727417,-1.4205803871154785,-3.024846076965332,2.5894267559051514,1.9359604120254517,4.0248122215271,0.3154428005218506,0.053553257137537,-0.18558140099048615,1.8883085250854492
212,154147,154143,0.0076776426285505295,-0.22148288786411285,1.0257264375686646,0.1983899176120758,0.7243326902389526,2.170327663421631,1.9378799200057983,4.02541446685791,0.315297394990921,0.00469922972843051,-0.20034575462341309,1.9326289892196655
213,154157,154153,-0.00920638907700777,-0.06292116641998291,1.0248420238494873,0.9062379002571106,2.260085344314575,2.0623085498809814,1.9380524158477783,4.026499271392822,0.31525030732154846,0.06792720407247543,-0.26735925674438477,1.9418457746505737
214,154167,154163,0.01340736635029316,-0.01705709844827652,0.9803832173347473,1.850091814994812,4.786599636077881,2.65091872215271,1.9400756359100342,4.027805805206299,0.314277321100235,-0.12416477501392365,-0.23871707916259766,2.01615047454834
215,154177,154173,0.038408681750297546,-0.087911456823349,0.9595040678977966,3.242950677871704,2.124265193939209,1.9246573448181152,1.9403778314590454,4.027707099914551,0.31419724225997925,-0.0934254601597786,-0.19323143362998962,2.0416195392608643
216,154187,154183,0.00837490614503622,-0.08259043097496033,1.0141186714172363,3.9151039123535156,-2.797210931777954,2.6470236778259277,1.9424707889556885,4.028543949127197,0.3140084445476532,-0.1681988388299942,-0.13042140007019043,2.074518918991089
217,154197,154193,0.014085270464420319,-0.19237978756427765,0.9740928411483765,5.308920860290527,-3.2359118461608887,2.8591907024383545,1.9419008493423462,4.028244972229004,0.31538063287734985,-0.047998566180467606,-0.05434848740696907,2.127254009246826
218,154207,154203,-0.003626493737101555,-0.07817058265209198,0.9568578004837036,2.4464781284332275,-1.6762621402740479,1.8384156227111816,1.9427995681762695,4.029479026794434,0.315229594707489,-0.07465627789497375,-0.05298523232340813,2.140277147293091
219,154217,154213,0.01099790446460247,-0.00033283012453466654,1.010769248008728,0.6671439409255981,-2.19325590133667,1.9576889276504517,1.9426219463348389,4.02946662902832,0.31519776582717896,0.03685453161597252,-0.010797248221933842,2.152808666229248
220,154227,154223,0.010046613402664661,-0.10698001086711884,0.9758131504058838,-0.10039031505584717,-1.1538383960723877,2.0859031677246094,1.9435553550720215,4.029540061950684,0.3122173845767975,-0.009649105370044708,0.004122431855648756,2.1744918823242188
221,154237,154233,-0.019210483878850937,-0.0879187360405922,0.960365355014801,-0.775793731212616,0.5148999691009521,2.950939416885376,1.9430534839630127,4.030830383300781,0.31198713183403015,0.07692167907953262,-0.07162503153085709,2.2072336673736572
222,154247,154243,-0.023730967193841934,-0.053418900817632675,0.9998923540115356,-1.1195214986801147,3.3775672912597656,2.221691370010376,1.9439303874969482,4.030938148498535,0.3116540014743805,0.052778370678424835,-0.07604700326919556,2.258974313735962
223,154257,154253,0.01447176281362772,-0.042716674506664276,1.015785813331604,1.009049654006958,6.514514923095703,0.7714794874191284,1.9461709260940552,4.030943393707275,0.31218457221984863,-0.15604792535305023,-0.005323780234903097,2.2670435905456543
224,154267,154263,0.038235750049352646,-0.1202169805765152,0.88080233335495,2.911198616027832,5.399196147918701,1.4093972444534302,1.9467895030975342,4.030649662017822,0.31194499135017395,-0.16467463970184326,0.021195223554968834,2.2781834602355957
225,154277,154273,-0.014416610822081566,-0.05211959779262543,0.9242845177650452,2.66747784614563,2.8290467262268066,2.1892993450164795,1.9473170042037964,4.030405521392822,0.31156817078590393,-0.22869105637073517,0.07036811113357544,2.3021368980407715
226,154287,154283,0.002593124285340309,-0.08519509434700012,1.0146105289459229,2.098212480545044,-0.037888605147600174,1.5299475193023682,1.9481338262557983,4.0306549072265625,0.31111547350883484,-0.24760651588439941,0.11484230309724808,2.3192684650421143
227,154297,154293,-0.00013339424913283437,-0.02807624824345112,1.0331741571426392,1.3147218227386475,-5.130943775177002,1.2747200727462769,1.9487324953079224,4.03080415725708,0.3121751844882965,-0.15874932706356049,0.14325116574764252,2.3325846195220947
228,154307,154303,0.018872108310461044,-0.07766019552946091,0.9898250102996826,-0.8035743236541748,-1.0507323741912842,1.0231642723083496,1.9505212306976318,4.030440330505371,0.3117528259754181,-0.2644035816192627,0.14956796169281006,2.3306658267974854
229,154317,154313,-0.011128120124340057,-0.03583287075161934,1.0199934244155884,-1.9788284301757812,-0.7202510237693787,1.2845278978347778,1.9504773616790771,4.032868385314941,0.3115961253643036,-0.15039609372615814,0.05152362585067749,2.3683388233184814
230,154327,154323,-0.004619268234819174,-0.04641129449009895,1.0680807828903198,-2.854733467102051,-0.5504274368286133,0.9363431930541992,1.951736330986023,4.032990455627441,0.3128257691860199,-0.20552843809127808,0.012707134708762169,2.399554491043091
231,154337,154333,0.029293762519955635,-0.07163573056459427,0.9959148168563843,-1.5824729204177856,-0.5453366637229919,0.8277242183685303,1.9539403915405273,4.034421443939209,0.3126479685306549,-0.25285735726356506,-0.02032279036939144,2.407932996749878
232,154347,154343,-0.030308248475193977,-0.02422509342432022,1.0323984622955322,0.28587180376052856,2.391289472579956,0.8335006237030029,1.9549516439437866,4.034606456756592,0.3125901520252228,-0.22925934195518494,-0.030624868348240852,2.431039333343506
233,154357,154353,0.030351778492331505,-0.05891861021518707,0.9665769934654236,1.8994532823562622,-1.0461668968200684,0.45507708191871643,1.9562578201293945,4.034320831298828,0.314621239900589,-0.2951124906539917,-0.01240970566868782,2.42873477935791
234,154367,154363,-0.01672324165701866,-0.001426036935299635,1.0402439832687378,3.3837475776672363,-2.7418322563171387,0.6213817596435547,1.9568407535552979,4.034921646118164,0.31477466225624084,-0.1653612107038498,0.03550685942173004,2.457244634628296
235,154377,154373,0.007849323563277721,-0.11585620045661926,1.036738395690918,4.960643768310547,-4.358964920043945,1.1491291522979736,1.9569414854049683,4.033557891845703,0.3148650825023651,-0.058024827390909195,0.1767701804637909,2.4488039016723633
236,154387,154383,0.03216949477791786,-0.10465515404939651,0.9723652005195618,2.3926544189453125,-1.118841290473938,0.646746814250946,1.9571444988250732,4.034850597381592,0.31494247913360596,0.007189927622675896,0.16179688274860382,2.4662418365478516
237,154397,154393,0.04516713693737984,-0.1078004390001297,0.9958704710006714,-1.1917365789413452,-0.24415120482444763,-0.33353525400161743,1.9582947492599487,4.034223556518555,0.31681007146835327,-0.04767926409840584,0.17415162920951843,2.4667553901672363
