,timestamp_start,timestamp_end,acc.x,acc.y,acc.z,gyro.x,gyro.y,gyro.z,stateEstimate.x,stateEstimate.y,stateEstimate.z,stabilizer.pitch,stabilizer.roll,stabilizer.yaw
0,32509,32508,-0.04496202617883682,-0.04447672888636589,0.9999831318855286,-16.331151962280273,-13.206480979919434,-0.5904989242553711,2.027575731277466,4.01298713684082,0.17087307572364807,0.6235446929931641,1.4576635360717773,2.7267863750457764
1,32519,32518,0.02186928130686283,0.015385505743324757,1.008276343345642,-19.716196060180664,-13.018366813659668,-0.6472233533859253,2.0276596546173096,4.013372421264648,0.17450208961963654,0.8094143271446228,1.2348634004592896,2.7284650802612305
2,32529,32528,0.03220684826374054,0.08237814158201218,1.0197927951812744,-18.98248863220215,-11.262608528137207,-0.9036282896995544,2.027360439300537,4.011847496032715,0.17685940861701965,0.9667582511901855,1.1284379959106445,2.725566864013672
3,32539,32538,0.013836920261383057,0.029674572870135307,1.0140169858932495,-17.401338577270508,-10.486283302307129,-0.9953028559684753,2.027357578277588,4.011786460876465,0.17890118062496185,0.9582004547119141,1.1585800647735596,2.6807196140289307
4,32549,32548,-0.011724052019417286,-0.042936522513628006,0.9658346176147461,-15.349369049072266,-6.556061744689941,-0.32017695903778076,2.025158405303955,4.0116496086120605,0.17973993718624115,1.2117531299591064,0.9761248230934143,2.712852716445923
5,32559,32558,-0.010846168734133244,-0.028196267783641815,0.9950276017189026,-14.316643714904785,-3.212270498275757,-0.8323308229446411,2.023461103439331,4.014209270477295,0.18245552480220795,1.37613046169281,0.686728298664093,2.7427291870117188
6,32569,32568,0.028862977400422096,-0.024545591324567795,0.975313663482666,-14.800838470458984,0.0572211816906929,-1.131417989730835,2.0241754055023193,4.014255523681641,0.18468500673770905,1.2604178190231323,0.768029510974884,2.68975567817688
7,32579,32578,0.043223753571510315,-0.07533349841833115,0.9935438632965088,-13.929464340209961,1.9883294105529785,-0.6974289417266846,2.0234203338623047,4.014866828918457,0.18682126700878143,1.3192028999328613,0.39817729592323303,2.717989206314087
8,32589,32588,0.0027280705980956554,-0.056837745010852814,0.9785897135734558,-14.783514976501465,2.087883949279785,-0.7315844297409058,2.0254900455474854,4.012476921081543,0.18899627029895782,1.2089670896530151,0.5501160621643066,2.657606363296509
9,32599,32598,-0.001466182293370366,-0.10015875846147537,0.9838192462921143,-14.01269245147705,0.5473328232765198,0.03655945509672165,2.0254595279693604,4.012980937957764,0.19159062206745148,1.255313515663147,0.30942392349243164,2.6812965869903564
10,32609,32608,0.032192546874284744,-0.06420813500881195,0.9592494964599609,-13.747591972351074,-1.4840755462646484,-0.31614038348197937,2.024383068084717,4.01551628112793,0.1904369741678238,1.320218563079834,0.01544472947716713,2.7137928009033203
11,32619,32618,0.07852625101804733,-0.04817226529121399,0.9888812303543091,-14.949747085571289,-3.0635955333709717,-0.1945440024137497,2.023591995239258,4.014492511749268,0.1923893392086029,1.397548794746399,0.022272340953350067,2.7009217739105225
12,32629,32628,0.10098095238208771,-0.0826210081577301,1.0143557786941528,-13.713582038879395,-2.484870672225952,-0.6561054587364197,2.0237603187561035,4.014764308929443,0.19456221163272858,1.4055670499801636,-0.2099376618862152,2.7103869915008545
13,32639,32638,0.058897797018289566,-0.050421569496393204,1.0081275701522827,-13.814214706420898,0.8287115693092346,-1.5628520250320435,2.023832321166992,4.014076232910156,0.19668319821357727,1.3890142440795898,-0.4157610237598419,2.7107701301574707
14,32649,32648,0.047422487288713455,-0.0918041244149208,0.9671630859375,-11.16109848022461,2.1470320224761963,-1.447091817855835,2.0223233699798584,4.010747909545898,0.19777359068393707,1.4661086797714233,-0.4531593918800354,2.6818125247955322
15,32659,32658,-0.02828114479780197,0.0035071582533419132,1.0101966857910156,-7.930380344390869,4.353869438171387,-1.2611163854599,2.0218684673309326,4.01376485824585,0.1999293714761734,1.4303890466690063,-0.7419840693473816,2.7033753395080566
16,32669,32668,0.01616918109357357,-0.04788622260093689,0.9620720744132996,-5.014615535736084,7.07276725769043,-1.2672470808029175,2.0216283798217773,4.012185573577881,0.20190782845020294,1.4303325414657593,-0.7379112839698792,2.674769639968872
17,32679,32678,0.0021328586153686047,-0.07129234075546265,0.9751091599464417,-2.9989678859710693,8.571939468383789,-0.3990766704082489,2.0201520919799805,4.0096564292907715,0.2050817459821701,1.5223023891448975,-0.5616328120231628,2.6167287826538086
18,32689,32688,0.020973479375243187,-0.012120653875172138,0.9937751889228821,-2.194026231765747,9.461472511291504,0.08477624505758286,2.020659923553467,4.009873390197754,0.20741809904575348,1.3555806875228882,-0.7332918047904968,2.6457931995391846
19,32699,32698,0.0661630928516388,-0.07591263949871063,0.9882602095603943,-5.03397798538208,10.520030975341797,-0.5855163335800171,2.0198915004730225,4.009020805358887,0.20949311554431915,1.2616924047470093,-0.8226197361946106,2.65633487701416
20,32709,32708,-0.01787649281322956,0.02619033120572567,1.003879189491272,-6.681602954864502,9.630258560180664,-0.7086856961250305,2.019015073776245,4.009380340576172,0.21057508885860443,1.2170478105545044,-0.7979214191436768,2.6299893856048584
21,32719,32718,0.015765784308314323,0.0029987895395606756,0.9791149497032166,-7.246166229248047,8.686856269836426,-0.5749958753585815,2.018162488937378,4.009894847869873,0.2125682532787323,1.1187503337860107,-0.94240403175354,2.636720657348633
22,32729,32728,0.025991208851337433,0.05535775050520897,0.9949608445167542,-6.984922409057617,7.9413018226623535,-0.3982901871204376,2.0177321434020996,4.009971618652344,0.21455442905426025,1.0218926668167114,-1.157327651977539,2.656346082687378
23,32739,32738,-0.0011548477923497558,0.008002554066479206,0.9926943182945251,-4.7977705001831055,6.481481552124023,-0.3209860622882843,2.017727851867676,4.008070945739746,0.21658508479595184,0.939020037651062,-1.040922999382019,2.6246016025543213
24,32749,32748,-0.00022133361198939383,-0.029911434277892113,0.9930857419967651,-2.196422576904297,7.678192615509033,-0.5285845994949341,2.017467498779297,4.00748872756958,0.21837231516838074,0.7966371178627014,-1.1983489990234375,2.6470296382904053
25,32759,32758,0.011649302206933498,-0.05220184102654457,0.9468246698379517,0.7360597252845764,6.601714611053467,-0.081863172352314,2.017747402191162,4.007857322692871,0.2203006148338318,0.6479070782661438,-1.2279572486877441,2.6492817401885986
26,32769,32768,0.004551758989691734,0.004478206392377615,0.9983415603637695,2.1047723293304443,5.446761131286621,-0.6783570647239685,2.0147716999053955,4.003243446350098,0.2222287356853485,0.8819899559020996,-0.9308551549911499,2.5667035579681396
27,32779,32778,0.007943195290863514,0.044236164540052414,0.9384896159172058,1.4223958253860474,4.470081329345703,0.3545193374156952,2.013866424560547,4.002597332000732,0.22133125364780426,0.8135495781898499,-0.9996231198310852,2.573953151702881
28,32789,32788,-0.01839495822787285,0.029001638293266296,0.9984474182128906,-1.8046653270721436,6.356692314147949,0.20986469089984894,2.01228666305542,4.0022149085998535,0.2229585200548172,0.8818913102149963,-1.080678939819336,2.5689356327056885
29,32799,32798,-0.006562201771885157,-0.030382992699742317,0.9965025782585144,-6.292692184448242,8.625548362731934,-0.1861581951379776,2.012085437774658,4.001431465148926,0.2246672660112381,0.7676187753677368,-1.0736583471298218,2.574852228164673
30,32809,32808,-0.02831370197236538,-0.07472405582666397,1.0208766460418701,-6.791262149810791,12.011312484741211,-0.3946230113506317,2.012967824935913,4.001911640167236,0.22877654433250427,0.5367668867111206,-1.188240885734558,2.5987255573272705
31,32819,32818,-0.03735275939106941,-0.0028231549076735973,1.0316184759140015,-6.9822916984558105,16.218978881835938,-0.9737361669540405,2.011944055557251,4.001258850097656,0.23061123490333557,0.3376028835773468,-1.293304681777954,2.6049857139587402
32,32829,32828,0.013286249712109566,-0.00828587543219328,0.9888659119606018,-4.641092300415039,15.175975799560547,-0.7230320572853088,2.0106000900268555,4.0017876625061035,0.23247040808200836,0.23998892307281494,-1.4565317630767822,2.5895018577575684
33,32839,32838,0.008099634200334549,-0.01781386137008667,0.9733795523643494,-0.8596775531768799,11.408933639526367,-0.7351709604263306,2.0089733600616455,4.000415802001953,0.23421022295951843,0.03102824091911316,-1.5553243160247803,2.579275131225586
34,32849,32848,-0.005985864903777838,-0.014826275408267975,0.9905622601509094,4.106791019439697,6.284853935241699,-0.882096529006958,2.0071778297424316,4.000110626220703,0.236740380525589,0.04468784108757973,-1.5024518966674805,2.546208143234253
35,32859,32858,0.0268669743090868,-0.012366438284516335,0.9760923981666565,8.654999732971191,1.6138060092926025,-0.6088780164718628,2.0065596103668213,3.9996440410614014,0.2386634349822998,-0.09324634075164795,-1.4438233375549316,2.5509018898010254
36,32869,32868,0.023068495094776154,-0.13495607674121857,1.0176348686218262,11.001191139221191,-0.6965278387069702,-0.7097336053848267,2.006463050842285,3.998666286468506,0.24051949381828308,-0.15664762258529663,-1.3180660009384155,2.5546998977661133
37,32879,32878,0.012584715150296688,-0.1570521593093872,0.9902145862579346,11.79100513458252,-0.9597727060317993,-1.3936712741851807,2.0057663917541504,3.9985971450805664,0.24285316467285156,-0.11743585020303726,-1.167934536933899,2.5411670207977295
38,32889,32888,0.02707173116505146,-0.11254724115133286,0.9535902142524719,8.846514701843262,1.101693868637085,-1.8969042301177979,2.005383253097534,3.9984238147735596,0.24490201473236084,-0.16715823113918304,-1.0139354467391968,2.536769151687622
39,32899,32898,0.024913106113672256,-0.020332828164100647,0.9151071906089783,5.2901177406311035,3.684776544570923,-2.149580717086792,2.005507469177246,3.9998533725738525,0.2467820942401886,-0.24999040365219116,-0.9261970520019531,2.5297842025756836
40,32909,32908,0.061803411692380905,-0.043902236968278885,0.9038639068603516,0.9299293160438538,4.103127479553223,-2.2987170219421387,2.0060372352600098,3.9995574951171875,0.24737858772277832,-0.3587978482246399,-0.9049146175384521,2.512057304382324
41,32919,32918,0.05587649717926979,-0.096504345536232,0.9379895925521851,-1.8741718530654907,1.9156570434570312,-2.582366466522217,1.9973058700561523,3.998162031173706,0.24942827224731445,0.4453454911708832,-0.8796581029891968,2.3365728855133057
42,32929,32928,-0.01873517595231533,0.0939778983592987,0.9327616691589355,-2.4570772647857666,2.8934497833251953,-1.5323549509048462,1.9964178800582886,4.0000386238098145,0.25150179862976074,0.29738616943359375,-0.9515729546546936,2.3308210372924805
43,32939,32938,-0.012037761509418488,-0.12104342877864838,0.9696518778800964,-2.312593936920166,8.312606811523438,-1.2700515985488892,1.9961732625961304,4.000270843505859,0.25363874435424805,0.0984775722026825,-1.021212100982666,2.336656093597412
44,32949,32948,-0.043377943336963654,-0.14848484098911285,1.0265781879425049,0.21679173409938812,14.127005577087402,-1.502923607826233,1.9966391324996948,4.000580787658691,0.25538697838783264,-0.17331333458423615,-1.0558589696884155,2.347196578979492
45,32959,32958,-0.02533622644841671,-0.13367334008216858,0.9903643131256104,2.955167293548584,18.156150817871094,-1.454433560371399,1.9952350854873657,4.000765323638916,0.2569717764854431,-0.31000226736068726,-1.0419743061065674,2.3267617225646973
46,32969,32968,-0.01369038037955761,-0.04391380771994591,0.9673790335655212,5.842422962188721,20.446535110473633,-1.6576861143112183,1.994779348373413,3.9982857704162598,0.2585720121860504,-0.5593172907829285,-0.8428536653518677,2.3289687633514404
47,32979,32978,-0.00337515608407557,0.013621535152196884,0.9665147066116333,8.06602668762207,17.134265899658203,-1.9784843921661377,1.9950047731399536,3.99957537651062,0.26100102066993713,-0.8762235641479492,-0.8260176777839661,2.3220386505126953
48,32989,32988,0.02467978000640869,-0.015534132719039917,0.9391975998878479,8.286248207092285,11.029712677001953,-2.1955959796905518,1.9918845891952515,4.0003228187561035,0.2626000642776489,-0.8136335015296936,-0.9211253523826599,2.2523529529571533
49,32999,32998,0.02566917985677719,0.005292932502925396,0.9469102621078491,7.823962688446045,2.8241379261016846,-1.2859070301055908,1.9921168088912964,4.001469135284424,0.2641392946243286,-1.0101959705352783,-0.8531396985054016,2.2446396350860596
50,33009,33008,-0.0030696310568600893,-0.014150731265544891,0.9514053463935852,7.643219947814941,-2.6293118000030518,-2.1104886531829834,1.992161512374878,4.003300666809082,0.26445668935775757,-1.0698014497756958,-0.7962149977684021,2.236992835998535
51,33019,33018,-0.04170602932572365,0.011754058301448822,0.9571726322174072,7.6461052894592285,-7.798273086547852,-1.631796956062317,1.990592122077942,4.002150058746338,0.2657746374607086,-0.9651740789413452,-0.7351166009902954,2.207801342010498
52,33029,33028,0.005826421547681093,-0.04444507136940956,0.9309479594230652,8.016108512878418,-9.595643997192383,-1.2947739362716675,1.9892410039901733,4.00295352935791,0.26712068915367126,-0.8781280517578125,-0.5912889242172241,2.201974630355835
53,33039,33038,0.006330359261482954,-0.08174829930067062,0.9139456748962402,7.873777389526367,-7.243499279022217,-1.087538242340088,1.9878977537155151,4.001984119415283,0.26854243874549866,-0.7940765619277954,-0.45384570956230164,2.200601100921631
54,33049,33048,0.003462360706180334,-0.025004137307405472,0.9451022744178772,7.634016036987305,-3.77258038520813,-1.4750343561172485,1.9874275922775269,4.002073287963867,0.2697242498397827,-0.7661512494087219,-0.39816373586654663,2.188762664794922
55,33059,33058,0.014606720767915249,-0.05214732140302658,0.937049925327301,5.307888507843018,0.9552093744277954,-1.7579777240753174,1.9877985715866089,4.005182266235352,0.2708984315395355,-0.8647143840789795,-0.6526325941085815,2.126319408416748
56,33069,33068,-0.028870614245533943,0.011803016997873783,0.9892916083335876,3.4429147243499756,4.791525363922119,-1.5901998281478882,1.991518497467041,4.007158279418945,0.2718847095966339,-1.3210673332214355,-0.6842512488365173,2.1288955211639404
57,33079,33078,-0.014847015962004662,-0.002522479509934783,0.965988039970398,4.422470569610596,5.562885284423828,-1.8002930879592896,1.9895116090774536,4.006283760070801,0.2751418650150299,-1.182781457901001,-0.42337387800216675,2.14137601852417
58,33089,33088,0.02679634839296341,-0.04350072517991066,0.9452806711196899,8.166094779968262,1.6315592527389526,-1.8174065351486206,1.989116907119751,4.005189895629883,0.2762955129146576,-1.1875457763671875,-0.29050174355506897,2.1346354484558105
59,33099,33098,0.00046134612057358027,0.007320458069443703,0.9873672723770142,11.974291801452637,-4.25777006149292,-1.8530380725860596,1.988230586051941,4.0070929527282715,0.27739906311035156,-1.1773285865783691,-0.3899748921394348,2.073641777038574
60,33109,33108,0.011435145512223244,0.0021365894936025143,0.9730120301246643,12.519363403320312,-9.22387981414795,-1.5379860401153564,1.9879473447799683,4.007868766784668,0.27758002281188965,-1.0766651630401611,-0.28865766525268555,2.0481009483337402
61,33119,33118,-0.04717590659856796,0.04371241480112076,0.9924488663673401,13.187405586242676,-14.144466400146484,-1.8712897300720215,1.9882978200912476,4.007469654083252,0.2785700559616089,-1.0210704803466797,-0.09589346498250961,2.048245668411255
62,33129,33128,0.028708619996905327,0.10468032211065292,0.9531762003898621,12.171370506286621,-13.395855903625488,-1.6988825798034668,1.9883543252944946,4.008973121643066,0.27951744198799133,-0.87114018201828,0.009600725024938583,2.024937629699707
63,33139,33138,0.03820309415459633,0.011116527952253819,0.9653993844985962,11.292903900146484,-12.007401466369629,-1.422819972038269,1.9889194965362549,4.009204864501953,0.28296762704849243,-0.8091835379600525,0.17261333763599396,2.020698308944702
64,33149,33148,-0.02681085467338562,0.023395439609885216,1.0037058591842651,8.523079872131348,-9.887574195861816,-1.5662838220596313,1.9880139827728271,4.0098748207092285,0.28402185440063477,-0.612776517868042,0.3040367364883423,2.008943557739258
65,33159,33158,0.00034387363120913506,-0.011329147033393383,0.9579375386238098,6.564766883850098,-7.713146209716797,-1.8811378479003906,1.9874359369277954,4.013429164886475,0.28498682379722595,-0.5350005626678467,0.16252461075782776,1.9455255270004272
66,33169,33168,-0.0001087497003027238,-0.08466141670942307,0.9270415306091309,5.014065265655518,-4.737222671508789,-1.4301741123199463,1.9869698286056519,4.013050079345703,0.2853134274482727,-0.4255773425102234,0.3149597644805908,1.948084831237793
67,33179,33178,-0.07806065678596497,-0.11185018718242645,0.9609465003013611,4.714256286621094,-2.155973196029663,-1.6755491495132446,1.9864087104797363,4.015166759490967,0.2861597537994385,-0.3482763171195984,0.2969706654548645,1.91947603225708
68,33189,33188,-0.15963029861450195,-0.06727878004312515,0.9810358285903931,5.408263683319092,-1.4171873331069946,-1.6349645853042603,1.9863325357437134,4.015591144561768,0.28703826665878296,-0.3720540702342987,0.4459565281867981,1.917252779006958
69,33199,33198,-0.02600027248263359,-0.030341902747750282,0.9596635103225708,5.835662364959717,-0.14889885485172272,-1.9152514934539795,1.9872469902038574,4.016676902770996,0.2878250777721405,-0.4299471378326416,0.4338360130786896,1.8868266344070435
70,33209,33208,-0.0652841180562973,0.04474927484989166,0.9384338855743408,5.817315101623535,-0.990433931350708,-1.7719700336456299,1.9869024753570557,4.017151832580566,0.2893352806568146,-0.3808785378932953,0.5123252868652344,1.872727632522583
71,33219,33218,-0.042540308088064194,0.0885525643825531,0.9607951045036316,5.779726505279541,-3.166658401489258,-1.64085054397583,1.9873043298721313,4.016739368438721,0.29012200236320496,-0.3982190191745758,0.6616719365119934,1.8688199520111084
72,33229,33228,-0.024082057178020477,0.015551230870187283,0.9804345369338989,6.014529705047607,-5.279099464416504,-1.5160833597183228,1.9869621992111206,4.01733922958374,0.29088690876960754,-0.31430932879447937,0.648074746131897,1.845194935798645
73,33239,33238,0.011883220635354519,-0.08916155993938446,0.9560794830322266,5.636847496032715,-7.620534420013428,-1.149182677268982,1.9868228435516357,4.016470909118652,0.2861494719982147,-0.27252599596977234,0.7893080711364746,1.8401141166687012
74,33249,33248,-0.0024390413891524076,-0.04633327201008797,0.957023024559021,4.439511299133301,-7.662589073181152,-1.2954331636428833,1.9871937036514282,4.017554759979248,0.2865433394908905,-0.19140949845314026,0.8392651081085205,1.8235493898391724
75,33259,33258,0.013810591772198677,-0.07248459756374359,0.9304794073104858,2.7149817943573,-8.21254825592041,-1.4453827142715454,1.9860249757766724,4.0161452293396,0.28681957721710205,-0.039351556450128555,0.9340531826019287,1.8244004249572754
76,33269,33268,-0.006683690939098597,-0.03598591685295105,0.9697679281234741,0.5889469981193542,-7.000057220458984,-1.284625768661499,1.9869015216827393,4.017220497131348,0.2891945242881775,-0.05297963321208954,0.9122867584228516,1.7959240674972534
77,33279,33278,0.00948322657495737,-0.09349197149276733,1.0069020986557007,-1.8013254404067993,-4.7059550285339355,-1.1773754358291626,1.9865243434906006,4.017643451690674,0.2895483374595642,0.07885961979627609,0.9338303208351135,1.7950867414474487
78,33289,33288,0.03268345072865486,-0.05106261372566223,0.9839217066764832,-3.8558144569396973,-1.4607328176498413,-1.5826722383499146,1.9854817390441895,4.018892288208008,0.28990694880485535,0.14076420664787292,0.8287827968597412,1.7786779403686523
79,33299,33298,0.003120230743661523,0.0837683230638504,0.996548056602478,-4.061176776885986,-0.33892548084259033,-1.394494652748108,1.9864444732666016,4.019192218780518,0.29032546281814575,0.0008135890238918364,0.7874452471733093,1.743526577949524
80,33309,33308,-0.023581447079777718,-0.06031987816095352,0.9992790222167969,-1.3806089162826538,-0.5092254877090454,-1.229718804359436,1.986291766166687,4.0199737548828125,0.2941601574420929,0.05582887679338455,0.7793856263160706,1.7373976707458496
81,33319,33318,-0.02115560881793499,-0.04633670300245285,1.0024394989013672,-0.28435882925987244,-1.0443884134292603,-1.0819625854492188,1.9860877990722656,4.019487380981445,0.2947247326374054,0.08200228959321976,0.8704675436019897,1.7349742650985718
82,33329,33328,0.0074575915932655334,-0.028443871065974236,0.9744285941123962,0.6676090359687805,-2.3596818447113037,-1.2360777854919434,1.98538339138031,4.021341323852539,0.29525986313819885,0.1212308332324028,0.8830954432487488,1.7279239892959595
83,33339,33338,-0.0726160928606987,0.08160646259784698,1.0022672414779663,1.3020081520080566,-4.735940933227539,-1.0355995893478394,1.9848525524139404,4.020694732666016,0.29464247822761536,0.2221013456583023,0.9234400391578674,1.7232259511947632
84,33349,33348,-0.03906996548175812,0.10946433246135712,0.9742125868797302,-1.3514630794525146,-3.764787197113037,-0.6632134318351746,1.9864064455032349,4.02213191986084,0.2951323390007019,0.15232259035110474,0.9238215684890747,1.6955209970474243
85,33359,33358,0.006234205327928066,0.031987376511096954,1.005372405052185,-2.9289116859436035,-3.2215046882629395,-0.19133806228637695,1.9872888326644897,4.022599220275879,0.29557305574417114,0.15622536838054657,0.8920405507087708,1.6842514276504517
86,33369,33368,0.021665919572114944,0.10554398596286774,0.9814577102661133,-4.655269145965576,-2.31986141204834,-0.27177751064300537,1.9878332614898682,4.023452281951904,0.2934160530567169,0.14012986421585083,0.8222532868385315,1.6738324165344238
87,33379,33378,0.013936417177319527,-0.05658724904060364,0.9701536297798157,-6.1916375160217285,-2.9244577884674072,-0.22461684048175812,1.9872994422912598,4.023850440979004,0.29367703199386597,0.21590302884578705,0.727666974067688,1.6788508892059326
88,33389,33388,-0.03235354647040367,-0.09594220668077469,1.0036431550979614,-4.448395729064941,-4.097638130187988,-0.7478505969047546,1.9877567291259766,4.021596431732178,0.29392778873443604,0.2395239621400833,0.8077414631843567,1.6700860261917114
89,33399,33398,-0.05536903068423271,-0.08748102933168411,0.986214280128479,-4.023218154907227,-4.59933614730835,-0.7204046249389648,1.9868265390396118,4.02131986618042,0.2942085564136505,0.35796409845352173,0.8103254437446594,1.6716561317443848
90,33409,33408,-0.0024672201834619045,-0.02738087996840477,0.9899813532829285,-5.516656398773193,-3.799466133117676,-1.1290075778961182,1.9861652851104736,4.021768093109131,0.2947119474411011,0.3674280047416687,0.6465182900428772,1.6576179265975952
91,33419,33418,-0.01711733639240265,0.029460184276103973,0.986569344997406,-6.966776371002197,-1.8712579011917114,-1.817254900932312,1.9861665964126587,4.021896839141846,0.2949528396129608,0.4224070608615875,0.612628161907196,1.6472623348236084
92,33429,33428,0.010401383973658085,-0.08618176728487015,0.9880368709564209,-5.878885746002197,-3.0866565704345703,-0.6323667168617249,1.9852033853530884,4.022404670715332,0.29512670636177063,0.4873292148113251,0.5077110528945923,1.6453742980957031
93,33439,33438,0.007058368530124426,-0.10456420481204987,1.017899751663208,-3.7277021408081055,-2.4202561378479004,-0.6953960061073303,1.9846627712249756,4.021029949188232,0.295322060585022,0.5479581356048584,0.5089683532714844,1.6417850255966187
94,33449,33448,0.025592900812625885,-0.03311270475387573,0.9695357084274292,-1.1976568698883057,-2.1816225051879883,-0.33715033531188965,1.9861626625061035,4.021559238433838,0.2955838441848755,0.43360331654548645,0.46164482831954956,1.6166304349899292
95,33459,33458,0.018722010776400566,-0.0488758347928524,1.0026307106018066,0.47539395093917847,-2.283006191253662,-0.45374301075935364,1.9854687452316284,4.021547317504883,0.2958071827888489,0.47728654742240906,0.453331857919693,1.6132087707519531
96,33469,33468,0.06683811545372009,-0.061167363077402115,0.9752355217933655,0.8719100952148438,-2.9137630462646484,-0.3047102391719818,1.9849337339401245,4.02109956741333,0.2965375781059265,0.5096365809440613,0.5250229835510254,1.6144373416900635
97,33479,33478,0.06675530225038528,-0.06966675817966461,1.006380319595337,-0.46434351801872253,-2.888227939605713,-0.3849048614501953,1.9852893352508545,4.020778179168701,0.2967907190322876,0.48584866523742676,0.5095744132995605,1.6058783531188965
98,33489,33488,0.041370633989572525,-0.10559854656457901,1.0359573364257812,-2.333636999130249,-2.572650194168091,-0.19683903455734253,1.985210657119751,4.019351482391357,0.2969903349876404,0.548826277256012,0.5562325119972229,1.6064363718032837
99,33499,33498,0.05084245651960373,-0.10352266579866409,1.03383207321167,-4.734472274780273,-1.8256081342697144,-0.2611384093761444,1.9841537475585938,4.02128267288208,0.2961798906326294,0.6090360879898071,0.49620407819747925,1.6116697788238525
100,33509,33508,0.006988469511270523,-0.08341426402330399,1.0352033376693726,-6.722538471221924,-2.2619526386260986,-0.11698663979768753,1.983555793762207,4.0206217765808105,0.2963632345199585,0.6518250703811646,0.5443708300590515,1.6058906316757202
101,33519,33518,-0.01168926153331995,-0.0036623277701437473,0.9888512492179871,-7.53137731552124,3.191690683364868,-0.8753306269645691,1.9839199781417847,4.0213398933410645,0.29662567377090454,0.6133146286010742,0.33362752199172974,1.5954351425170898
102,33529,33528,-0.04776406288146973,-0.01792358048260212,1.0290182828903198,-8.147822380065918,5.279181003570557,-0.7643153071403503,1.9833358526229858,4.021246433258057,0.29685667157173157,0.597754180431366,0.33894744515419006,1.5932011604309082
103,33539,33538,-0.051419202238321304,0.023410681635141373,1.0388755798339844,-7.2234649658203125,9.071168899536133,-0.6115922331809998,1.983805537223816,4.02079439163208,0.2977988123893738,0.5389909148216248,0.2612415850162506,1.5847383737564087
104,33549,33548,-0.002970111323520541,0.0032275132834911346,1.0226919651031494,-6.275387763977051,15.529763221740723,0.057204172015190125,1.9830752611160278,4.01952600479126,0.29812827706336975,0.5391342043876648,0.27316874265670776,1.5771896839141846
105,33559,33558,-0.02041834406554699,0.051658280193805695,1.0223842859268188,-4.763664722442627,21.28355598449707,0.4695744514465332,1.984248399734497,4.018794536590576,0.29850271344184875,0.274747371673584,0.22195787727832794,1.5633296966552734
106,33569,33568,-0.061316635459661484,0.14366918802261353,1.0007764101028442,-3.1881465911865234,24.973031997680664,0.15462081134319305,1.9834535121917725,4.0186567306518555,0.29964280128479004,0.14892536401748657,0.19069881737232208,1.5703456401824951
107,33579,33578,0.014549119397997856,-0.018751995638012886,0.9820759296417236,-2.9053990840911865,24.227901458740234,-0.060022443532943726,1.9840586185455322,4.019327163696289,0.30008482933044434,-0.18156014382839203,0.1019115075469017,1.5693295001983643
108,33589,33588,-0.02416829764842987,0.09013793617486954,1.0191980600357056,-3.498429775238037,20.668432235717773,-0.6587303876876831,1.9827420711517334,4.018095016479492,0.30063462257385254,-0.2587451934814453,0.16817639768123627,1.5768406391143799
109,33599,33598,-0.018061313778162003,-0.04862552508711815,1.0064181089401245,-3.5228562355041504,13.90129566192627,-1.112939476966858,1.984071135520935,4.018364429473877,0.29776114225387573,-0.5816553831100464,0.06983349472284317,1.5674612522125244
110,33609,33608,-0.054569169878959656,-0.03360595926642418,1.0275901556015015,-4.502227306365967,9.176202774047852,-0.9445776343345642,1.984706997871399,4.018328666687012,0.29799598455429077,-0.7878850102424622,-0.031017083674669266,1.5553927421569824
111,33619,33618,0.09911629557609558,-0.005558291915804148,0.9628341197967529,-5.965146064758301,6.177153587341309,-0.989324688911438,1.9844015836715698,4.017980575561523,0.2983141839504242,-0.8519769906997681,-0.06439189612865448,1.5467926263809204
112,33629,33628,-0.013312840834259987,0.04995494708418846,0.9848485589027405,-5.453815460205078,2.1657135486602783,-0.8661401867866516,1.9828577041625977,4.0163254737854,0.29870912432670593,-0.7821746468544006,-0.04021678492426872,1.5461459159851074
113,33639,33638,0.03720158338546753,0.030412232503294945,0.9894858002662659,-5.021618843078613,0.4460923969745636,-0.4001621901988983,1.9820046424865723,4.016653537750244,0.29979202151298523,-0.7330570220947266,-0.16609416902065277,1.539750099182129
114,33649,33648,0.03895163908600807,-0.022355126217007637,1.0197973251342773,-4.654486179351807,1.6092174053192139,-0.34517547488212585,1.9816712141036987,4.016077518463135,0.30008766055107117,-0.7484405040740967,-0.13271836936473846,1.540480375289917
115,33659,33658,-0.008644238114356995,-0.0403309166431427,0.9903850555419922,-4.540951251983643,6.20225191116333,-0.086265429854393,1.9817880392074585,4.015670299530029,0.30038905143737793,-0.7965821027755737,-0.25156208872795105,1.533852458000183
116,33669,33668,-0.003672827733680606,0.07217756658792496,1.0152720212936401,-2.8849658966064453,10.024106979370117,-0.6267054080963135,1.9821258783340454,4.015896797180176,0.3035646080970764,-0.9041719436645508,-0.2756328582763672,1.5327880382537842
117,33679,33678,-0.006178571842610836,0.028624320402741432,1.019985318183899,-3.160097599029541,14.218127250671387,-0.7168884873390198,1.981758952140808,4.015341758728027,0.304036945104599,-1.004111409187317,-0.28521546721458435,1.5302364826202393
118,33689,33688,0.04524579644203186,-0.058326154947280884,0.9733971953392029,-3.964466094970703,14.096529960632324,-1.2283210754394531,1.9823150634765625,4.015689849853516,0.3045380115509033,-1.22496497631073,-0.3742879033088684,1.5173497200012207
119,33699,33698,0.08993619680404663,-0.1025017499923706,0.9809290766716003,-4.754364967346191,10.753847122192383,-1.566675066947937,1.9804280996322632,4.015417098999023,0.3072037398815155,-1.1369394063949585,-0.32535409927368164,1.5139966011047363
120,33709,33708,-0.0022578283678740263,-0.02173762023448944,1.0131099224090576,-3.6835618019104004,5.179757595062256,-1.9135713577270508,1.9809268712997437,4.014955520629883,0.3078143298625946,-1.3026231527328491,-0.43459975719451904,1.4932301044464111
121,33719,33718,0.03313551843166351,-0.04819502681493759,1.0117989778518677,-2.816023588180542,0.9769322276115417,-2.6673970222473145,1.9807493686676025,4.014332294464111,0.3084558844566345,-1.3805508613586426,-0.44822627305984497,1.4761886596679688
122,33729,33728,0.0630243644118309,-0.05856982618570328,0.966238260269165,0.6647880673408508,-1.7857855558395386,-2.578547477722168,1.9810470342636108,4.013524532318115,0.3090977072715759,-1.392742395401001,-0.43300309777259827,1.4567395448684692
123,33739,33738,0.01848379150032997,0.018298804759979248,0.971448540687561,2.191956043243408,-1.7222397327423096,-2.8947017192840576,1.9810012578964233,4.012712478637695,0.3085952401161194,-1.377931833267212,-0.38378003239631653,1.434997797012329
124,33749,33748,-0.003397346707060933,-0.022089269012212753,0.9655572772026062,3.66683030128479,-0.4242371618747711,-2.8344473838806152,1.9813770055770874,4.011867046356201,0.30912524461746216,-1.4281316995620728,-0.3801823556423187,1.405527949333191
125,33759,33758,0.026067079976201057,-0.028747987002134323,0.9255282282829285,2.685676336288452,3.655583143234253,-2.8595564365386963,1.9815293550491333,4.010820388793945,0.3096027672290802,-1.4312968254089355,-0.36502301692962646,1.3738927841186523
126,33769,33768,0.002784136449918151,-0.04482029750943184,0.9514754414558411,-0.8957887887954712,6.335417747497559,-2.959559917449951,1.9815093278884888,4.0117106437683105,0.3078747093677521,-1.4972203969955444,-0.37354138493537903,1.3400013446807861
127,33779,33778,-0.003315688343718648,-0.037569716572761536,0.9647201895713806,-3.3143997192382812,7.621231555938721,-2.6681785583496094,1.9822689294815063,4.011835098266602,0.3081316351890564,-1.5838344097137451,-0.4200635254383087,1.3022289276123047
128,33789,33788,-0.02600569650530815,-0.019954964518547058,0.9894158840179443,-4.78125,6.3236846923828125,-2.8202691078186035,1.9825217723846436,4.011297225952148,0.30835774540901184,-1.6656394004821777,-0.4231584072113037,1.2795344591140747
129,33799,33798,-0.017864400520920753,-0.07262539863586426,0.9906856417655945,-3.712893009185791,3.268486499786377,-2.892091989517212,1.983043909072876,4.011562824249268,0.3093327283859253,-1.7209947109222412,-0.5216251015663147,1.2404519319534302
130,33809,33808,0.010783644393086433,0.0037900148890912533,1.0041697025299072,-0.5878473520278931,-0.23646925389766693,-2.924415111541748,1.9846268892288208,4.009432792663574,0.30946341156959534,-1.8775279521942139,-0.4426293671131134,1.2462159395217896
131,33819,33818,-0.01807175576686859,0.1362636834383011,1.0112171173095703,3.0334553718566895,-3.6883604526519775,-3.1983225345611572,1.9845564365386963,4.009571552276611,0.3097834587097168,-1.8120014667510986,-0.4753997027873993,1.2080379724502563
132,33829,33828,0.0056658415123820305,0.16391290724277496,0.982703447341919,4.62061071395874,-5.786442756652832,-3.250981330871582,1.985681414604187,4.008745193481445,0.3099324107170105,-1.8463921546936035,-0.4549803137779236,1.180745244026184
133,33839,33838,0.024196933954954147,0.18332017958164215,1.0065940618515015,5.718969345092773,-8.372966766357422,-3.3144328594207764,1.9868149757385254,4.00933313369751,0.3097343146800995,-1.834743618965149,-0.477188378572464,1.1367905139923096
134,33849,33848,0.011894098483026028,-0.02574532851576805,0.9692621231079102,2.6656737327575684,-9.835803031921387,-3.0693113803863525,1.9880346059799194,4.009024143218994,0.309923380613327,-1.773159146308899,-0.41526350378990173,1.1076889038085938
135,33859,33858,-0.019554689526557922,-0.012686405330896378,0.992176353931427,2.5175940990448,-9.974386215209961,-3.1612741947174072,1.98770010471344,4.008869647979736,0.3102172911167145,-1.614143967628479,-0.3854597210884094,1.069929599761963
136,33869,33868,-0.11496630311012268,0.050609733909368515,0.9721895456314087,-1.4072010517120361,-7.509279251098633,-2.7271006107330322,1.987243890762329,4.009056091308594,0.3105922341346741,-1.4679197072982788,-0.38215726613998413,1.0329217910766602
137,33879,33878,-0.08601705729961395,0.11063180863857269,0.9749178290367126,-1.9187688827514648,-5.284852027893066,-2.737896203994751,1.9870299100875854,4.00913143157959,0.3107767701148987,-1.356823444366455,-0.4088069796562195,0.9921244382858276
138,33889,33888,-0.026858018711209297,0.08328165858983994,0.9427517056465149,-2.7287330627441406,-1.8640694618225098,-2.718947172164917,1.9902594089508057,4.009348392486572,0.31077104806900024,-1.521270990371704,-0.38253670930862427,0.9895527362823486
139,33899,33898,-0.01835656724870205,0.03793717175722122,0.9553468227386475,-2.071424961090088,1.2978838682174683,-2.2449193000793457,1.9911274909973145,4.009111404418945,0.30987057089805603,-1.486661434173584,-0.4439306855201721,0.954345703125
140,33909,33908,-0.014770571142435074,0.05799880623817444,0.9692811369895935,-0.4781164824962616,1.0168702602386475,-2.5488290786743164,1.9912782907485962,4.009431838989258,0.309929758310318,-1.4093799591064453,-0.48686763644218445,0.9224275350570679
141,33919,33918,-0.02017071098089218,-0.05968944728374481,1.0091962814331055,1.938420295715332,-1.4018912315368652,-2.6004419326782227,1.9923248291015625,4.010079860687256,0.30993345379829407,-1.3937362432479858,-0.49868398904800415,0.8955092430114746
142,33929,33928,-0.06772926449775696,-0.11019336432218552,1.0614029169082642,3.9132273197174072,-3.681481122970581,-2.2780230045318604,1.9936693906784058,4.009200096130371,0.30849045515060425,-1.472290277481079,-0.3938814401626587,0.8978703618049622
143,33939,33938,-0.021514561027288437,-0.19635654985904694,1.0031054019927979,5.330469131469727,-6.113620281219482,-2.4799952507019043,1.9937677383422852,4.009423732757568,0.30846479535102844,-1.35027015209198,-0.3416060209274292,0.8747119903564453
144,33949,33948,-0.003333791857585311,-0.10221025347709656,1.0078991651535034,4.605702877044678,-8.64319133758545,-2.1620755195617676,1.9939099550247192,4.008578300476074,0.3084513247013092,-1.2032727003097534,-0.27624058723449707,0.8503217101097107
145,33959,33958,0.021024618297815323,-0.031278982758522034,0.997948169708252,4.698559284210205,-10.14061450958252,-2.241481065750122,1.9961334466934204,4.008088111877441,0.30825814604759216,-1.263104796409607,-0.2151365429162979,0.840775728225708
146,33969,33968,0.03234773501753807,-0.025637373328208923,1.0151546001434326,3.9651174545288086,-12.1806001663208,-1.3854475021362305,1.9942576885223389,4.008041858673096,0.309565007686615,-0.9806349873542786,-0.16126291453838348,0.807387113571167
147,33979,33978,-0.015273677185177803,-0.01844395324587822,1.0401300191879272,2.804816484451294,-14.510614395141602,-0.6916537284851074,1.996225357055664,4.008484840393066,0.3095684051513672,-0.9820781350135803,-0.19133299589157104,0.7849528193473816
148,33989,33988,0.05819148197770119,-0.04364750161767006,0.9906834959983826,2.489086389541626,-14.19869613647461,0.2115710973739624,1.9975559711456299,4.0089287757873535,0.30959010124206543,-0.8753796219825745,-0.23065294325351715,0.7638438940048218
149,33999,33998,-0.016135498881340027,-0.0881882831454277,1.05706787109375,2.4046666622161865,-13.555404663085938,0.9020445942878723,1.9981452226638794,4.008923053741455,0.3063478469848633,-0.6728661060333252,-0.19017839431762695,0.7618862390518188
150,34009,34008,0.017113156616687775,-0.01043028850108385,0.9830913543701172,4.084366321563721,-10.686190605163574,1.5930622816085815,1.9986077547073364,4.008655548095703,0.30626580119132996,-0.5164512991905212,-0.1471496969461441,0.772267758846283
151,34019,34018,0.022225461900234222,-0.011200366541743279,0.9641891717910767,3.2558915615081787,-7.94780969619751,2.1105072498321533,2.001429557800293,4.008769512176514,0.3061007857322693,-0.5741460919380188,-0.10074275732040405,0.7938315272331238
152,34029,34028,-0.07129041105508804,0.004755950532853603,1.0251821279525757,2.088622570037842,-4.494162559509277,2.993952512741089,2.000922441482544,4.008152008056641,0.30779483914375305,-0.323695570230484,-0.05628383159637451,0.8073365092277527
153,34039,34038,-0.0610923208296299,-0.06721200793981552,1.061655879020691,-0.20466335117816925,-1.6047340631484985,4.117661952972412,2.003152370452881,4.008745193481445,0.3077508807182312,-0.3585551679134369,-0.03456474095582962,0.8384277820587158
154,34049,34048,-0.021901298314332962,-0.08151240646839142,1.0385950803756714,-0.7813448905944824,-0.3163752853870392,4.903945446014404,2.004129409790039,4.009067535400391,0.30782338976860046,-0.2857108414173126,-0.044880177825689316,0.8743407726287842
155,34059,34058,-0.04490652307868004,0.08393144607543945,1.0307282209396362,-0.5906098484992981,-0.4429387152194977,5.5904154777526855,2.0047810077667236,4.00887393951416,0.30794426798820496,-0.23715998232364655,-0.06299412995576859,0.9231922030448914
156,34069,34068,0.023196369409561157,0.07429450005292892,0.9502178430557251,-0.12789052724838257,-3.487140655517578,6.015183448791504,2.0072360038757324,4.009582042694092,0.30829817056655884,-0.4236069321632385,-0.0803745836019516,0.9804636836051941
157,34079,34078,-0.049805983901023865,0.039636336266994476,1.0413709878921509,1.0113667249679565,-5.693619251251221,6.186826705932617,2.0074479579925537,4.008875370025635,0.30850768089294434,-0.31520509719848633,-0.08325397223234177,1.0381063222885132
158,34089,34088,0.032710518687963486,-0.05831588804721832,1.0128788948059082,1.0346429347991943,-8.946208000183105,6.070444107055664,2.008861541748047,4.008798122406006,0.30859261751174927,-0.3312532305717468,-0.07674026489257812,1.0970478057861328
159,34099,34098,-0.05130068585276604,-0.05463651567697525,1.0257489681243896,1.5422947406768799,-10.775430679321289,7.346277713775635,2.008823871612549,4.008061408996582,0.3089236319065094,-0.13934525847434998,-0.06468892097473145,1.1527814865112305
160,34109,34108,-0.0325632281601429,-0.056891921907663345,0.9614250659942627,2.7974040508270264,-10.157797813415527,8.55665111541748,2.010568618774414,4.008019924163818,0.30908510088920593,-0.07333555817604065,-0.038098644465208054,1.2294784784317017
161,34119,34118,-0.0716153085231781,-0.004995252471417189,1.0020052194595337,3.4088172912597656,-9.027689933776855,8.896795272827148,2.010920763015747,4.006897449493408,0.30934786796569824,0.13124948740005493,0.005159460008144379,1.3057769536972046
162,34129,34128,-0.05965639278292656,-0.006651200354099274,1.0040992498397827,1.7250670194625854,-6.27998685836792,9.845627784729004,2.012406826019287,4.006277084350586,0.306569904088974,0.14050908386707306,0.037880659103393555,1.4013166427612305
163,34139,34138,0.07339409738779068,-0.08479194343090057,0.9778602719306946,-0.3560645282268524,-3.693843126296997,10.995748519897461,2.0138041973114014,4.008858680725098,0.30651265382766724,0.11088427156209946,-0.029742714017629623,1.510209321975708
164,34149,34148,0.05025477334856987,-0.050319746136665344,1.0005426406860352,-4.585737228393555,-1.0843005180358887,10.840434074401855,2.013705253601074,4.008438587188721,0.30661702156066895,0.26909226179122925,-0.057264164090156555,1.6174286603927612
165,34159,34158,0.0033500995486974716,-0.026547903195023537,0.9898948073387146,-5.697190761566162,0.0012945029884576797,12.120193481445312,2.0165796279907227,4.009232044219971,0.30994606018066406,0.08097140491008759,-0.14133194088935852,1.7281639575958252
166,34169,34168,0.05245423689484596,-0.16110296547412872,1.0084730386734009,-4.705204486846924,-1.708326816558838,13.061415672302246,2.0164077281951904,4.008073806762695,0.31025445461273193,0.22278578579425812,-0.15357856452465057,1.840765357017517
167,34179,34178,-0.002743195742368698,-0.10822462290525436,1.051370620727539,-2.029790163040161,-2.7963016033172607,13.0857572555542,2.0173895359039307,4.007732391357422,0.31043004989624023,0.23718678951263428,-0.21858637034893036,1.9650737047195435
168,34189,34188,-0.037885796278715134,-0.014276568777859211,0.9910357594490051,2.939089775085449,-5.055955410003662,13.123170852661133,2.0174362659454346,4.007190704345703,0.31081128120422363,0.40805014967918396,-0.15310890972614288,2.0902435779571533
169,34199,34198,-0.05930110812187195,0.11342474818229675,0.9522643685340881,2.719860792160034,-1.1995933055877686,14.564908981323242,2.0189449787139893,4.0072021484375,0.3107554018497467,0.3973740041255951,-0.11725602298974991,2.222179889678955
170,34209,34208,0.028650090098381042,-0.08822241425514221,0.9911522269248962,4.204071998596191,-1.3584513664245605,14.479531288146973,2.01867938041687,4.006830215454102,0.3110223710536957,0.5442853569984436,-0.06343678385019302,2.3663482666015625
171,34219,34218,-0.03184053674340248,0.006302918307483196,1.0659899711608887,2.9099793434143066,-1.6389943361282349,14.117050170898438,2.0188684463500977,4.007721424102783,0.3112262785434723,0.6131595373153687,-0.08416317403316498,2.520287275314331
172,34229,34228,-0.04507031664252281,0.13705676794052124,0.9509179592132568,0.43911030888557434,-0.7421166300773621,14.136646270751953,2.019318103790283,4.006587982177734,0.31232768297195435,0.6509666442871094,0.037112046033144,2.649325370788574
173,34239,34238,-0.010174812749028206,0.03932023048400879,0.9907812476158142,-3.3032515048980713,-0.6090582609176636,13.191031455993652,2.020184278488159,4.0085835456848145,0.31259414553642273,0.5873368978500366,-0.0674935057759285,2.8092596530914307
174,34249,34248,-0.014347739517688751,0.02763865888118744,0.9965409636497498,-6.893696308135986,-0.32245728373527527,13.646347045898438,2.0222370624542236,4.008350849151611,0.3127692639827728,0.45730718970298767,-0.07172659784555435,2.9384145736694336
175,34259,34258,0.03507852181792259,-0.08352919667959213,1.0171303749084473,-8.09062385559082,1.4832837581634521,13.506208419799805,2.021899938583374,4.008742332458496,0.31745249032974243,0.5793596506118774,-0.18965518474578857,3.0821573734283447
176,34269,34268,-0.01135343685746193,-0.02727578394114971,1.006179928779602,-7.545534133911133,4.290215969085693,13.327774047851562,2.0231926441192627,4.008535385131836,0.3179641366004944,0.55709308385849,-0.24415798485279083,3.214698076248169
177,34279,34278,0.0008425281848758459,-0.0031632008031010628,0.9744998216629028,-6.234079360961914,5.82083797454834,12.253602981567383,2.0240020751953125,4.0082926750183105,0.31848469376564026,0.4936061501502991,-0.2922240197658539,3.334785223007202
178,34289,34288,-0.009905757382512093,-0.03354044631123543,0.9625191688537598,-4.223312854766846,6.049299716949463,11.757445335388184,2.025338649749756,4.008409023284912,0.31894898414611816,0.41474649310112,-0.39463114738464355,3.462709426879883
179,34299,34298,-0.03395138680934906,0.007493332028388977,0.9819551706314087,-2.253077745437622,6.635866165161133,10.440747261047363,2.02545428276062,4.008580207824707,0.3169698417186737,0.32078614830970764,-0.3813777565956116,3.575516700744629
180,34309,34308,0.0008547126781195402,-0.05956671014428139,0.9505185484886169,-1.8711650371551514,5.576430320739746,10.4441499710083,2.025853157043457,4.009203910827637,0.3173251748085022,0.29451289772987366,-0.4228528141975403,3.6882200241088867
181,34319,34318,0.03723125159740448,-0.1349785327911377,1.0063132047653198,-1.150998592376709,5.902913570404053,8.749555587768555,2.0259134769439697,4.008573055267334,0.3176506459712982,0.28122881054878235,-0.36863067746162415,3.7764840126037598
182,34329,34328,0.01943892613053322,0.02891612984240055,0.9549223184585571,-0.658383309841156,3.0372958183288574,7.931363582611084,2.026160478591919,4.008832931518555,0.31695327162742615,0.2901451587677002,-0.3827663064002991,3.862025260925293
183,34339,34338,0.003830212401226163,0.0008003523107618093,0.9420472979545593,-0.14718779921531677,2.583745241165161,6.886992454528809,2.0266003608703613,4.010523796081543,0.31715425848960876,0.24644051492214203,-0.4689854085445404,3.961336612701416
184,34349,34348,-0.018467195332050323,0.06897809356451035,0.9806186556816101,-0.8900738954544067,3.7436647415161133,6.947983741760254,2.0265140533447266,4.010288715362549,0.31736209988594055,0.28259068727493286,-0.39702484011650085,4.026151180267334
185,34359,34358,-0.02598825842142105,0.03240452706813812,0.9777935147285461,-2.450598955154419,6.424830436706543,6.942471981048584,2.026890516281128,4.011579990386963,0.31666475534439087,0.2730785310268402,-0.5025677680969238,4.112937927246094
186,34369,34368,0.06119532138109207,-0.1312621384859085,0.9199444055557251,-3.3170857429504395,9.640478134155273,6.242678165435791,2.0281169414520264,4.010524749755859,0.3167192339897156,0.20668362081050873,-0.46551513671875,4.16497802734375
187,34379,34378,0.0987791046500206,-0.0693744570016861,0.9156918525695801,-3.046172857284546,10.606826782226562,5.809812068939209,2.0283098220825195,4.010695934295654,0.3167111277580261,0.11235637962818146,-0.5189063549041748,4.218817234039307
188,34389,34388,-0.046581488102674484,0.024399975314736366,0.9131500720977783,0.3939451575279236,6.361294746398926,5.254075050354004,2.0287280082702637,4.010514259338379,0.3166448473930359,0.03356603533029556,-0.5469046831130981,4.283409118652344
189,34399,34398,-0.11921172589063644,0.12269043177366257,0.9088118076324463,2.58815598487854,5.017887115478516,5.802104949951172,2.0295867919921875,4.010270118713379,0.3169582784175873,-0.029847538098692894,-0.534747838973999,4.331947326660156
190,34409,34408,-0.055929455906152725,0.013759518042206764,0.9499000310897827,3.5877954959869385,2.5144691467285156,5.232759952545166,2.0294744968414307,4.009809970855713,0.3167355954647064,-0.04976275935769081,-0.48703092336654663,4.370458602905273
191,34419,34418,0.028028445318341255,-0.04113954305648804,0.9532767534255981,3.096435070037842,1.4263622760772705,4.668922424316406,2.0291056632995605,4.009754657745361,0.31647324562072754,-0.028664277866482735,-0.4297195374965668,4.420372009277344
192,34429,34428,-0.03206046298146248,-0.016140300780534744,0.980607271194458,4.482442378997803,0.22625595331192017,3.4218993186950684,2.0290825366973877,4.009644031524658,0.3164291977882385,-0.06385403871536255,-0.4420689344406128,4.458001613616943
193,34439,34438,0.012114268727600574,-0.04399207606911659,0.9655232429504395,3.437056541442871,1.1780089139938354,2.284130573272705,2.028913974761963,4.010008335113525,0.31611019372940063,-0.011151445098221302,-0.4443381130695343,4.486178398132324
194,34449,34448,-0.04997967183589935,0.017643572762608528,1.0146992206573486,2.3743159770965576,3.330517053604126,0.7702599763870239,2.0299224853515625,4.0101799964904785,0.31575703620910645,-0.06847107410430908,-0.38580816984176636,4.507349967956543
195,34459,34458,0.011480167508125305,-0.037275150418281555,0.968687891960144,1.3403054475784302,5.500627040863037,-0.4236454367637634,2.029818058013916,4.009594440460205,0.31295245885849,-0.07624991238117218,-0.34796392917633057,4.499074935913086
196,34469,34468,-0.038379915058612823,0.007480017375200987,1.0026909112930298,0.16421452164649963,5.996420383453369,-1.3803178071975708,2.0303313732147217,4.009196758270264,0.3124382495880127,-0.12736909091472626,-0.3333917260169983,4.484886646270752
197,34479,34478,0.05739166587591171,-0.13553310930728912,0.9686521887779236,-0.9870263934135437,6.463608741760254,-1.141730546951294,2.030587673187256,4.009280681610107,0.31193408370018005,-0.18047770857810974,-0.33270585536956787,4.473967552185059
198,34489,34488,0.035622693598270416,-0.0562652051448822,1.0393024682998657,0.960258424282074,6.021268367767334,-0.728249728679657,2.0297751426696777,4.009679794311523,0.3099699914455414,-0.22264999151229858,-0.32903853058815,4.470778942108154
199,34499,34498,-0.03607091307640076,-0.034321095794439316,0.9905057549476624,5.163534164428711,3.3219263553619385,0.43054813146591187,2.0301268100738525,4.008819580078125,0.3093607425689697,-0.25032034516334534,-0.2778274118900299,4.434823513031006
200,34509,34508,0.046305086463689804,-0.10294657200574875,0.9568940997123718,7.4738287925720215,0.923333466053009,1.4887216091156006,2.030888319015503,4.008373260498047,0.3087805211544037,-0.25035732984542847,-0.17996713519096375,4.443268299102783
201,34519,34518,-0.016639679670333862,-0.043272603303194046,0.9866269826889038,9.883906364440918,-3.2335562705993652,3.1606905460357666,2.032808780670166,4.009488105773926,0.3081050217151642,-0.43298807740211487,-0.2771152853965759,4.45827054977417
202,34529,34528,0.027440465986728668,-0.043328214436769485,0.9336658716201782,8.248512268066406,-2.660412549972534,4.042523384094238,2.0334010124206543,4.009373188018799,0.30605608224868774,-0.40373319387435913,-0.18581146001815796,4.483571529388428
203,34539,34538,-0.0414886437356472,0.05173199251294136,1.0315437316894531,7.191130638122559,-3.7877917289733887,5.97698974609375,2.0331995487213135,4.00855827331543,0.30536919832229614,-0.30054616928100586,-0.04688161239027977,4.521453857421875
204,34549,34548,0.03013475611805916,-0.003626149846240878,1.0316892862319946,8.045501708984375,-1.8237320184707642,6.993712425231934,2.0335307121276855,4.008326053619385,0.304601788520813,-0.2788611054420471,0.008502385579049587,4.563100337982178
205,34559,34558,0.024382784962654114,-0.013017147779464722,1.0045822858810425,5.86232328414917,0.6926048398017883,7.30722713470459,2.035072088241577,4.00872278213501,0.30524691939353943,-0.3544173836708069,0.14619965851306915,4.648510456085205
206,34569,34568,-0.0190545916557312,-0.024828702211380005,1.0025908946990967,3.0061745643615723,3.6242213249206543,6.504729747772217,2.035320281982422,4.008906364440918,0.30466267466545105,-0.30594882369041443,0.16283993422985077,4.710495948791504
207,34579,34578,-0.008606089279055595,0.0016760190483182669,1.0262891054153442,-1.085413932800293,3.3980324268341064,4.904521942138672,2.0363385677337646,4.009462833404541,0.30402275919914246,-0.3758811354637146,0.19934840500354767,4.782088756561279
208,34589,34588,0.006936077494174242,-0.015829002484679222,1.0898844003677368,-3.104417085647583,2.044621706008911,3.812572717666626,2.03656268119812,4.008999824523926,0.3042947053909302,-0.35452261567115784,0.1814630627632141,4.821125030517578
209,34599,34598,0.033465426415205,-0.019896596670150757,1.0166932344436646,-6.9725213050842285,-0.2349834442138672,2.515073776245117,2.036499500274658,4.008619785308838,0.3038245141506195,-0.3097556233406067,0.1212363988161087,4.848369598388672
210,34609,34608,-0.005852424073964357,-0.017806321382522583,1.0226908922195435,-9.398088455200195,-5.422587871551514,1.0732085704803467,2.038412094116211,4.009789943695068,0.3033054769039154,-0.44750529527664185,0.00724066374823451,4.886284828186035
211,34619,34618,-0.06185861676931381,-0.003210707101970911,1.0726900100708008,-9.16590404510498,-11.22490119934082,-1.3372074365615845,2.037970542907715,4.011106491088867,0.30292177200317383,-0.3320815861225128,-0.1295451819896698,4.928818702697754
212,34629,34628,-0.016934925690293312,0.11290905624628067,1.0224968194961548,-5.610745906829834,-16.188138961791992,-2.01890230178833,2.0380399227142334,4.0103960037231445,0.3022979199886322,-0.14136485755443573,-0.09555310010910034,4.911413669586182
213,34639,34638,0.00256769685074687,0.03289039433002472,1.0656355619430542,-0.19981993734836578,-17.0958194732666,-2.5741195678710938,2.0374436378479004,4.011687278747559,0.3019605576992035,0.10213018953800201,-0.23153606057167053,4.9066901206970215
214,34649,34648,-0.054213088005781174,-0.040278200060129166,1.0891900062561035,2.0631659030914307,-14.694817543029785,-2.3829140663146973,2.0385591983795166,4.012019157409668,0.3016861379146576,0.1924164593219757,-0.21529360115528107,4.888615131378174
215,34659,34658,0.050733160227537155,0.00491510983556509,0.9640455842018127,2.783235788345337,-10.083544731140137,-3.766294479370117,2.040506362915039,4.013460636138916,0.30547311902046204,0.16500158607959747,-0.16245818138122559,4.8916144371032715
216,34669,34668,-0.020331820473074913,0.008724264800548553,1.053135633468628,0.3355748653411865,-6.589203357696533,-4.304130554199219,2.040858507156372,4.012752532958984,0.3055223822593689,0.306742399930954,-0.11815526336431503,4.853710174560547
217,34679,34678,-0.008715817704796791,0.07228405773639679,1.1143028736114502,-2.942888021469116,-1.789624571800232,-5.588444709777832,2.040894031524658,4.013451099395752,0.30556344985961914,0.3800323009490967,-0.12365304678678513,4.811959266662598
218,34689,34688,-0.014986964873969555,0.04532435163855553,1.0723388195037842,-4.67000675201416,4.512389183044434,-5.9317193031311035,2.0408880710601807,4.014195919036865,0.30513498187065125,0.44770851731300354,-0.16466867923736572,4.774047374725342
219,34699,34698,-0.004173182882368565,-0.06136390566825867,1.0444905757904053,-6.23507022857666,10.482121467590332,-6.324658393859863,2.042097568511963,4.014967441558838,0.30529940128326416,0.33096495270729065,-0.23591141402721405,4.70903205871582
220,34709,34708,-0.009093532338738441,0.055457256734371185,1.0097581148147583,-5.983501434326172,19.2231502532959,-7.103035926818848,2.041780471801758,4.01544713973999,0.3055713474750519,0.30777621269226074,-0.3230593800544739,4.667972087860107
221,34719,34718,-0.038753196597099304,-0.007425263058394194,1.0517497062683105,-3.5611579418182373,24.225505828857422,-5.8439531326293945,2.0435140132904053,4.015354156494141,0.30583319067955017,0.01192733645439148,-0.3153952658176422,4.592140197753906
222,34729,34728,-0.06110602989792824,0.06221000850200653,1.0390913486480713,0.4787176549434662,26.432418823242188,-4.7152099609375,2.04508638381958,4.015739440917969,0.30437299609184265,-0.34519824385643005,-0.34060776233673096,4.534440040588379
223,34739,34738,-0.007076886482536793,0.023888733237981796,1.0376214981079102,4.502443313598633,22.82076644897461,-2.6613876819610596,2.044205665588379,4.0160040855407715,0.30491000413894653,-0.38751447200775146,-0.36883485317230225,4.487138748168945
224,34749,34748,-0.020423706620931625,-0.01432726252824068,1.03986656665802,5.979581832885742,14.828673362731934,-1.4826456308364868,2.0444555282592773,4.016479015350342,0.30521973967552185,-0.5917922258377075,-0.34896165132522583,4.45347261428833
225,34759,34758,-0.022136854007840157,0.0692720040678978,0.9831876158714294,6.439794540405273,7.002519607543945,-1.5970615148544312,2.045064687728882,4.015792369842529,0.3068286180496216,-0.7561524510383606,-0.23173637688159943,4.433288097381592
226,34769,34768,-0.039729226380586624,0.0673755407333374,1.0409082174301147,4.63151216506958,-1.1723227500915527,-1.0032004117965698,2.044928789138794,4.015527725219727,0.30727651715278625,-0.7688474059104919,-0.20048388838768005,4.404944896697998
227,34779,34778,0.016964886337518692,-0.01301103737205267,0.9970541000366211,-2.1090967655181885,-7.561410427093506,-0.7041297554969788,2.044276237487793,4.015622138977051,0.3078056573867798,-0.6609886884689331,-0.15265341103076935,4.396785736083984
228,34789,34788,-0.05234944820404053,0.08512205630540848,0.9794620275497437,-9.206584930419922,-10.818889617919922,-2.185589075088501,2.0437517166137695,4.016496658325195,0.3074895143508911,-0.4881270229816437,-0.28876057267189026,4.377340793609619
229,34799,34798,0.013848061673343182,-0.023059504106640816,0.942823052406311,-12.421093940734863,-11.327424049377441,-3.5082836151123047,2.045029878616333,4.016886234283447,0.3078494071960449,-0.513941764831543,-0.3607847988605499,4.363122463226318
230,34809,34808,0.0899701938033104,-0.03712564334273338,0.9955681562423706,-11.558403015136719,-8.166017532348633,-4.760351657867432,2.0456323623657227,4.0182061195373535,0.3081502318382263,-0.4672282040119171,-0.5417219996452332,4.341003894805908
231,34819,34818,0.009328090585768223,0.008092803880572319,1.0191833972930908,-6.300629138946533,-2.8614866733551025,-7.10884428024292,2.045880079269409,4.017219543457031,0.30898985266685486,-0.3964865505695343,-0.5887212157249451,4.276669502258301
232,34829,34828,0.001628209836781025,-0.12178673595190048,1.0538136959075928,0.03635493293404579,4.432569980621338,-8.869011878967285,2.0458972454071045,4.0182623863220215,0.3093731701374054,-0.33714208006858826,-0.6288029551506042,4.23541259765625
233,34839,34838,0.02499840036034584,-0.17837460339069366,0.9823117852210999,6.254305839538574,11.666446685791016,-11.13369369506836,2.0460922718048096,4.0180182456970215,0.30977287888526917,-0.3907385766506195,-0.5606509447097778,4.164985656738281
234,34849,34848,-0.05691371485590935,0.02149214595556259,1.0020304918289185,9.435494422912598,18.411727905273438,-13.053290367126465,2.0474112033843994,4.01807975769043,0.31015530228614807,-0.5641894936561584,-0.41741910576820374,4.05903959274292
235,34859,34858,-0.030752884224057198,0.03490891680121422,0.9909204840660095,7.5715765953063965,21.740243911743164,-13.770054817199707,2.0480175018310547,4.018771648406982,0.31015151739120483,-0.7490888237953186,-0.4092455506324768,3.9206316471099854
236,34869,34868,0.025532815605401993,-0.0271433237940073,0.9576038718223572,1.942137360572815,19.91368293762207,-15.137831687927246,2.0479235649108887,4.019209384918213,0.3106039762496948,-0.8862595558166504,-0.37135645747184753,3.772003412246704
237,34879,34878,0.021786924451589584,-0.0732666477560997,0.9626645445823669,-5.354808330535889,12.569598197937012,-17.57107925415039,2.048865556716919,4.020297050476074,0.31089019775390625,-1.1208336353302002,-0.43431538343429565,3.6169161796569824
238,34889,34888,0.00023271533427760005,-0.15143923461437225,1.0050921440124512,-7.690096378326416,2.652980327606201,-19.537506103515625,2.048567771911621,4.020620822906494,0.3086850047111511,-1.2061399221420288,-0.5046678185462952,3.4364209175109863
239,34899,34898,0.021897312253713608,-0.08976665884256363,0.9619718194007874,-2.7914645671844482,-7.557705879211426,-20.622299194335938,2.048274517059326,4.020855903625488,0.3089439570903778,-1.1199898719787598,-0.5673331022262573,3.2384824752807617
