,timestamp_start,timestamp_end,acc.x,acc.y,acc.z,gyro.x,gyro.y,gyro.z,stateEstimate.x,stateEstimate.y,stateEstimate.z,stabilizer.pitch,stabilizer.roll,stabilizer.yaw
0,27684,27679,-0.02297089248895645,0.0037391644436866045,1.0384923219680786,3.941087007522583,3.4265010356903076,-0.5384132266044617,1.987788200378418,4.070390701293945,0.16840799152851105,-0.38416939973831177,-0.8222779035568237,2.1637074947357178
1,27694,27689,0.0010954135796055198,0.023673195391893387,1.062442660331726,3.9272661209106445,1.2955557107925415,-1.5227651596069336,1.9858613014221191,4.071537971496582,0.16978003084659576,-0.456375390291214,-0.760266900062561,2.165005683898926
2,27704,27699,0.02772764302790165,-0.0445706881582737,1.1628289222717285,6.2389397621154785,-0.5269228219985962,-2.2421927452087402,1.985601782798767,4.073378086090088,0.16926592588424683,-0.47902023792266846,-0.67024827003479,2.1545026302337646
3,27714,27709,0.032727885991334915,-0.07682435214519501,1.0522637367248535,6.477939605712891,-2.6848342418670654,-2.3844492435455322,1.9830315113067627,4.07179069519043,0.17072318494319916,-0.45774558186531067,-0.5633212924003601,2.1368982791900635
4,27724,27719,0.014492638409137726,-0.021553555503487587,1.0455278158187866,5.658377647399902,-5.549530506134033,-2.0880086421966553,1.9831101894378662,4.071385860443115,0.1723192185163498,-0.39344993233680725,-0.6019715666770935,2.0967445373535156
5,27734,27729,-0.0017479296075180173,0.026572640985250473,1.1102588176727295,5.244803428649902,-7.50490665435791,-2.5623183250427246,1.9829992055892944,4.07174825668335,0.17398415505886078,-0.23296773433685303,-0.35444167256355286,2.093106985092163
6,27744,27739,0.006007804069668055,-0.06289643049240112,1.080190896987915,3.9851572513580322,-7.380795955657959,-2.4144556522369385,1.9809033870697021,4.069931983947754,0.17515045404434204,-0.1251537948846817,-0.21990233659744263,2.077119827270508
7,27754,27749,-0.0014283605851233006,-0.043030355125665665,1.0268855094909668,0.5522215962409973,-4.164427280426025,-2.0053224563598633,1.980440616607666,4.069816589355469,0.17682316899299622,-0.06374067068099976,-0.2707633674144745,2.0437848567962646
8,27764,27759,0.002552489750087261,0.09249914437532425,1.0885450839996338,-2.7713680267333984,-1.5203039646148682,-2.162707805633545,1.9778180122375488,4.067322731018066,0.1787007749080658,-0.04883534833788872,-0.43945953249931335,2.004030466079712
9,27774,27769,0.02546839788556099,0.008945903740823269,1.0775799751281738,-4.788170337677002,2.0851707458496094,-3.2531075477600098,1.977556824684143,4.06850004196167,0.17978304624557495,-0.50597083568573,0.5677608251571655,2.125455617904663
10,27784,27779,-0.002573618898168206,-0.06472630053758621,0.9884036183357239,-2.26267671585083,2.832301378250122,-3.8333699703216553,1.9781475067138672,4.061480522155762,0.18256349861621857,-0.7076071500778198,0.2256360650062561,2.0577592849731445
11,27794,27789,-0.01061299443244934,-0.024426020681858063,1.0561994314193726,-2.9169890880584717,-1.0145974159240723,-3.733401298522949,1.9795962572097778,4.06282377243042,0.1859203577041626,-0.5121601819992065,0.233259379863739,2.023693561553955
12,27804,27799,0.01902821660041809,-0.01918807253241539,1.0581772327423096,-6.609066486358643,-8.165543556213379,-3.8078973293304443,1.9784774780273438,4.062848091125488,0.18912146985530853,-1.3874118328094482,0.6142092347145081,2.0376501083374023
13,27814,27809,0.0027687628753483295,-0.02637641876935959,1.0918993949890137,-10.660536766052246,-14.432342529296875,-3.749332904815674,1.9858810901641846,4.06016731262207,0.18930356204509735,-1.0344562530517578,0.309757262468338,1.9665364027023315
14,27824,27819,0.04190882667899132,-0.015722479671239853,1.0275402069091797,-13.662598609924316,-23.62706184387207,-3.974916696548462,1.9857738018035889,4.060850143432617,0.1941182166337967,-0.7843592166900635,0.05807449296116829,1.9072591066360474
15,27834,27829,-0.004436037037521601,-0.005800408311188221,1.0087146759033203,-18.285951614379883,-30.217863082885742,-3.9907357692718506,1.9866349697113037,4.060988903045654,0.197226420044899,-0.43856048583984375,-0.24194297194480896,1.8449389934539795
16,27844,27839,0.05318302661180496,0.012024166993796825,0.9921711087226868,-17.603147506713867,-35.26171875,-4.009579658508301,1.9866878986358643,4.061269283294678,0.20034700632095337,0.1306900680065155,-0.6364075541496277,1.783217430114746
17,27854,27849,0.02594786509871483,0.009238557890057564,1.0441632270812988,-14.789215087890625,-33.28593063354492,-3.5976502895355225,1.9856189489364624,4.062483310699463,0.20330576598644257,0.42856699228286743,-0.9610910415649414,1.7235687971115112
18,27864,27859,-0.018120190128684044,-0.01863756589591503,1.0185834169387817,-7.593310832977295,-25.6709041595459,-2.9494283199310303,1.986498475074768,4.06283712387085,0.20569731295108795,0.592919647693634,-1.1150192022323608,1.6885961294174194
19,27874,27869,-0.05831638351082802,-0.017125586047768593,1.0234450101852417,2.671217441558838,-16.048017501831055,-2.0734121799468994,1.9887125492095947,4.063302040100098,0.20847731828689575,0.991006076335907,-1.1913071870803833,1.6619982719421387
20,27884,27879,-0.03156105801463127,-0.04123062640428543,1.0223355293273926,9.057188987731934,-8.587766647338867,-1.5324137210845947,1.988568663597107,4.062915325164795,0.211119145154953,1.0758461952209473,-1.1866282224655151,1.6452077627182007
21,27894,27889,0.03787267953157425,-0.04221853241324425,0.9572268128395081,16.23819351196289,0.4474999010562897,-1.536238431930542,1.989423155784607,4.063662052154541,0.21370893716812134,1.1770315170288086,-1.132903814315796,1.630191445350647
22,27904,27899,0.0580274760723114,-0.005197887774556875,0.9335787296295166,17.539960861206055,4.148582935333252,-2.0183987617492676,1.9890612363815308,4.063709259033203,0.21478386223316193,1.2308595180511475,-0.8569567203521729,1.61028254032135
23,27914,27909,0.06617610156536102,0.056435003876686096,0.958069384098053,16.0847110748291,4.495102882385254,-2.2981183528900146,1.988586187362671,4.062643527984619,0.21736659109592438,0.8751649260520935,-0.798254668712616,1.6122956275939941
24,27924,27919,0.05495261773467064,0.02568606287240982,0.9631631374359131,11.081316947937012,1.3291727304458618,-2.4164061546325684,1.9905292987823486,4.06314754486084,0.21984460949897766,0.9452108144760132,-0.7125967144966125,1.5839980840682983
25,27934,27929,0.005828728899359703,-0.027941834181547165,0.9603144526481628,5.278131484985352,-3.551018476486206,-2.563981533050537,1.9897418022155762,4.063394546508789,0.22284121811389923,1.0575765371322632,-0.6325770020484924,1.55191969871521
26,27944,27939,0.013468662276864052,-0.025120843201875687,0.9745282530784607,2.5208022594451904,-8.85054874420166,-2.546631097793579,1.990774393081665,4.063675403594971,0.22529259324073792,1.0954129695892334,-0.6931774616241455,1.534559965133667
27,27954,27949,-0.0029989960603415966,0.04599600285291672,1.0264155864715576,1.0539504289627075,-12.385626792907715,-3.137759208679199,1.9909420013427734,4.06610631942749,0.22756724059581757,1.2087748050689697,-0.6283082962036133,1.5031923055648804
28,27964,27959,-0.011605648323893547,0.05347900465130806,1.0069772005081177,1.8776077032089233,-12.467549324035645,-2.8579516410827637,1.9906771183013916,4.066273212432861,0.22995008528232574,1.4889920949935913,-0.6453867554664612,1.4679938554763794
29,27974,27969,0.004277304746210575,-0.006339368410408497,0.9655131697654724,5.171889781951904,-11.658231735229492,-2.3947501182556152,1.9875189065933228,4.065839767456055,0.23045095801353455,1.7381547689437866,-0.5491316318511963,1.4268972873687744
30,27984,27979,-0.00509982043877244,0.032495297491550446,0.950421929359436,8.60412883758545,-7.265651226043701,-2.264644145965576,1.9871907234191895,4.06447172164917,0.2326575666666031,1.7830350399017334,-0.5480249524116516,1.4158811569213867
31,27994,27989,-0.0032553153578191996,0.06360757350921631,0.9412634372711182,10.177386283874512,1.2222861051559448,-1.798203945159912,1.9873757362365723,4.06476354598999,0.23486538231372833,1.8609651327133179,-0.4279899597167969,1.3902696371078491
32,28004,27999,0.011190650053322315,-0.029044972732663155,0.9233917593955994,11.929543495178223,7.313861846923828,-1.6932929754257202,1.985256314277649,4.0622124671936035,0.23587971925735474,1.8229236602783203,-0.35630637407302856,1.3789116144180298
33,28014,28009,-0.008124450221657753,0.024812042713165283,0.9277874231338501,11.566852569580078,11.194172859191895,-2.0765902996063232,1.9832602739334106,4.062409400939941,0.237811878323555,1.706573724746704,-0.2610700726509094,1.3658173084259033
34,28024,28019,-0.026139510795474052,0.13315479457378387,0.9152564406394958,10.864542961120605,13.364437103271484,-2.183692693710327,1.983649730682373,4.063662528991699,0.23980429768562317,1.7512203454971313,-0.024641918018460274,1.3159165382385254
35,28034,28029,-0.019615421071648598,0.17628352344036102,0.9232829213142395,9.037907600402832,12.750632286071777,-1.882969856262207,1.980582594871521,4.062347888946533,0.24268850684165955,1.825791835784912,-0.04233066365122795,1.3139433860778809
36,28044,28039,0.01660420373082161,0.09489516168832779,0.9212716221809387,6.080845832824707,11.691064834594727,-1.8932504653930664,1.9788063764572144,4.064803123474121,0.24443736672401428,1.659729242324829,-0.010010814294219017,1.3074580430984497
37,28054,28049,0.01350068673491478,0.017544861882925034,0.9478317499160767,6.530701637268066,9.5377779006958,-1.8282861709594727,1.978943943977356,4.065296649932861,0.24624623358249664,1.5358805656433105,0.07721969485282898,1.2848702669143677
38,28064,28059,0.010312536731362343,0.045253265649080276,0.9351587891578674,4.680241584777832,10.445622444152832,-1.2793344259262085,1.9789495468139648,4.065374851226807,0.24800629913806915,1.48952317237854,0.22002875804901123,1.2508665323257446
39,28074,28069,0.047048650681972504,0.10269419103860855,0.9114296436309814,6.232633590698242,9.11876106262207,-0.5415314435958862,1.9782376289367676,4.065091133117676,0.25078004598617554,1.2940809726715088,0.20240972936153412,1.2526322603225708
40,28084,28079,0.0755622610449791,0.08968941122293472,0.9261791110038757,8.398716926574707,8.231812477111816,-0.8839021325111389,1.9787906408309937,4.065820217132568,0.2524826228618622,1.126593828201294,0.22324858605861664,1.2547082901000977
41,28094,28089,0.09140751510858536,0.06616466492414474,0.952960729598999,7.5702738761901855,8.347886085510254,-1.0026153326034546,1.9790525436401367,4.067180156707764,0.25406041741371155,1.104121208190918,0.196228489279747,1.268666386604309
42,28104,28099,0.08005394041538239,0.02274327725172043,0.9719260931015015,8.471176147460938,7.23549222946167,-1.7701057195663452,1.9784448146820068,4.068387031555176,0.2536984086036682,1.0177916288375854,0.25482305884361267,1.2606538534164429
43,28114,28109,0.03850579634308815,-0.012629404664039612,0.9642941355705261,8.008484840393066,7.116080284118652,-1.7345653772354126,1.978469967842102,4.069962978363037,0.2550030052661896,1.071032166481018,0.3164058327674866,1.2496190071105957
44,28124,28119,0.03327195346355438,-0.07072880119085312,0.9416888356208801,8.89559268951416,7.110822677612305,-1.8240796327590942,1.9767323732376099,4.070324420928955,0.25631478428840637,0.977676510810852,0.3946065902709961,1.2338141202926636
45,28134,28129,0.05597648024559021,-0.10069938749074936,0.9384409785270691,9.10302448272705,8.926932334899902,-2.21354341506958,1.9759066104888916,4.070783615112305,0.2598016858100891,0.8628425598144531,0.5424954891204834,1.2029954195022583
46,28144,28139,0.018000880256295204,-0.048396941274404526,0.9797593355178833,7.578122138977051,10.754979133605957,-2.163921594619751,1.9753189086914062,4.069824695587158,0.26113641262054443,0.7886889576911926,0.5964385867118835,1.187400221824646
47,28154,28149,-0.005855710245668888,-0.06812391430139542,1.0056556463241577,5.241166114807129,13.12712574005127,-1.7181187868118286,1.9746758937835693,4.070675849914551,0.262368381023407,0.6733214259147644,0.7553634643554688,1.1587028503417969
48,28164,28159,-0.013226787559688091,-0.051191963255405426,0.9806145429611206,4.752938270568848,12.814481735229492,-1.2332514524459839,1.974759578704834,4.07150411605835,0.2636612355709076,0.4782325327396393,0.8187775015830994,1.1407978534698486
49,28174,28169,0.009825116954743862,-0.06299406290054321,0.9652373194694519,3.6036369800567627,15.268102645874023,-0.5406616926193237,1.973342776298523,4.071263313293457,0.2654201090335846,0.3218410313129425,0.7919027209281921,1.1410455703735352
50,28184,28179,0.03919096663594246,0.005867017433047295,0.9517133831977844,2.8255844116210938,7.861010551452637,0.13086645305156708,1.9729841947555542,4.075847625732422,0.26664578914642334,0.11299077421426773,0.8279046416282654,1.1322015523910522
51,28194,28189,0.014315054751932621,-0.012501521036028862,0.9813603758811951,1.2049758434295654,10.933720588684082,-0.10762088000774384,1.972885012626648,4.07604455947876,0.26786792278289795,0.24869012832641602,0.9067716002464294,1.1545603275299072
52,28204,28199,0.04046890512108803,0.030499635264277458,0.9366741180419922,1.5686564445495605,3.757232666015625,0.10790348798036575,1.9696617126464844,4.075647354125977,0.2694096267223358,0.24611929059028625,0.9816166758537292,1.1613813638687134
53,28214,28209,0.05642341077327728,0.038381997495889664,0.9378993511199951,1.728542447090149,3.0301311016082764,0.2026098519563675,1.9663232564926147,4.074550628662109,0.27060258388519287,0.0869794562458992,1.0456838607788086,1.15024995803833
54,28224,28219,0.06904025375843048,0.08221098780632019,0.9508451819419861,2.017764091491699,2.403574228286743,0.5118389129638672,1.9669748544692993,4.075290679931641,0.27176356315612793,-0.017293589189648628,1.0392330884933472,1.1442067623138428
55,28234,28229,0.02340477518737316,0.08699996024370193,1.0020408630371094,0.6377472877502441,3.8781447410583496,0.28110048174858093,1.9669703245162964,4.078431129455566,0.272903710603714,-0.04891446232795715,0.866681694984436,1.1495624780654907
56,28244,28239,-0.018483318388462067,0.049071602523326874,1.0363049507141113,-0.9808692336082458,6.541912078857422,0.7069509029388428,1.9658116102218628,4.079992294311523,0.2739749252796173,-0.18822616338729858,0.9142428636550903,1.1415863037109375
57,28254,28249,0.056218210607767105,0.03098483197391033,0.9803155064582825,-1.35541832447052,7.418118953704834,0.49516069889068604,1.9637396335601807,4.078746795654297,0.2750830352306366,-0.19186818599700928,1.0166627168655396,1.1600873470306396
58,28264,28259,0.014922493137419224,-0.018575219437479973,0.9616615772247314,-1.3711603879928589,7.278761386871338,-0.004798881709575653,1.9623041152954102,4.077996253967285,0.2761700749397278,-0.3575139343738556,0.9518670439720154,1.1466565132141113
59,28274,28269,-0.05421743914484978,-0.0246265958994627,0.970379114151001,-1.6344186067581177,6.866976737976074,-0.13362950086593628,1.9637775421142578,4.083231449127197,0.28166621923446655,-0.4392024576663971,0.959492027759552,1.1467986106872559
60,28284,28279,-0.055935539305210114,-0.006687425542622805,0.958350419998169,-3.14662504196167,5.823846340179443,0.4567425847053528,1.9636138677597046,4.082615852355957,0.28290897607803345,-0.585883378982544,0.9405370354652405,1.134873867034912
61,28294,28289,-0.016651572659611702,-0.0049356864765286446,0.9568362236022949,-2.3662118911743164,4.076252460479736,1.007315993309021,1.9634406566619873,4.081020355224609,0.2841249704360962,-0.6900686025619507,0.9281848669052124,1.1337324380874634
62,28304,28299,0.05203346163034439,-0.09462889283895493,0.9727097153663635,-1.7163584232330322,0.30609890818595886,0.33689215779304504,1.9636704921722412,4.081117630004883,0.28658169507980347,-0.657386302947998,0.9239475727081299,1.1493339538574219
63,28314,28309,0.037681061774492264,-0.07203656435012817,0.9381059408187866,-1.2870397567749023,-3.3496317863464355,0.5827167630195618,1.9627686738967896,4.080684661865234,0.2878428101539612,-0.6501383781433105,0.9204489588737488,1.1549261808395386
64,28324,28319,0.05439737066626549,-0.11745388060808182,0.9088930487632751,0.1767818182706833,-6.672708034515381,0.6248079538345337,1.9624831676483154,4.080692291259766,0.28898900747299194,-0.5782831907272339,0.9306376576423645,1.1652594804763794
65,28334,28329,0.03234067186713219,-0.10998044908046722,0.9425673484802246,0.6655295491218567,-8.367947578430176,0.7705399394035339,1.9617871046066284,4.078983783721924,0.2886573374271393,-0.4555090665817261,0.9660113453865051,1.1794371604919434
66,28344,28339,0.0028676369693130255,-0.02508603036403656,0.9648501873016357,0.48548898100852966,-8.438950538635254,1.0797332525253296,1.9610861539840698,4.079255104064941,0.28958627581596375,-0.40372681617736816,0.9093433618545532,1.1731253862380981
67,28354,28349,-0.0662819966673851,0.0046436660923063755,1.0009101629257202,-0.7786111831665039,-3.994194984436035,1.5706981420516968,1.9604960680007935,4.079690933227539,0.29045233130455017,-0.3342723548412323,0.9210512638092041,1.1886861324310303
68,28364,28359,0.010396623983979225,-0.009244382381439209,0.9449270963668823,-3.65924072265625,-0.6466073393821716,1.107344627380371,1.960051417350769,4.079342365264893,0.2942453622817993,-0.3272137939929962,0.8066226243972778,1.187598705291748
69,28374,28369,0.03620719909667969,-0.016589058563113213,0.927233874797821,-2.8533411026000977,1.8216466903686523,0.9403603672981262,1.9592814445495605,4.080076694488525,0.29524433612823486,-0.3645889461040497,0.7741110324859619,1.1907292604446411
70,28384,28379,0.024601856246590614,-0.01970865949988365,0.9342684745788574,-2.985734224319458,3.3940281867980957,0.6062318086624146,1.9598784446716309,4.079158782958984,0.2962368130683899,-0.43016326427459717,0.7419548034667969,1.192099690437317
71,28394,28389,-0.0048691146075725555,-0.047882210463285446,0.958219051361084,-2.832653522491455,3.8458969593048096,0.20310284197330475,1.9601414203643799,4.079367637634277,0.2971530556678772,-0.5070953369140625,0.7051397562026978,1.1903034448623657
72,28404,28399,-0.0311786700040102,-0.1607414036989212,0.964580774307251,-1.2568506002426147,2.3461666107177734,-0.01043179165571928,1.959991455078125,4.079422950744629,0.29484254121780396,-0.563961386680603,0.7688117027282715,1.198607325553894
73,28414,28409,-0.020027603954076767,-0.15554004907608032,0.9415425062179565,-0.41708797216415405,-0.4129398763179779,0.05167153850197792,1.9600019454956055,4.0781474113464355,0.2955276668071747,-0.5791757702827454,0.8377933502197266,1.2108467817306519
74,28424,28419,0.0026683248579502106,-0.08427608013153076,0.9286459684371948,-0.9958611130714417,-4.685997009277344,0.2163606435060501,1.9602617025375366,4.0759968757629395,0.29617148637771606,-0.5235950946807861,0.8186501264572144,1.2151556015014648
75,28434,28429,0.004810613580048084,-0.011401754803955555,0.9774858355522156,-3.3712642192840576,-2.1140384674072266,-0.05301020294427872,1.9595359563827515,4.075896739959717,0.297153115272522,-0.4703208804130554,0.7700360417366028,1.2134830951690674
76,28444,28439,0.0009926502825692296,0.002916452009230852,0.9792812466621399,-5.838179111480713,3.511768102645874,0.2796086072921753,1.9590767621994019,4.075300693511963,0.2976905405521393,-0.5022710561752319,0.6829068064689636,1.206547737121582
77,28454,28449,0.024416478350758553,-0.015134871006011963,0.9627442955970764,-8.752339363098145,10.925920486450195,0.3203376829624176,1.9584611654281616,4.075118064880371,0.29821595549583435,-0.655360221862793,0.6263283491134644,1.201993465423584
78,28464,28459,0.06487023830413818,-0.05611186474561691,0.9641555547714233,-8.158991813659668,13.597810745239258,0.11335847526788712,1.959431767463684,4.074680805206299,0.2991379201412201,-0.15739357471466064,0.7939414978027344,1.3225528001785278
79,28474,28469,0.012793732807040215,-0.03705688565969467,1.0521293878555298,-8.023931503295898,17.526172637939453,-0.28038299083709717,1.9535460472106934,4.0711669921875,0.2997604012489319,-0.34259822964668274,0.700783371925354,1.324053406715393
80,28484,28479,0.048323433846235275,-0.14029575884342194,1.0378447771072388,-6.890611171722412,19.01225471496582,-0.7503927946090698,1.953224778175354,4.070976257324219,0.3002608120441437,-0.7028601765632629,0.6273679733276367,1.2950727939605713
81,28494,28489,0.056824713945388794,-0.1528809368610382,1.0013070106506348,-6.899561882019043,20.910903930664062,-0.8815184831619263,1.9551329612731934,4.072046279907227,0.30094772577285767,-0.9213890433311462,0.637388288974762,1.2982087135314941
82,28504,28499,0.021618321537971497,-0.1286272257566452,0.999055027961731,-9.664743423461914,21.819398880004883,-0.9854567050933838,1.9550310373306274,4.070920944213867,0.3007946014404297,-1.1671905517578125,0.44444626569747925,1.2707808017730713
83,28514,28509,-0.020952925086021423,-0.08488774299621582,0.9952298402786255,-8.44572925567627,18.527360916137695,-1.2966792583465576,1.9550158977508545,4.071610927581787,0.3013688027858734,-1.3748328685760498,0.4165595471858978,1.2687965631484985
84,28524,28519,-0.00840944517403841,-0.041492659598588943,0.951832115650177,-7.926804065704346,15.277944564819336,-1.310657262802124,1.9546458721160889,4.070309638977051,0.30188170075416565,-1.6037527322769165,0.2347104251384735,1.2350549697875977
85,28534,28529,0.024729523807764053,-0.018366435542702675,0.9610344767570496,-7.07150936126709,10.498483657836914,-1.279147744178772,1.9550225734710693,4.070925712585449,0.3027486205101013,-1.7510709762573242,0.0745861679315567,1.2046509981155396
86,28544,28539,-0.0004958987119607627,0.10626751184463501,0.9798918962478638,-5.128750324249268,6.050974369049072,-1.0142974853515625,1.9548712968826294,4.070826530456543,0.3032703995704651,-1.7388734817504883,0.10839758813381195,1.2201412916183472
87,28554,28549,-0.0004260837740730494,0.1550150066614151,0.976546049118042,-3.9323246479034424,2.6660494804382324,-0.6549322605133057,1.9540584087371826,4.06967306137085,0.3038441836833954,-1.8188071250915527,0.15551772713661194,1.2293155193328857
88,28564,28559,0.015043510124087334,0.21845807135105133,1.0245676040649414,-2.6268208026885986,0.19453763961791992,-0.41405969858169556,1.9530426263809204,4.067080974578857,0.3031274676322937,-1.835652470588684,0.06344152241945267,1.2130767107009888
89,28574,28569,-0.0005934376385994256,0.16799384355545044,1.0665385723114014,-2.329864978790283,0.36095350980758667,-0.5955485105514526,1.9524223804473877,4.067085266113281,0.30352070927619934,-1.8437020778656006,-0.01397068053483963,1.1955655813217163
90,28584,28579,-0.009123262017965317,0.06319274753332138,1.0285885334014893,-1.9244550466537476,0.9545501470565796,-0.4734947383403778,1.9526149034500122,4.067224025726318,0.30396339297294617,-1.8495572805404663,-0.07338157296180725,1.1780123710632324
91,28594,28589,-0.0015695809852331877,-0.026710910722613335,0.9715505838394165,-3.7510271072387695,3.7470343112945557,-0.25887370109558105,1.9525561332702637,4.067591667175293,0.3035896122455597,-1.9013938903808594,-0.15116548538208008,1.160588026046753
92,28604,28599,0.005311658140271902,-0.04475123807787895,0.9576815962791443,-3.1199259757995605,4.774771213531494,-1.0288194417953491,1.9528334140777588,4.067867755889893,0.30402061343193054,-2.0531632900238037,-0.08343873172998428,1.1795101165771484
93,28614,28609,-0.0072686136700212955,-0.0034273641649633646,0.9938905239105225,-1.669473648071289,4.202325820922852,-0.7315254807472229,1.9540287256240845,4.066742420196533,0.30439457297325134,-2.0292463302612305,-0.1497332602739334,1.1585549116134644
94,28624,28619,-0.0039237369783222675,0.029401002451777458,0.9963831305503845,-0.9893022179603577,3.6409878730773926,-0.6344884037971497,1.9536259174346924,4.066100120544434,0.30489253997802734,-2.1543126106262207,-0.19856497645378113,1.1398745775222778
95,28634,28629,0.020150939002633095,0.055901382118463516,0.9748536944389343,-0.74495929479599,2.715877056121826,-0.7738987803459167,1.9540187120437622,4.065560817718506,0.3041422963142395,-2.1825294494628906,-0.16456371545791626,1.1456124782562256
96,28644,28639,0.027723826467990875,0.06906980276107788,0.9545327425003052,-0.30760976672172546,0.28031864762306213,-0.4926844835281372,1.9542115926742554,4.064386367797852,0.3044535219669342,-2.189707040786743,-0.13212566077709198,1.1527037620544434
97,28654,28649,0.027153627946972847,0.01809939555823803,0.9418785572052002,0.0168982595205307,-3.0919508934020996,-0.7932410836219788,1.9547646045684814,4.062886714935303,0.30473393201828003,-2.201241970062256,-0.08361924439668655,1.1610773801803589
98,28664,28659,0.01811932772397995,-0.035567883402109146,0.9597105383872986,-1.452825903892517,-4.141026496887207,-0.7655578851699829,1.9556705951690674,4.062300682067871,0.3044922351837158,-2.2615320682525635,-0.06711158156394958,1.1663259267807007
99,28674,28669,0.08993013948202133,-0.0391060896217823,0.9571113586425781,-2.8045990467071533,-8.278311729431152,-1.2012596130371094,1.9574145078659058,4.061427116394043,0.3045322299003601,-2.096964120864868,-0.1420394331216812,1.1346337795257568
100,28684,28679,0.06686845421791077,-0.06693641096353531,0.9833343029022217,-5.544369220733643,-9.609792709350586,-1.2093334197998047,1.9568793773651123,4.06161642074585,0.3047441840171814,-2.122772216796875,-0.25200608372688293,1.102643609046936
101,28694,28689,0.009265302680432796,-0.04516754299402237,1.021521806716919,-6.460142135620117,-10.051836967468262,-0.9929323196411133,1.9587123394012451,4.061440467834473,0.30375760793685913,-1.9655234813690186,-0.227375328540802,1.1206440925598145
102,28704,28699,0.02952684834599495,-0.026354853063821793,0.9668896198272705,-6.443750858306885,-8.169178009033203,-1.6140927076339722,1.9589390754699707,4.0603251457214355,0.30378833413124084,-1.9892995357513428,-0.37479594349861145,1.0828585624694824
103,28714,28709,0.04517103731632233,-0.01753917895257473,0.9302368760108948,-4.774784088134766,-7.965606689453125,-1.4019545316696167,1.9607486724853516,4.061011791229248,0.3036773204803467,-1.845268726348877,-0.4155157506465912,1.0709139108657837
104,28724,28719,-0.012126714922487736,-0.017187949270009995,1.0090183019638062,-2.4042797088623047,-7.827205181121826,-1.6143786907196045,1.9611573219299316,4.0600175857543945,0.303690105676651,-1.868054747581482,-0.3846629858016968,1.0824328660964966
105,28734,28729,0.0015314731281250715,0.010295325890183449,1.0035204887390137,-0.030965391546487808,-4.961845874786377,-1.8869149684906006,1.9623862504959106,4.059675216674805,0.300460547208786,-1.7414284944534302,-0.45361268520355225,1.053446888923645
106,28744,28739,0.009945941157639027,0.0728725865483284,0.9896963834762573,1.5702409744262695,-5.20962381362915,-1.0604958534240723,1.9626344442367554,4.059559345245361,0.300220251083374,-1.7923706769943237,-0.48359376192092896,1.036436915397644
107,28754,28749,-0.024336369708180428,0.05267328768968582,1.0384918451309204,2.028189182281494,-5.287954807281494,-1.0346611738204956,1.9650012254714966,4.05931282043457,0.2998504638671875,-1.8261317014694214,-0.48622679710388184,1.0262365341186523
108,28764,28759,0.001568922190926969,-0.11306893080472946,1.0224013328552246,2.7743358612060547,-6.000461578369141,-1.0012352466583252,1.9669162034988403,4.0592522621154785,0.3001936376094818,-1.6121101379394531,-0.392102986574173,1.0294240713119507
109,28774,28769,-0.040402378886938095,-0.12381671369075775,1.1112117767333984,1.6686652898788452,-7.5306830406188965,-1.4384422302246094,1.966232180595398,4.057922840118408,0.3002251386642456,-1.628368854522705,-0.4558579921722412,0.9980623126029968
110,28784,28779,-0.04060934856534004,-0.14715373516082764,1.073086142539978,0.4900611340999603,-7.526663780212402,-1.543350100517273,1.9685285091400146,4.059492111206055,0.3000712990760803,-1.477018117904663,-0.44671738147735596,0.9754445552825928
111,28794,28789,-0.009630085900425911,-0.05804181471467018,1.0130894184112549,-1.7576903104782104,-6.1130452156066895,-1.6718493700027466,1.9685125350952148,4.058878421783447,0.2990308403968811,-1.3380950689315796,-0.4620014429092407,0.9479595422744751
112,28804,28799,0.006420082878321409,-0.03901321068406105,1.009556531906128,-1.5548564195632935,-7.9164557456970215,-2.017698049545288,1.9689688682556152,4.058631896972656,0.2990562319755554,-1.3562368154525757,-0.420009970664978,0.9544869661331177
113,28814,28809,-0.02830900438129902,-0.041754186153411865,1.0291049480438232,-0.562091588973999,-6.974233150482178,-1.8934946060180664,1.9705673456192017,4.058565139770508,0.2989964187145233,-1.35950767993927,-0.45802193880081177,0.9385039210319519
114,28824,28819,0.02105134166777134,0.007625802420079708,1.0460364818572998,-0.6169705390930176,-6.916423320770264,-2.0517897605895996,1.9720786809921265,4.0585737228393555,0.2988993227481842,-1.2725367546081543,-0.4825672507286072,0.9111714959144592
115,28834,28829,-0.0006617492181248963,-0.01986410841345787,1.0293487310409546,1.1140071153640747,-8.203309059143066,-2.007671356201172,1.9712753295898438,4.055445671081543,0.2982272207736969,-1.1873421669006348,-0.4089319109916687,0.8925663232803345
116,28844,28839,0.014529889449477196,-0.011995245702564716,1.0317103862762451,1.0357614755630493,-6.215789318084717,-2.551147222518921,1.9723258018493652,4.055766582489014,0.2981739640235901,-1.0473664999008179,-0.4199872612953186,0.857824444770813
117,28854,28849,0.015565231442451477,-0.04929720610380173,0.9940943717956543,2.592534303665161,-9.049171447753906,-2.014054775238037,1.971950888633728,4.054960250854492,0.29831400513648987,-1.1859508752822876,-0.4194655418395996,0.8706875443458557
118,28864,28859,0.07244022190570831,-0.04211463779211044,0.9467827081680298,0.5574233531951904,-10.497031211853027,-1.8897761106491089,1.97457754611969,4.054866790771484,0.2981119155883789,-1.049501895904541,-0.3924614489078522,0.8319600820541382
119,28874,28869,0.029009833931922913,-0.025328125804662704,1.000622034072876,-0.3449331820011139,-15.171152114868164,-1.3594346046447754,1.9762685298919678,4.054850101470947,0.29806897044181824,-0.8131541013717651,-0.40597808361053467,0.8076916337013245
120,28884,28879,0.028309667482972145,0.02053569070994854,1.0575159788131714,-2.721360445022583,-17.896339416503906,-1.412787675857544,1.9751412868499756,4.054847240447998,0.29841503500938416,-0.8870016932487488,-0.3570764362812042,0.8215391039848328
121,28894,28889,-0.011032874695956707,-0.06829782575368881,1.0110280513763428,-4.265925407409668,-18.33795738220215,-1.9724162817001343,1.976937174797058,4.052916049957275,0.29600727558135986,-0.6407465934753418,-0.42016318440437317,0.7959164381027222
122,28904,28899,-0.059173282235860825,-0.0555582232773304,1.052798867225647,-5.779480457305908,-15.832135200500488,-2.3334972858428955,1.9779776334762573,4.052768707275391,0.296002596616745,-0.27521541714668274,-0.508118212223053,0.7570683360099792
123,28914,28909,-0.041322238743305206,-0.056280717253685,1.0063308477401733,-5.109284400939941,-11.305057525634766,-1.5766185522079468,1.9775935411453247,4.0527873039245605,0.2961566746234894,-0.21238887310028076,-0.5294606685638428,0.7496792078018188
124,28924,28919,0.012186308391392231,-0.03542225435376167,0.9989107251167297,-2.8743016719818115,-6.728879928588867,-1.6694796085357666,1.9799729585647583,4.052061557769775,0.29572436213493347,-0.13937050104141235,-0.6125287413597107,0.7340667247772217
125,28934,28929,0.06111772358417511,-0.0019330000504851341,1.0030062198638916,-0.6221272945404053,-3.527172565460205,-2.1025726795196533,1.9816546440124512,4.052608489990234,0.2956494390964508,0.021270964294672012,-0.659041702747345,0.7106060981750488
126,28944,28939,0.058534055948257446,0.040176741778850555,1.0262621641159058,1.6686456203460693,-1.900814414024353,-1.9623643159866333,1.9809075593948364,4.052046775817871,0.29563936591148376,-0.022204605862498283,-0.6595199108123779,0.7009871006011963
127,28954,28949,0.018779592588543892,0.03673062473535538,1.0501452684402466,4.066162109375,-3.5560302734375,-1.9775216579437256,1.9829267263412476,4.051580429077148,0.2955719828605652,0.009590194560587406,-0.5482620000839233,0.682970404624939
128,28964,28959,-0.019692782312631607,-0.01765117235481739,1.0453410148620605,5.360058307647705,-4.115418910980225,-2.073495626449585,1.984352469444275,4.051185131072998,0.29719483852386475,-0.01949634961783886,-0.5669977068901062,0.6700121760368347
129,28974,28969,0.0005362744559533894,-0.04787160083651543,1.012523889541626,6.110640048980713,-6.12278413772583,-2.243889331817627,1.9856061935424805,4.051450252532959,0.2972713112831116,-0.0213623084127903,-0.5535848736763,0.6527168154716492
130,28984,28979,-0.016416409984230995,-0.037644270807504654,1.0357701778411865,4.082319259643555,-6.032479286193848,-2.047013998031616,1.9875987768173218,4.052809238433838,0.29741621017456055,0.14426861703395844,-0.46108871698379517,0.6199808120727539
131,28994,28989,0.02073059231042862,-0.0019877280574291945,1.0023406744003296,2.151021957397461,-8.305448532104492,-1.219043493270874,1.9871305227279663,4.052236080169678,0.299985408782959,0.09089340269565582,-0.5503847599029541,0.6150789856910706
132,29004,28999,-0.0020940036047250032,0.009486053138971329,1.054771065711975,0.11478058248758316,-9.943999290466309,-1.4442280530929565,1.989094614982605,4.0529632568359375,0.3002357482910156,0.3834722936153412,-0.5072770714759827,0.5810879468917847
133,29014,29009,0.014282304793596268,0.016353938728570938,1.0575693845748901,0.7121394276618958,-9.262286186218262,-1.1851770877838135,1.9882804155349731,4.052874565124512,0.30091726779937744,0.3691461682319641,-0.47838056087493896,0.5752360224723816
134,29024,29019,0.003209361806511879,-0.016871962696313858,1.029902696609497,1.8700861930847168,-7.970097541809082,-0.7923055291175842,1.9903815984725952,4.052595615386963,0.3019140660762787,0.43453601002693176,-0.4471983015537262,0.5650385618209839
135,29034,29029,-0.015038235113024712,-0.005461583379656076,1.0403947830200195,3.1021225452423096,-4.909930229187012,-0.572287917137146,1.9915956258773804,4.052231311798096,0.3024425804615021,0.46195897459983826,-0.4768672287464142,0.566418468952179
136,29044,29039,0.004476048517972231,-0.06475625187158585,0.9937769770622253,4.286579608917236,-1.6541876792907715,-0.9916307926177979,1.9940193891525269,4.05300235748291,0.3029674291610718,0.5940609574317932,-0.4076889753341675,0.5476188063621521
137,29054,29049,0.00801931694149971,-0.04253316670656204,0.9912736415863037,5.9409356117248535,-1.7385320663452148,-0.6161730885505676,1.9943280220031738,4.051840305328369,0.3036403954029083,0.6206660270690918,-0.388798326253891,0.5365334749221802
138,29064,29059,0.008834654465317726,-0.0009326233994215727,0.9632618427276611,6.115344524383545,0.8742411732673645,-0.1368086189031601,1.9953142404556274,4.051278591156006,0.30150672793388367,0.6039246916770935,-0.34582552313804626,0.5340298414230347
139,29074,29069,0.06310281157493591,0.028759803622961044,0.9228221774101257,6.347778797149658,-1.0785008668899536,0.24716177582740784,1.997294306755066,4.053035259246826,0.30185163021087646,0.7377099394798279,-0.21982605755329132,0.5191486477851868
140,29084,29079,0.004590996541082859,0.04619179666042328,1.0024546384811401,5.0229811668396,-3.441579818725586,0.3399347960948944,1.997118592262268,4.052441596984863,0.30235755443573,0.668061375617981,-0.1833910495042801,0.531162679195404
141,29094,29089,-0.03947656974196434,0.0037766199093312025,1.0512512922286987,3.1829581260681152,-4.235388278961182,-0.32182762026786804,1.9975868463516235,4.052787780761719,0.30252280831336975,0.7098850607872009,-0.09406666457653046,0.5370908379554749
142,29104,29099,-0.019561495631933212,-0.07222280651330948,1.037299633026123,-0.20415787398815155,-1.879966378211975,-0.5077522397041321,1.9986495971679688,4.052664279937744,0.3028948903083801,0.8939332962036133,-0.12615011632442474,0.5483010411262512
143,29114,29109,-0.016531817615032196,-0.08882856369018555,1.0339488983154297,-0.6499799489974976,-0.3258306682109833,0.0018772867042571306,1.9987263679504395,4.056105136871338,0.30348408222198486,0.9557918310165405,-0.10376157611608505,0.5510959029197693
144,29124,29119,-0.010242721065878868,-0.11313390731811523,0.9911800622940063,-0.3861168920993805,3.101602792739868,-0.7690138816833496,1.9995852708816528,4.055616855621338,0.30291077494621277,1.0418775081634521,-0.09355460852384567,0.543192446231842
145,29134,29129,0.00431012874469161,-0.13331183791160583,0.990712583065033,-0.5232738256454468,5.929739952087402,-0.6709967851638794,1.9978746175765991,4.053853511810303,0.30334100127220154,0.9922657012939453,-0.08626358211040497,0.5217782258987427
146,29144,29139,-0.0025896048173308372,-0.048180945217609406,0.9965304136276245,1.333860158920288,11.059326171875,-1.624855399131775,1.9992499351501465,4.0539655685424805,0.3037259578704834,0.7957478761672974,-0.14391940832138062,0.5286518931388855
147,29154,29149,0.006800051778554916,0.064503513276577,0.9255708456039429,2.787112236022949,7.501654148101807,-1.287337303161621,2.0015201568603516,4.054165840148926,0.3040606677532196,0.7431830167770386,-0.1700638234615326,0.5198096036911011
148,29164,29159,0.001145554007962346,-0.045871801674366,1.0080533027648926,3.9372239112854004,9.890073776245117,-1.9954277276992798,2.002302646636963,4.054871559143066,0.3040231764316559,0.6823920607566833,-0.09043233096599579,0.49398183822631836
149,29174,29169,0.0007607762236148119,0.05970386415719986,1.0022823810577393,5.107366561889648,6.433786392211914,-1.226218819618225,2.003838539123535,4.055605888366699,0.3043769299983978,0.6344889402389526,-0.07546613365411758,0.46102386713027954
150,29184,29179,0.011339297518134117,0.010321327485144138,0.9819589257240295,5.1237406730651855,3.2056901454925537,-1.1710597276687622,2.0013492107391357,4.0511088371276855,0.304708868265152,0.5562136769294739,0.03287728875875473,0.41421273350715637
151,29194,29189,0.02093132771551609,-0.16036097705364227,0.9753980040550232,3.7720656394958496,1.8087339401245117,-0.8697075843811035,2.003197431564331,4.051009178161621,0.30651482939720154,0.3653247058391571,-0.027313875034451485,0.4400183856487274
152,29204,29199,-0.01380487997084856,-0.18298596143722534,1.0268454551696777,2.740743398666382,2.273118734359741,-1.4386107921600342,2.005241870880127,4.052196502685547,0.3068007826805115,0.35448676347732544,0.06074889376759529,0.4216039180755615
153,29214,29209,-0.009670422412455082,-0.02424751967191696,0.9925490021705627,1.7765806913375854,1.542311191558838,-0.5773793458938599,2.005794048309326,4.051607131958008,0.3072297275066376,0.4241020977497101,0.12870366871356964,0.40087205171585083
154,29224,29219,0.015289374627172947,-0.024535611271858215,0.9629350900650024,1.7022720575332642,0.9244629740715027,-0.23557864129543304,2.006258249282837,4.051586151123047,0.3081676959991455,0.4956527650356293,0.18072830140590668,0.3861125409603119
155,29234,29229,0.009495423175394535,-0.007479401305317879,0.9808740019798279,1.545501470565796,-0.1121969148516655,-0.18408125638961792,2.0064616203308105,4.05161190032959,0.3086041212081909,0.5753741264343262,0.2256595939397812,0.37760481238365173
156,29244,29239,-0.0291603896766901,0.0719430074095726,0.977363646030426,-0.24655722081661224,0.9372714757919312,0.3383769690990448,2.0066945552825928,4.050832271575928,0.3090358376502991,0.5742245316505432,0.25588735938072205,0.365800678730011
157,29254,29249,0.010866555385291576,0.08711084723472595,0.9978498220443726,-0.053014785051345825,3.8603882789611816,-0.5310543775558472,2.0073869228363037,4.05035400390625,0.3126122057437897,0.3784882426261902,0.26666390895843506,0.3576107621192932
158,29264,29259,-0.04612421616911888,0.03040994517505169,0.9792681336402893,-1.5569813251495361,6.588181495666504,0.6653422117233276,2.0102956295013428,4.049716472625732,0.31308314204216003,0.46494126319885254,0.26247474551200867,0.3595131039619446
159,29274,29269,-0.030896054580807686,0.02985917404294014,0.9535871744155884,-1.7168546915054321,5.087065696716309,1.4932960271835327,2.010254383087158,4.049368858337402,0.31373342871665955,0.4409760534763336,0.1700175404548645,0.3781121075153351
160,29284,29279,0.017886534333229065,-0.039703018963336945,0.9929529428482056,-0.8726581335067749,6.633721828460693,0.6841089725494385,2.010488271713257,4.049856185913086,0.3142430782318115,0.25403183698654175,0.16491301357746124,0.3815983235836029
161,29294,29289,0.015906773507595062,-0.08433985710144043,0.9900175929069519,1.129084825515747,5.655510902404785,0.7731043696403503,2.0132558345794678,4.050310134887695,0.30975601077079773,0.22404155135154724,0.1789119690656662,0.39338716864585876
162,29304,29299,-0.0015192030696198344,-0.011629048734903336,0.9434882402420044,2.9920926094055176,4.56225061416626,0.9619765877723694,2.0138607025146484,4.051174640655518,0.30995887517929077,0.13039112091064453,0.14331857860088348,0.398207426071167
163,29314,29309,-0.008515771478414536,-0.013631684705615044,0.9380336999893188,4.310670852661133,2.142164707183838,1.3132089376449585,2.015291690826416,4.051196098327637,0.3100576102733612,0.13903295993804932,0.21601763367652893,0.4032120406627655
164,29324,29319,-0.029166780412197113,0.07064030319452286,0.9737099409103394,4.573542594909668,0.46677979826927185,1.1280109882354736,2.015604019165039,4.050985813140869,0.3095008134841919,0.031714048236608505,0.14121940732002258,0.4205808937549591
165,29334,29329,-0.01834527775645256,0.09714996814727783,0.9689453840255737,5.389974594116211,-2.2907843589782715,1.5357682704925537,2.0175671577453613,4.051841735839844,0.30947139859199524,0.13401859998703003,0.32545748353004456,0.4196474552154541
166,29344,29339,0.026548901572823524,-0.1257198005914688,0.986092209815979,4.511821746826172,-0.3421691060066223,1.4387670755386353,2.0176661014556885,4.050741672515869,0.30955567955970764,0.08094928413629532,0.4211501479148865,0.427052766084671
167,29354,29349,-0.007088107522577047,-0.05493574216961861,1.0104423761367798,3.9314746856689453,2.1056573390960693,1.1948833465576172,2.019073009490967,4.049929141998291,0.31035736203193665,0.07700084149837494,0.4215526580810547,0.4466616213321686
168,29364,29359,0.015200610272586346,0.06358882784843445,0.9395490884780884,0.6001887321472168,3.8269007205963135,1.44935142993927,2.020214796066284,4.050531387329102,0.31035369634628296,0.02822192944586277,0.4694373309612274,0.4550761580467224
169,29374,29369,0.011641545221209526,-0.07190398126840591,1.0076080560684204,-1.1278584003448486,5.132168769836426,1.3641024827957153,2.0209431648254395,4.049804210662842,0.31028780341148376,0.049019232392311096,0.47812190651893616,0.4718768298625946
170,29384,29379,-0.00831193570047617,-0.12734556198120117,1.0122992992401123,-0.09381220489740372,6.186795234680176,0.8571174740791321,2.021800994873047,4.050051212310791,0.3103306293487549,-0.12129710614681244,0.4754546284675598,0.4784501791000366
171,29394,29389,-0.00395398773252964,-0.15267571806907654,1.0417205095291138,-0.01880856417119503,5.583945274353027,-0.00477128941565752,2.024235725402832,4.050042629241943,0.3111996352672577,-0.12503580749034882,0.47250595688819885,0.48888468742370605
172,29404,29399,-0.03869585320353508,0.012750152498483658,1.0404118299484253,-0.11639879643917084,5.399177551269531,0.05708423629403114,2.024308919906616,4.049820899963379,0.31132856011390686,-0.1356387734413147,0.469905823469162,0.49355340003967285
173,29414,29409,0.0083430465310812,-0.15397705137729645,0.9915744662284851,1.5279815196990967,5.841131210327148,0.6364296674728394,2.023876190185547,4.050938129425049,0.31138381361961365,-0.1482928991317749,0.4013185203075409,0.5163848400115967
174,29424,29419,0.015464598312973976,-0.011230455711483955,1.003273844718933,1.6045558452606201,4.63416051864624,0.11888344585895538,2.024122476577759,4.051437854766846,0.3110203444957733,-0.23467694222927094,0.43384936451911926,0.5352460741996765
175,29434,29429,0.022444669157266617,-0.004939984064549208,1.015572428703308,0.708050012588501,4.498093128204346,-0.19107002019882202,2.0250322818756104,4.052594184875488,0.31107404828071594,-0.23441912233829498,0.4597887396812439,0.5396216511726379
176,29444,29439,-0.00862871017307043,-0.051759473979473114,0.9639442563056946,-0.10317076742649078,1.4331797361373901,0.5907180309295654,2.0257511138916016,4.052578449249268,0.31123968958854675,-0.2865663766860962,0.46495646238327026,0.5388514995574951
177,29454,29449,0.002730943262577057,-0.0814661905169487,0.9481353163719177,0.006209167186170816,1.37880277633667,0.46389687061309814,2.026668071746826,4.052596569061279,0.3128367066383362,-0.322805792093277,0.5434207916259766,0.5409859418869019
178,29464,29459,0.03185637667775154,-0.03711332008242607,0.9512821435928345,-0.37645527720451355,1.70777428150177,0.5063397884368896,2.027890205383301,4.051910400390625,0.31295984983444214,-0.35463592410087585,0.5317058563232422,0.545049250125885
179,29474,29469,0.02945314720273018,-0.04600481688976288,0.9518399238586426,0.28117966651916504,-0.2093711793422699,0.7284120321273804,2.0289995670318604,4.05180025100708,0.3130626082420349,-0.5298871994018555,0.5189595222473145,0.5294860005378723
180,29484,29479,0.04377446323633194,-0.037596702575683594,0.9982540011405945,-0.08765465021133423,-2.236849069595337,0.548285186290741,2.031761407852173,4.051149845123291,0.3129674196243286,-0.4068197011947632,0.5933582782745361,0.543975830078125
181,29494,29489,-0.012916992418467999,-0.07307819277048111,1.0513242483139038,-1.405219554901123,-3.4511616230010986,0.4506790339946747,2.0318779945373535,4.050477981567383,0.31237560510635376,-0.4893829822540283,0.5016198754310608,0.5395187139511108
182,29504,29499,-0.06660959869623184,-0.04835639148950577,1.0520715713500977,-2.1697967052459717,-5.547370910644531,0.3046207129955292,2.033790111541748,4.0512309074401855,0.31227779388427734,-0.3772988021373749,0.4736905097961426,0.5484816431999207
183,29514,29509,-0.07354029268026352,0.007147463504225016,1.0026555061340332,-4.809785842895508,-4.230254173278809,0.13131001591682434,2.0343215465545654,4.051269054412842,0.3123992681503296,-0.2682346999645233,0.5599421858787537,0.557942271232605
184,29524,29519,-0.020572898909449577,0.03552687540650368,1.000797152519226,-3.4815595149993896,-3.135064125061035,-0.556873083114624,2.035114288330078,4.050311088562012,0.31163111329078674,-0.2608165442943573,0.4658697843551636,0.5448845028877258
185,29534,29529,0.004643681924790144,-0.04511154815554619,1.0289937257766724,-2.150402784347534,-1.6687557697296143,-0.7579088807106018,2.036569356918335,4.050102710723877,0.31164562702178955,-0.1990070939064026,0.4016673266887665,0.5404611229896545
186,29544,29539,0.06563040614128113,-0.14646361768245697,1.0076282024383545,-2.625852108001709,-0.1896394044160843,-0.383870929479599,2.037670612335205,4.050720691680908,0.31173253059387207,-0.17106087505817413,0.42699238657951355,0.5334344506263733
187,29554,29549,-0.02068088948726654,-0.03557412326335907,1.027929425239563,-1.6478654146194458,2.328077554702759,-0.9353526830673218,2.038273572921753,4.049571990966797,0.3091590404510498,-0.10131403058767319,0.3745233416557312,0.5264955163002014
188,29564,29559,0.01839112490415573,-0.02683744579553604,1.0020993947982788,-2.0980257987976074,5.249582290649414,-1.1709246635437012,2.038573741912842,4.049651145935059,0.3091597855091095,-0.23993714153766632,0.4079086184501648,0.5097747445106506
189,29574,29569,-0.006567067001014948,-0.025632983073592186,1.0191991329193115,-3.097634792327881,6.203039169311523,-1.0841944217681885,2.0401523113250732,4.048141956329346,0.3090251088142395,-0.31803828477859497,0.3237532079219818,0.49845293164253235
190,29584,29579,0.05612366646528244,0.01735508441925049,0.9392069578170776,-1.9009437561035156,6.03727912902832,-0.8110604286193848,2.041766405105591,4.048514366149902,0.3089378774166107,-0.32435908913612366,0.34263649582862854,0.494850218296051
191,29594,29589,0.03137991949915886,0.12013028562068939,1.0087321996688843,-1.1163146495819092,1.9377743005752563,-0.5244404077529907,2.042370319366455,4.047741413116455,0.30436599254608154,-0.2862502336502075,0.30028319358825684,0.49262160062789917
192,29604,29599,0.017856210470199585,0.011267297901213169,0.9636032581329346,-0.4016028344631195,-1.3660465478897095,-0.4505724608898163,2.0424842834472656,4.0475640296936035,0.3040738105773926,-0.35113972425460815,0.3483961522579193,0.48429736495018005
193,29614,29609,0.01360869500786066,-0.051620904356241226,0.9988613128662109,-1.0492732524871826,-2.187018394470215,0.07316122204065323,2.044466018676758,4.046743392944336,0.30365464091300964,-0.31424760818481445,0.31111636757850647,0.481438010931015
194,29624,29619,-0.0005378652131184936,-0.048315513879060745,1.0240466594696045,-2.2002766132354736,-1.1866432428359985,0.01043410412967205,2.0449039936065674,4.046648025512695,0.30634933710098267,-0.4379733204841614,0.33497536182403564,0.4727287292480469
195,29634,29629,0.03467551991343498,-0.04562617093324661,0.9889898896217346,-4.174643516540527,-0.2357693612575531,0.01589280739426613,2.047687530517578,4.046238899230957,0.30604493618011475,-0.48779159784317017,0.3976847231388092,0.4732910990715027
196,29644,29639,0.016866156831383705,-0.079164519906044,1.0103470087051392,-4.478940963745117,-1.4762533903121948,0.44208279252052307,2.0501296520233154,4.045341491699219,0.3057496249675751,-0.5938291549682617,0.20910851657390594,0.46323755383491516
197,29654,29649,0.026792196556925774,-0.08574946224689484,1.0850889682769775,-4.136468887329102,-6.221195220947266,0.6313803791999817,2.0518765449523926,4.045420169830322,0.30630937218666077,-0.4755181670188904,0.2639830708503723,0.46723672747612
198,29664,29659,0.002040137769654393,-0.0841599702835083,1.067960262298584,-4.096185684204102,-7.011730670928955,1.012811303138733,2.0528244972229004,4.0445146560668945,0.3063146471977234,-0.26419597864151,0.15538659691810608,0.48199090361595154
199,29674,29669,-0.006212302483618259,0.03230104595422745,1.0383273363113403,-6.569034099578857,-5.980029582977295,1.299020528793335,2.0517916679382324,4.044071197509766,0.306511789560318,-0.19796602427959442,0.10520542412996292,0.4871075749397278
200,29684,29679,-0.0477520190179348,0.02771386317908764,1.0564076900482178,-6.5427446365356445,-5.080493927001953,2.198561906814575,2.0529050827026367,4.0437541007995605,0.30670303106307983,-0.15311257541179657,0.11268637329339981,0.5048952102661133
201,29694,29689,0.045028142631053925,-0.10007214546203613,1.0384528636932373,-5.271083831787109,-1.2571005821228027,1.5519654750823975,2.053262948989868,4.0422139167785645,0.3068300187587738,-0.23160821199417114,-0.01613091491162777,0.516285240650177
202,29704,29699,0.014396600425243378,-0.04678518325090408,1.055698037147522,-4.167788505554199,1.017144799232483,1.2737244367599487,2.055321216583252,4.042544364929199,0.306912899017334,-0.11434078961610794,-0.12391924858093262,0.5255751013755798
203,29714,29709,0.031207114458084106,-0.06142532452940941,1.009108304977417,-3.2080578804016113,2.541978120803833,1.0186882019042969,2.056342840194702,4.042717456817627,0.30729562044143677,-0.3527328670024872,-0.059151217341423035,0.5364980697631836
204,29724,29719,0.0062911068089306355,0.0787213146686554,0.9704586267471313,-2.994598865509033,-1.240535020828247,1.6059446334838867,2.059598684310913,4.04220724105835,0.30622756481170654,-0.24871094524860382,-0.14880232512950897,0.5523858666419983
205,29734,29729,0.012303329072892666,-0.09384256601333618,1.0167089700698853,-2.2180652618408203,1.8063031435012817,1.8178787231445312,2.0600507259368896,4.042530536651611,0.3065599501132965,-0.16420257091522217,-0.21920077502727509,0.5657599568367004
206,29744,29739,0.013140017166733742,0.04397096112370491,1.0544987916946411,-1.4852545261383057,-1.4111441373825073,2.0252623558044434,2.0601072311401367,4.042356967926025,0.30686625838279724,-0.3600464463233948,-0.12362278997898102,0.5885694622993469
207,29754,29749,0.009419934824109077,-0.022444115951657295,1.0639632940292358,-0.31401410698890686,-3.1120100021362305,2.4955997467041016,2.0632896423339844,4.041125297546387,0.30832192301750183,-0.19305643439292908,-0.169189453125,0.6074429154396057
208,29764,29759,0.014580680057406425,-0.10272225737571716,0.9989070296287537,0.7298943996429443,-3.455712080001831,2.7738993167877197,2.0631275177001953,4.041015625,0.3088530898094177,-0.19129419326782227,-0.1968664824962616,0.6319763660430908
209,29774,29769,-0.007219860330224037,-0.07081218808889389,0.962376594543457,-1.9952821731567383,-1.8140738010406494,2.8944284915924072,2.0627784729003906,4.039349555969238,0.30924591422080994,-0.41920584440231323,-0.09275790303945541,0.659214973449707
210,29784,29779,0.03178486227989197,-0.07085098326206207,0.9733043313026428,-2.4532556533813477,-3.046581506729126,2.6265556812286377,2.0669944286346436,4.038269996643066,0.30987250804901123,-0.23596802353858948,-0.16205498576164246,0.6833305954933167
211,29794,29789,0.05074794963002205,-0.1402522176504135,1.001483678817749,-2.3110029697418213,-4.787859916687012,2.687901496887207,2.0669150352478027,4.03859281539917,0.31044086813926697,-0.26760631799697876,-0.23561878502368927,0.6998897194862366
212,29804,29799,-0.0059055970050394535,-0.13462261855602264,1.0566984415054321,-3.07784366607666,-5.704244613647461,2.4868316650390625,2.0692522525787354,4.038051605224609,0.31075382232666016,-0.1266799122095108,-0.23061257600784302,0.7242964506149292
213,29814,29809,-0.006598507985472679,-0.04594370350241661,1.0158475637435913,-2.270961284637451,-5.772099018096924,2.0866940021514893,2.0697312355041504,4.03750467300415,0.31124353408813477,-0.13926123082637787,-0.2301269918680191,0.7500900626182556
214,29824,29819,-0.022406378760933876,0.028508629649877548,0.9693837761878967,-2.9282543659210205,-5.991304874420166,2.222902297973633,2.071190595626831,4.035347938537598,0.3132398724555969,0.005984057206660509,-0.3080873191356659,0.7459031343460083
215,29834,29829,-0.0063609229400753975,0.0017426912672817707,0.9685041904449463,-2.5370895862579346,-7.262616157531738,2.566243886947632,2.0715444087982178,4.035260200500488,0.3138319253921509,0.012550429441034794,-0.31182441115379333,0.7693743705749512
216,29844,29839,0.01903151161968708,-0.053339432924985886,0.9430758357048035,-0.48605555295944214,-8.718623161315918,2.929683208465576,2.073547840118408,4.034730911254883,0.3142336905002594,0.03439133241772652,-0.3667619824409485,0.7896268963813782
217,29854,29849,-0.0289545226842165,-0.04329947754740715,1.0231331586837769,0.02061813697218895,-5.126092910766602,2.406391143798828,2.075284004211426,4.034509658813477,0.31224048137664795,0.2795692980289459,-0.39471912384033203,0.8200041055679321
218,29864,29859,0.0030388631857931614,-0.014139355160295963,0.9499837756156921,1.248419165611267,-9.643057823181152,2.617696523666382,2.075050115585327,4.034633636474609,0.31272652745246887,0.31736981868743896,-0.2622867822647095,0.8407110571861267
219,29874,29869,-0.047928061336278915,0.034538526087999344,0.9872839450836182,0.19020110368728638,-2.843571186065674,3.1069724559783936,2.0760269165039062,4.031785488128662,0.31299614906311035,0.5027320384979248,-0.289676696062088,0.8564385175704956
220,29884,29879,-0.006568711716681719,-0.005175980273634195,0.9951304793357849,-1.8026591539382935,-1.8678169250488281,3.79374361038208,2.0758275985717773,4.031713485717773,0.31534242630004883,0.4216446280479431,-0.3328867256641388,0.8930412530899048
221,29894,29889,-0.030537046492099762,0.0597800575196743,1.0162872076034546,-4.782721042633057,0.5262358784675598,3.724569082260132,2.0767734050750732,4.030195236206055,0.3157046139240265,0.3868008553981781,-0.35090380907058716,0.9169164299964905
222,29904,29899,0.0076309507712721825,0.002217489294707775,1.0115305185317993,-4.595382213592529,1.6545597314834595,3.4474751949310303,2.0771501064300537,4.02894926071167,0.3161203861236572,0.46759477257728577,-0.45151975750923157,0.9490567445755005
223,29914,29909,-0.009934861212968826,-0.020309560000896454,1.0344898700714111,-5.101612567901611,2.2646007537841797,2.9616682529449463,2.077054262161255,4.028275012969971,0.3164104223251343,0.461530476808548,-0.48543673753738403,0.963179349899292
224,29924,29919,-0.003863678313791752,-0.007917622104287148,1.0191316604614258,-3.7012317180633545,2.9471588134765625,2.8842334747314453,2.0774683952331543,4.029505252838135,0.31692618131637573,0.3654777705669403,-0.43152374029159546,1.0176007747650146
225,29934,29929,0.009179950691759586,0.05208124965429306,0.9877707362174988,-2.137627124786377,4.1578049659729,2.841229200363159,2.0785975456237793,4.028850078582764,0.3173295855522156,0.3314691185951233,-0.4361574351787567,1.0955175161361694
226,29944,29939,0.013027875684201717,-0.01399440411478281,0.9608621001243591,-0.9484965205192566,3.6706435680389404,3.3568618297576904,2.0796210765838623,4.0298686027526855,0.3178149163722992,0.15002451837062836,-0.48962560296058655,1.1380845308303833
227,29954,29949,0.04989863187074661,0.002080434001982212,0.927598237991333,-1.584032416343689,1.6637647151947021,3.4846062660217285,2.0821382999420166,4.029893398284912,0.3185501992702484,0.16245470941066742,-0.5433282256126404,1.1629860401153564
228,29964,29959,0.09077981114387512,0.034098055213689804,0.96906977891922,-0.7915604114532471,-2.539949655532837,3.407888889312744,2.083179473876953,4.031255722045898,0.3189564645290375,0.30366989970207214,-0.5087377429008484,1.2172679901123047
229,29974,29969,0.050795190036296844,0.004893772769719362,1.0331957340240479,-0.23488068580627441,-5.249886512756348,2.38624906539917,2.0830700397491455,4.030303478240967,0.3194545805454254,0.4058663249015808,-0.5475069880485535,1.2424979209899902
230,29984,29979,0.029216105118393898,-0.0590541809797287,0.969580352306366,0.4310838580131531,-5.407281875610352,2.539097785949707,2.083604335784912,4.030101776123047,0.31990891695022583,0.36848562955856323,-0.4870506227016449,1.2637267112731934
231,29994,29989,-0.02525203302502632,0.021350078284740448,0.9377809762954712,0.43611589074134827,-3.1058788299560547,3.087592840194702,2.0854523181915283,4.028957366943359,0.3201931416988373,0.3965516686439514,-0.42553454637527466,1.2900073528289795
232,30004,29999,0.004585149697959423,0.04168333113193512,0.8988890647888184,-1.066087245941162,-0.8461055755615234,3.651710033416748,2.086772918701172,4.028171062469482,0.3204353153705597,0.528489351272583,-0.4723220765590668,1.3184378147125244
233,30014,30009,0.013298469595611095,0.018082547932863235,0.9576937556266785,-3.417713165283203,0.4406856894493103,3.6814255714416504,2.0868515968322754,4.02842903137207,0.3232296109199524,0.46193623542785645,-0.5464366674423218,1.3630157709121704
234,30024,30019,0.017125584185123444,-0.04543440788984299,0.9546388387680054,-4.926977157592773,2.586322069168091,3.3584187030792236,2.0881218910217285,4.0287346839904785,0.3234845697879791,0.3688579499721527,-0.6453836560249329,1.3997095823287964
235,30034,30029,-0.013526709750294685,-0.12244116514921188,0.9588610529899597,-5.274581432342529,3.510202646255493,3.0737991333007812,2.0897445678710938,4.028411865234375,0.3236699104309082,0.33151689171791077,-0.5992020964622498,1.4211660623550415
236,30044,30039,-0.08324628323316574,-0.09979578107595444,1.0162525177001953,-4.130763530731201,2.543426752090454,2.736846446990967,2.0907628536224365,4.0276408195495605,0.32393622398376465,0.37891948223114014,-0.7067663669586182,1.4520492553710938
237,30054,30049,-0.030209610238671303,-0.06441155821084976,0.9941897392272949,-3.2264857292175293,2.727182626724243,3.433988571166992,2.090928554534912,4.0274176597595215,0.32281431555747986,0.24458730220794678,-0.79506516456604,1.4913372993469238
238,30064,30059,-0.009400906041264534,-0.0064767105504870415,0.9346351027488708,-2.36018443107605,1.2233144044876099,3.976543426513672,2.092308282852173,4.027775287628174,0.32287582755088806,0.3113047480583191,-0.8639659881591797,1.5210996866226196
239,30074,30069,-0.05156802386045456,0.03138314187526703,0.9909926652908325,0.7757596969604492,-1.1040526628494263,3.6918139457702637,2.0924251079559326,4.0288190841674805,0.3230818212032318,0.3236950635910034,-0.880512535572052,1.5676714181900024
