,timestamp_start,timestamp_end,acc.x,acc.y,acc.z,gyro.x,gyro.y,gyro.z,stateEstimate.x,stateEstimate.y,stateEstimate.z,stabilizer.pitch,stabilizer.roll,stabilizer.yaw
0,33268,33265,0.002538843546062708,-0.003518071724101901,0.9587684869766235,-6.108514308929443,15.72995376586914,0.38993701338768005,2.0250067710876465,4.0106329917907715,0.17180854082107544,-0.0632927343249321,0.13566954433918,2.421663522720337
1,33278,33275,0.016692645847797394,0.08506296575069427,0.9685987830162048,-2.357156276702881,10.548490524291992,1.1460939645767212,2.0256588459014893,4.0097222328186035,0.16971467435359955,-0.20896106958389282,0.2958090603351593,2.421069383621216
2,33288,33285,-0.007011874578893185,0.06541452556848526,1.016823649406433,3.264702558517456,0.9621884822845459,1.2651021480560303,2.0239031314849854,4.009373188018799,0.17205603420734406,-0.12871786952018738,0.33631131052970886,2.4632349014282227
3,33298,33295,0.03622964024543762,-0.0323781780898571,0.9559098482131958,8.246095657348633,-7.052132606506348,0.7021299004554749,2.021921157836914,4.00903844833374,0.17443493008613586,0.20505279302597046,0.45324721932411194,2.5260512828826904
4,33308,33305,0.012249495834112167,-0.016888050362467766,0.9694972038269043,10.5254545211792,-14.750561714172363,0.31490620970726013,2.024343967437744,4.011797904968262,0.1763346940279007,-0.010095598176121712,0.5685703754425049,2.498840093612671
5,33318,33315,-0.03464488685131073,-0.030270427465438843,1.0502272844314575,9.40295696258545,-15.27685260772705,0.7157980799674988,2.0222620964050293,4.011735916137695,0.17174813151359558,0.28951480984687805,0.7131085991859436,2.5232863426208496
6,33328,33325,0.03451129049062729,-0.0752774104475975,1.0596535205841064,5.574084281921387,-11.567095756530762,0.7118040323257446,2.02237606048584,4.012113571166992,0.17295368015766144,0.5178161859512329,1.1272730827331543,2.5487711429595947
7,33338,33335,0.03355127573013306,-0.11202189326286316,1.0395512580871582,-1.160024881362915,-7.970015048980713,0.745427668094635,2.0111167430877686,4.015137672424316,0.17481586337089539,2.0140161514282227,0.704143762588501,2.723362445831299
8,33348,33345,0.03809933364391327,-0.03643446043133736,0.98891681432724,-7.763391494750977,0.2265988290309906,0.26817283034324646,2.011420726776123,4.0168776512146,0.1748218834400177,1.9036098718643188,0.8022448420524597,2.69911527633667
9,33358,33355,-0.02517482079565525,0.009436720050871372,1.072521448135376,-12.729822158813477,20.37105941772461,0.4345225393772125,2.0117428302764893,4.018128871917725,0.17800673842430115,1.6562782526016235,0.7045925855636597,2.671469211578369
10,33368,33365,-0.010718699544668198,-0.05853128433227539,1.0377079248428345,-13.346134185791016,35.33272933959961,0.7143005728721619,2.0100603103637695,4.016839504241943,0.17982611060142517,1.4142348766326904,0.8059718608856201,2.6482090950012207
11,33378,33375,-0.031849250197410583,-0.014426042325794697,1.0768636465072632,-11.547630310058594,42.767215728759766,0.5775994658470154,2.0105762481689453,4.017917156219482,0.17845913767814636,0.8860512971878052,0.6692125201225281,2.6367077827453613
12,33388,33385,0.013151505962014198,0.01867462508380413,1.0707865953445435,-9.11152458190918,44.64140319824219,1.2254891395568848,2.0110690593719482,4.018046855926514,0.18028704822063446,0.26058855652809143,0.5555857419967651,2.6180944442749023
13,33398,33395,-0.007202534005045891,-0.03126605600118637,1.057805061340332,-7.618142127990723,38.013492584228516,1.7195874452590942,2.0096540451049805,4.017934799194336,0.18158529698848724,0.055683672428131104,0.7468405365943909,2.641563892364502
14,33408,33405,0.024127691984176636,0.007308065891265869,1.0644603967666626,-5.64000940322876,24.591739654541016,1.4344731569290161,2.010551929473877,4.022092342376709,0.18372748792171478,-0.48702874779701233,0.5825105309486389,2.6462011337280273
15,33418,33415,0.017070427536964417,-0.0334332101047039,1.0515820980072021,-4.9405837059021,11.485610008239746,2.3253848552703857,2.0105860233306885,4.020749568939209,0.17907093465328217,-0.9295890927314758,0.6718783378601074,2.6314125061035156
16,33428,33425,0.0119111817330122,-0.0213181059807539,1.0413957834243774,-4.772042274475098,-1.7463408708572388,2.530329465866089,2.011171340942383,4.023841381072998,0.1804385930299759,-0.976527750492096,0.6725514531135559,2.669863224029541
17,33438,33435,-0.0028207185678184032,-0.010923504829406738,1.0676617622375488,-5.934313774108887,-15.3101806640625,2.9214026927948,2.0101044178009033,4.023111820220947,0.18192346394062042,-0.9640828371047974,0.5915549397468567,2.693324327468872
18,33448,33445,0.006291342433542013,0.04572194069623947,1.076709270477295,-9.571710586547852,-15.767538070678711,3.1155595779418945,2.0108416080474854,4.02340841293335,0.18181844055652618,-0.9091887474060059,0.41357138752937317,2.7024762630462646
19,33458,33455,-0.02153271995484829,-0.03878553956747055,1.0619568824768066,-11.32967758178711,-13.05817699432373,3.6026759147644043,2.0087718963623047,4.019536018371582,0.18303218483924866,-0.5290204286575317,0.8406546115875244,2.814126968383789
20,33468,33465,0.030171304941177368,0.019139373674988747,1.0867843627929688,-12.982089042663574,-8.419655799865723,3.323977470397949,2.0083489418029785,4.020379066467285,0.18483678996562958,-0.4359148442745209,0.6603443026542664,2.8337655067443848
21,33478,33475,0.00413351459428668,-0.01804867945611477,1.0670475959777832,-17.413057327270508,-0.09695125371217728,3.0797834396362305,2.0092508792877197,4.022396087646484,0.18572929501533508,-0.4893817901611328,0.5265054106712341,2.8485429286956787
22,33488,33485,-0.000261133536696434,-0.025257669389247894,1.0779142379760742,-20.53350067138672,6.395498752593994,3.050656318664551,2.008845090866089,4.023272514343262,0.1878563016653061,-0.5086080431938171,0.11116962879896164,2.8440356254577637
23,33498,33495,0.0028559609781950712,-0.02873947285115719,1.066704511642456,-19.897701263427734,10.426410675048828,2.918668508529663,2.009263753890991,4.023782730102539,0.18969999253749847,-0.6945238709449768,-0.2417668253183365,2.8381943702697754
24,33508,33505,0.01616375520825386,0.0002913883072324097,1.0725035667419434,-15.692038536071777,11.685585975646973,2.645343542098999,2.0107340812683105,4.02248477935791,0.1924629509449005,-0.8531982898712158,-0.05951472371816635,2.9199767112731934
25,33518,33515,-0.00929081067442894,0.016683120280504227,1.0592163801193237,-11.503756523132324,8.116981506347656,2.62819242477417,2.0107572078704834,4.022724628448486,0.1945728212594986,-1.0110808610916138,-0.3649345338344574,2.919055461883545
26,33528,33525,-0.005263845901936293,-0.013288135640323162,1.0647655725479126,-7.506721496582031,2.47503662109375,2.436081647872925,2.0111308097839355,4.025180339813232,0.19660095870494843,-1.1039140224456787,-0.5098352432250977,2.940798759460449
27,33538,33535,0.00914248637855053,0.0386459119617939,1.0769023895263672,-3.8109917640686035,-4.268075942993164,2.363217830657959,2.0103302001953125,4.023797988891602,0.19868189096450806,-1.0950170755386353,-0.5093143582344055,2.981912612915039
28,33548,33545,0.019039439037442207,0.04328792914748192,1.0951926708221436,-1.113226294517517,-9.7930269241333,1.6845399141311646,2.010638475418091,4.02960729598999,0.20032528042793274,-1.044202446937561,-0.6680910587310791,2.9816670417785645
29,33558,33555,0.0423080176115036,-0.1833166778087616,1.0017038583755493,0.022004378959536552,-13.181358337402344,1.9113824367523193,2.01171875,4.030435085296631,0.20250539481639862,-1.133420467376709,-0.772491455078125,2.9807608127593994
30,33568,33565,0.041328780353069305,-0.09087101370096207,1.051024317741394,0.8098443150520325,-15.858733177185059,2.0026919841766357,2.010037899017334,4.0330939292907715,0.20483262836933136,-0.913482666015625,-0.8350205421447754,2.9882020950317383
31,33578,33575,-0.011853855103254318,-0.01780298538506031,1.0225569009780884,1.1988977193832397,-14.9014892578125,1.389442801475525,2.0091676712036133,4.032247543334961,0.20816121995449066,-0.6658691763877869,-0.8774794936180115,2.9961934089660645
32,33588,33585,0.010984395630657673,0.17608222365379333,1.0150296688079834,2.549301862716675,-11.425779342651367,0.7675889134407043,2.0079517364501953,4.032107353210449,0.21049529314041138,-0.45895102620124817,-0.9018176794052124,3.000890016555786
33,33598,33595,0.048048071563243866,0.03143208101391792,0.9337987303733826,2.7902016639709473,-8.688028335571289,0.882976233959198,2.0092592239379883,4.032413959503174,0.21292488276958466,-0.4439653158187866,-0.9016722440719604,3.0120155811309814
34,33608,33605,-0.011458254419267178,-0.03033926524221897,1.023473858833313,2.8757529258728027,-3.5897622108459473,0.4136931896209717,2.009549617767334,4.032824993133545,0.21823415160179138,-0.4654567837715149,-1.0341967344284058,3.0004801750183105
35,33618,33615,0.016025224700570107,-0.1430841088294983,1.0287326574325562,2.3263471126556396,0.5976684093475342,0.47928163409233093,2.0087804794311523,4.032578468322754,0.22096505761146545,-0.2683233916759491,-0.855915904045105,3.019850254058838
36,33628,33625,-0.013284378685057163,-0.0721825584769249,1.0552306175231934,4.104593276977539,1.9748259782791138,0.2424774020910263,2.0047924518585205,4.034838676452637,0.22330135107040405,0.19723202288150787,-0.8384020924568176,2.9744882583618164
37,33638,33635,0.020700372755527496,-0.058741290122270584,0.957412838935852,4.534276485443115,2.113564968109131,-0.6810640096664429,2.003504753112793,4.037448406219482,0.22587385773658752,0.16270463168621063,-1.0743792057037354,2.936905860900879
38,33648,33645,-0.07938123494386673,0.0014070310862734914,1.025702953338623,4.726668834686279,7.4863600730896,-0.6646786332130432,2.003875732421875,4.043367385864258,0.22668306529521942,0.12317722290754318,-1.409281611442566,2.8878839015960693
39,33658,33655,-0.042235344648361206,-0.030403677374124527,0.9839217066764832,8.23703384399414,11.286515235900879,-0.8182039856910706,2.005981683731079,4.044662952423096,0.22980406880378723,-0.14275845885276794,-1.2569551467895508,2.9170074462890625
40,33668,33665,-0.04693516343832016,-0.02214551903307438,0.9843929409980774,14.097177505493164,8.432809829711914,-0.770123302936554,2.0052671432495117,4.050565242767334,0.23148347437381744,-0.3595922589302063,-1.619956612586975,2.87880539894104
41,33678,33675,-0.008177031762897968,-0.029181919991970062,0.9769350290298462,19.078792572021484,8.790289878845215,-1.3409100770950317,2.0063083171844482,4.052316188812256,0.23610945045948029,-0.5431383848190308,-1.269653081893921,2.903156280517578
42,33688,33685,0.05605984106659889,-0.024975161999464035,0.9607205390930176,25.09892463684082,3.77986478805542,-1.6144523620605469,2.005598306655884,4.0517578125,0.23909877240657806,-0.771206259727478,-0.8527989387512207,2.933840274810791
43,33698,33695,0.024133916944265366,0.10470189154148102,1.0126796960830688,28.447513580322266,-2.1384425163269043,-2.2783055305480957,2.005939483642578,4.051681041717529,0.2418140023946762,-0.8282957077026367,-0.4403044581413269,2.9387753009796143
44,33708,33705,0.004813114181160927,0.02636376954615116,0.9610803127288818,26.07696533203125,-9.448446273803711,-3.2047173976898193,2.004831314086914,4.0529093742370605,0.2432202845811844,-0.7825852036476135,-0.21810586750507355,2.906169891357422
45,33718,33715,0.03888249769806862,-0.06259540468454361,0.9596152305603027,19.842853546142578,-14.521714210510254,-2.584646701812744,2.0054194927215576,4.0540876388549805,0.24562175571918488,-0.7676439881324768,0.18628358840942383,2.9052305221557617
46,33728,33725,0.03944000229239464,-0.13465270400047302,1.0042554140090942,11.972546577453613,-16.71036720275879,-2.930544376373291,2.0058858394622803,4.054682731628418,0.24797378480434418,-0.5937167406082153,0.5412158370018005,2.8935084342956543
47,33738,33735,0.007825645618140697,-0.05271746218204498,0.9491163492202759,4.966886043548584,-13.071507453918457,-3.1602606773376465,2.0051910877227783,4.055948734283447,0.25017502903938293,-0.46522194147109985,0.748094379901886,2.8769149780273438
48,33748,33745,0.15585370361804962,0.0412183552980423,0.8969874382019043,-3.144819498062134,-13.344135284423828,-3.6382229328155518,2.005295753479004,4.057347297668457,0.2524789869785309,-0.24261169135570526,0.7475296854972839,2.8287570476531982
49,33758,33755,0.08063015341758728,-0.003811373608186841,0.9059266448020935,-10.2492094039917,-6.2400922775268555,-3.7169766426086426,2.0044190883636475,4.058396816253662,0.25472292304039,-0.039140596985816956,0.6971879601478577,2.7865962982177734
50,33768,33765,-0.02144533023238182,-0.022423116490244865,0.9260292053222656,-12.080781936645508,-6.14528751373291,-2.8975253105163574,2.0041661262512207,4.056377410888672,0.25663554668426514,0.06450747698545456,0.8318884968757629,2.775085687637329
51,33778,33775,-0.034098073840141296,0.023527653887867928,0.9749071598052979,-12.728073120117188,-1.525853157043457,-3.432715892791748,2.0027241706848145,4.0538811683654785,0.25928762555122375,0.13913516700267792,0.9078018665313721,2.7627625465393066
52,33788,33785,0.006199506111443043,-0.09652432054281235,0.9069200158119202,-12.653454780578613,3.439483642578125,-3.5168673992156982,2.0034279823303223,4.054667949676514,0.2615043520927429,0.06378256529569626,0.6620898842811584,2.7182998657226562
53,33798,33795,-0.0168257225304842,-0.047886770218610764,0.9355992078781128,-12.082937240600586,3.297422409057617,-2.742802858352661,2.005444288253784,4.060135841369629,0.26398223638534546,-0.20988613367080688,0.06773478537797928,2.6402878761291504
54,33808,33805,-0.014265930280089378,-0.07495660334825516,0.9260069131851196,-9.82960319519043,5.873563289642334,-3.581076145172119,2.0039749145507812,4.058897972106934,0.26818618178367615,-0.03419918566942215,0.11683894693851471,2.630025863647461
55,33818,33815,-0.0073267612606287,-0.013094770722091198,0.8728213310241699,-3.4794704914093018,1.7539812326431274,-3.3991918563842773,2.00805926322937,4.055974006652832,0.2702291011810303,-0.5491600632667542,0.3392741084098816,2.59480881690979
56,33828,33825,0.022937452420592308,-0.03264976665377617,0.9089149236679077,1.8477343320846558,-2.106309652328491,-4.187125205993652,2.0100252628326416,4.047753810882568,0.2713810205459595,-0.6617110371589661,1.132786750793457,2.6132354736328125
57,33838,33835,-0.015480844303965569,0.010021725669503212,0.9553640484809875,2.928269386291504,-8.679085731506348,-5.055344104766846,2.0098047256469727,4.048784255981445,0.27291321754455566,-0.695527970790863,1.044356107711792,2.560455799102783
58,33848,33845,-0.007683873642235994,-0.02458728291094303,0.9150742888450623,-4.877140522003174,-15.863980293273926,-4.966451644897461,2.010967254638672,4.04973840713501,0.2745446562767029,-0.6861133575439453,1.037404179573059,2.5004961490631104
59,33858,33855,0.042757995426654816,-0.053628578782081604,0.8826218247413635,-15.242138862609863,-20.40981101989746,-5.257956027984619,2.0097362995147705,4.049517631530762,0.2766198515892029,-0.3362048268318176,0.899817705154419,2.4576525688171387
60,33868,33865,0.04148188605904579,-0.04692535102367401,0.8785259127616882,-24.52042007446289,-26.66669273376465,-4.951924800872803,2.0092530250549316,4.052447319030762,0.2786894738674164,0.0062033007852733135,0.5269299149513245,2.3989853858947754
61,33878,33875,-0.020745282992720604,-0.002248838311061263,0.9453027844429016,-29.387117385864258,-25.196109771728516,-4.949907302856445,2.0105278491973877,4.052005767822266,0.2843862771987915,0.1911896914243698,0.2554415762424469,2.3376660346984863
62,33888,33885,-0.0943169817328453,-0.000697285053320229,0.9672666192054749,-28.3004150390625,-21.65544891357422,-5.391350746154785,2.011353015899658,4.054174900054932,0.2860662043094635,0.4018200635910034,-0.22204063832759857,2.270338296890259
63,33898,33895,-0.030212443321943283,-0.009319094009697437,0.9598627686500549,-23.51705551147461,-14.890522003173828,-4.703634738922119,2.0107388496398926,4.053909778594971,0.2876449525356293,0.7345485091209412,-0.44059494137763977,2.232966899871826
64,33908,33905,0.003568649757653475,-0.007100568152964115,0.959888219833374,-13.574640274047852,-6.567533016204834,-4.83284330368042,2.0115604400634766,4.052803039550781,0.2882572412490845,0.7860126495361328,-0.643808126449585,2.1790566444396973
65,33918,33915,0.0033351045567542315,0.10790516436100006,0.9342976212501526,-5.056881904602051,1.2553207874298096,-4.8119916915893555,2.013357400894165,4.055534839630127,0.2896515727043152,0.7977065443992615,-0.8430474400520325,2.1276674270629883
66,33928,33925,-0.012975293211638927,0.09920934587717056,0.9495739936828613,2.9613194465637207,2.9458298683166504,-4.060359477996826,2.0138564109802246,4.055578231811523,0.29100701212882996,0.842907190322876,-0.8880590200424194,2.082331895828247
67,33938,33935,0.023922884836792946,0.07007385045289993,0.9237180352210999,7.730328559875488,6.301633358001709,-4.710094928741455,2.0137815475463867,4.056354522705078,0.29355669021606445,0.8363857865333557,-0.8048607707023621,2.041503667831421
68,33948,33945,-0.019934406504034996,0.021862810477614403,0.9017098546028137,10.631693840026855,1.3231050968170166,-4.468938827514648,2.0139307975769043,4.056650161743164,0.29481685161590576,0.8005375862121582,-0.7995442748069763,1.9966065883636475
69,33958,33955,-0.040928713977336884,-0.07472426444292068,0.8983088731765747,8.522272109985352,-4.497725486755371,-4.609358310699463,2.0126914978027344,4.058621883392334,0.2960151135921478,0.8245924115180969,-0.6818146705627441,1.950805425643921
70,33968,33965,0.06549391895532608,-0.027065590023994446,0.8966919779777527,3.9048526287078857,-3.3368923664093018,-4.663743019104004,2.012356758117676,4.058146953582764,0.29711610078811646,0.9152608513832092,-0.6002622842788696,1.904197335243225
71,33978,33975,0.0525774247944355,-0.004819939378648996,0.9198018908500671,-2.574618339538574,-4.867475986480713,-4.451713562011719,2.0130035877227783,4.058668613433838,0.298810750246048,0.8496989011764526,-0.7512462139129639,1.8736019134521484
72,33988,33985,0.09277576953172684,-0.06842359155416489,0.9388311505317688,-6.457117557525635,-5.231601238250732,-4.3022918701171875,2.011732578277588,4.058452606201172,0.29980525374412537,1.046910047531128,-0.7515363097190857,1.824716567993164
73,33998,33995,0.050750140100717545,-0.011331668123602867,0.968519926071167,-7.256271839141846,-7.134551048278809,-4.446272373199463,2.0111522674560547,4.059211730957031,0.3006810247898102,1.1653826236724854,-0.8892602324485779,1.7856988906860352
74,34008,34005,-0.004882684908807278,0.0031840456649661064,0.9506784081459045,-4.94216775894165,-5.634895324707031,-4.513000011444092,2.0097763538360596,4.060091972351074,0.30262982845306396,1.2895886898040771,-0.9528422951698303,1.7383829355239868
75,34018,34015,0.008218669332563877,-0.044104985892772675,0.9021627902984619,-0.9053170084953308,-0.04840915650129318,-4.483263969421387,2.0118119716644287,4.063784599304199,0.3036041855812073,1.1464638710021973,-0.9760535359382629,1.7029392719268799
76,34028,34025,0.0355769544839859,-0.07116574794054031,0.877409040927887,3.3682239055633545,0.7619805335998535,-4.163547039031982,2.011403799057007,4.063328742980957,0.3043774962425232,1.1714049577713013,-1.0003052949905396,1.6584957838058472
77,34038,34035,-0.005921071395277977,0.0890154242515564,0.9496840834617615,5.99894905090332,3.4421939849853516,-3.9856343269348145,2.011061906814575,4.064930438995361,0.30258363485336304,1.2654846906661987,-0.9465361833572388,1.6024932861328125
78,34048,34045,0.02456217259168625,0.06538527458906174,0.950674295425415,8.318258285522461,4.358700752258301,-4.150009632110596,2.012120485305786,4.065904140472412,0.3030441403388977,1.1389986276626587,-1.004530429840088,1.5865411758422852
79,34058,34055,0.023597395047545433,-0.005889527034014463,0.9447989463806152,8.335833549499512,6.178774356842041,-4.44331693649292,2.0096845626831055,4.0652337074279785,0.30341842770576477,1.3044333457946777,-0.8641344904899597,1.5185457468032837
80,34068,34065,0.05248219519853592,0.057610515505075455,0.9208410382270813,8.874100685119629,5.232660293579102,-4.332863807678223,2.01008677482605,4.065462112426758,0.3037780225276947,1.202131748199463,-0.7234336137771606,1.4730370044708252
81,34078,34075,0.0005930546321906149,0.026471883058547974,0.9930270314216614,8.026191711425781,9.106986045837402,-4.13809061050415,2.0104753971099854,4.064438343048096,0.2980045974254608,1.1043967008590698,-0.5830597877502441,1.4276299476623535
82,34088,34085,-0.023456111550331116,0.11770249903202057,1.0162681341171265,6.169662952423096,7.138304233551025,-3.4122660160064697,2.010761022567749,4.065961837768555,0.29787153005599976,0.9668615460395813,-0.4653359651565552,1.3875699043273926
83,34098,34095,0.023058461025357246,-0.018989142030477524,0.9387915730476379,3.629377841949463,6.690858840942383,-4.042830944061279,2.010589361190796,4.066736221313477,0.29773658514022827,0.9261984825134277,-0.46436607837677,1.3588167428970337
84,34108,34105,0.006878795567899942,-0.04448116198182106,0.9635188579559326,1.671423316001892,4.357240676879883,-4.403995990753174,2.010248899459839,4.066545486450195,0.2962118685245514,0.892246425151825,-0.422325998544693,1.3144725561141968
85,34118,34115,-0.09456384927034378,-0.06361772865056992,0.9539355635643005,-0.3962532877922058,4.042241096496582,-3.696181058883667,2.0087530612945557,4.067717552185059,0.2958986461162567,0.9643346071243286,-0.4198150932788849,1.2650253772735596
86,34128,34125,-0.038640521466732025,-0.06674756854772568,0.9585486650466919,-0.868156909942627,6.174587249755859,-2.7634074687957764,2.00898814201355,4.067279815673828,0.2955957353115082,0.8597345948219299,-0.43974730372428894,1.2437940835952759
87,34138,34135,-0.0028018367011100054,-0.003985723480582237,1.0095847845077515,0.41171231865882874,7.211158275604248,-2.1356377601623535,2.0108110904693604,4.071441650390625,0.2971186935901642,0.7353571653366089,-0.5338053703308105,1.2343966960906982
88,34148,34145,0.0030582421459257603,0.013756228610873222,1.0027637481689453,3.06630802154541,8.4762544631958,-2.0062880516052246,2.012051820755005,4.072569370269775,0.29686230421066284,0.5987614393234253,-0.517820417881012,1.2130346298217773
89,34158,34155,0.01028345339000225,0.0617629699409008,1.0112800598144531,4.7818474769592285,13.111598014831543,-1.7772136926651,2.0094125270843506,4.071842670440674,0.2966284155845642,0.6760171055793762,-0.4575319290161133,1.1750115156173706
90,34168,34165,-0.012960419990122318,0.11983112245798111,0.9588276147842407,5.690990447998047,18.731014251708984,-0.629187822341919,2.010172128677368,4.07291316986084,0.29835018515586853,0.5029614567756653,-0.3755013644695282,1.1568959951400757
91,34178,34175,-0.00591999851167202,0.08484479784965515,1.0286141633987427,6.241416931152344,22.802000045776367,-0.2219405323266983,2.009209632873535,4.072909355163574,0.29821065068244934,0.3095672130584717,-0.3567209243774414,1.154352068901062
92,34188,34185,0.018019089475274086,-0.07312823832035065,0.993615448474884,6.481947422027588,26.814912796020508,0.034928493201732635,2.0082955360412598,4.0732645988464355,0.29806309938430786,0.09856671839952469,-0.3230907618999481,1.1525294780731201
93,34198,34195,0.022338304668664932,0.015241652727127075,1.0236338376998901,5.888112545013428,24.951087951660156,0.9741063117980957,2.0076770782470703,4.073404788970947,0.2979746460914612,-0.25231561064720154,-0.2873927056789398,1.1597387790679932
94,34208,34205,-0.02989206276834011,-0.06142040714621544,1.0133817195892334,5.6860222816467285,25.089841842651367,1.545620083808899,2.0088205337524414,4.074324607849121,0.29852306842803955,-0.6418757438659668,-0.1842469424009323,1.1712597608566284
95,34218,34215,-0.044706374406814575,-0.017475856468081474,1.0126588344573975,4.345688819885254,20.7318172454834,2.1442716121673584,2.0063369274139404,4.074875354766846,0.2987004220485687,-0.633802592754364,-0.0945165827870369,1.1738215684890747
96,34228,34225,-0.044737786054611206,-0.007829687558114529,1.0458130836486816,3.6817920207977295,17.807456970214844,1.5309492349624634,2.0060153007507324,4.074841499328613,0.2986668050289154,-0.8716794848442078,-0.09846529364585876,1.1948970556259155
97,34238,34235,0.03734222427010536,0.014477121643722057,1.0186200141906738,2.36427903175354,14.141000747680664,1.5253223180770874,2.0049431324005127,4.07540225982666,0.30019837617874146,-0.9539883732795715,-0.11240214854478836,1.2081894874572754
98,34248,34245,0.04012076184153557,0.14389903843402863,0.9585683345794678,1.5110734701156616,8.187129020690918,1.8568850755691528,2.004939556121826,4.074583053588867,0.3002725839614868,-1.124125599861145,-0.06282982230186462,1.2268505096435547
99,34258,34255,0.028486035764217377,0.05558869242668152,0.961423397064209,2.3714587688446045,4.463518142700195,2.4169774055480957,2.004911422729492,4.07438325881958,0.30035433173179626,-1.2043492794036865,-0.0225196685642004,1.2467224597930908
100,34268,34265,-0.013601740822196007,0.04627230763435364,1.0940322875976562,3.165393590927124,6.019002914428711,3.629769802093506,2.004387140274048,4.074787616729736,0.29920119047164917,-1.2429077625274658,0.03056318685412407,1.2748631238937378
101,34278,34275,0.011498195119202137,-0.07700690627098083,0.9996944069862366,3.3449790477752686,8.982728958129883,4.143373966217041,2.004262924194336,4.076034069061279,0.2992725372314453,-1.3091113567352295,-0.059733543545007706,1.3025002479553223
102,34288,34285,-9.510012750979513e-05,0.01792004518210888,1.0268855094909668,2.8596251010894775,10.989384651184082,4.812901496887207,2.0059401988983154,4.077911853790283,0.2993387281894684,-1.4934417009353638,0.015208622440695763,1.3499598503112793
103,34298,34295,-0.041874561458826065,-0.000493655155878514,1.0569342374801636,3.341792345046997,14.953666687011719,4.988916873931885,2.0068392753601074,4.077346324920654,0.2993457019329071,-1.7099075317382812,0.08063500374555588,1.4023723602294922
104,34308,34305,0.07111823558807373,-0.12776219844818115,0.9884385466575623,3.2977397441864014,14.570216178894043,5.1844072341918945,2.005715847015381,4.077826499938965,0.3011848032474518,-1.7183420658111572,0.0753622055053711,1.4475109577178955
105,34318,34315,0.006880755070596933,-0.06418038159608841,1.01736319065094,2.5772507190704346,15.624774932861328,4.804641246795654,2.0057387351989746,4.079588413238525,0.30142271518707275,-1.9092539548873901,0.07388283312320709,1.4969093799591064
106,34328,34325,0.032251112163066864,0.04311574622988701,1.0375595092773438,3.729368209838867,9.825118064880371,5.321273326873779,2.0058271884918213,4.079685211181641,0.30167898535728455,-2.058802843093872,0.14474956691265106,1.5545580387115479
107,34338,34335,0.0577763170003891,0.00012650925782509148,1.0103189945220947,4.4514241218566895,2.7739615440368652,5.220545768737793,2.0056660175323486,4.079230308532715,0.30309274792671204,-2.110492706298828,0.2302418202161789,1.6168367862701416
108,34348,34345,0.02188277803361416,-0.04925853759050369,0.988766610622406,4.642045974731445,0.8895028829574585,4.30246639251709,2.006178140640259,4.078695297241211,0.30337193608283997,-2.2149806022644043,0.23919737339019775,1.657287836074829
109,34358,34355,-0.03287361562252045,-0.012059790082275867,1.0107953548431396,3.7353978157043457,-4.484549522399902,5.06520938873291,2.005199432373047,4.081027984619141,0.3037225306034088,-2.1802966594696045,0.25246983766555786,1.6971653699874878
110,34368,34365,0.010387390851974487,0.023684095591306686,1.0411674976348877,3.1527602672576904,-7.114328861236572,4.741793155670166,2.0021677017211914,4.079266548156738,0.30277398228645325,-2.0067474842071533,0.3317926824092865,1.7590299844741821
111,34378,34375,-0.020224180072546005,0.03619492053985596,1.048205852508545,4.20145845413208,-8.73779582977295,4.305927753448486,2.000784397125244,4.079474449157715,0.3031182289123535,-1.8789631128311157,0.40230876207351685,1.8170191049575806
112,34388,34385,-0.043671585619449615,0.004445440601557493,1.0174587965011597,1.5183573961257935,-3.233992576599121,3.8459625244140625,2.002291679382324,4.083332538604736,0.3034701347351074,-1.9092028141021729,0.39426782727241516,1.8416283130645752
113,34398,34395,0.023611029610037804,-0.06974725425243378,0.9574277997016907,0.22222182154655457,0.5775147080421448,4.031332492828369,2.0020172595977783,4.084031581878662,0.30385878682136536,-1.8566988706588745,0.35058677196502686,1.86470365524292
114,34408,34405,-0.00855245254933834,-0.08164888620376587,1.0435974597930908,-1.5009288787841797,6.289971351623535,3.816154956817627,2.0035035610198975,4.086903095245361,0.30641284584999084,-1.9545491933822632,0.36340051889419556,1.9035096168518066
115,34418,34415,-0.013319122605025768,-0.06909085810184479,0.9657058715820312,-3.423192024230957,6.985456466674805,3.6831881999969482,2.0044820308685303,4.087667465209961,0.30690068006515503,-2.043792247772217,0.35096970200538635,1.941545844078064
116,34428,34425,-0.042842164635658264,0.005422807298600674,0.9791034460067749,-6.881677150726318,6.345878601074219,4.3433427810668945,2.005258798599243,4.087947845458984,0.30740293860435486,-2.1431918144226074,0.28663381934165955,1.9713811874389648
117,34438,34435,0.018580744042992592,-0.08989209681749344,1.001074194908142,-7.4611897468566895,2.2712628841400146,5.278317928314209,2.005540370941162,4.08919095993042,0.30589744448661804,-2.1859450340270996,0.18752503395080566,2.0101208686828613
118,34448,34445,0.023745272308588028,-0.13390663266181946,0.9693219065666199,-7.653998374938965,1.2187747955322266,6.457137584686279,2.005053758621216,4.088781833648682,0.30594706535339355,-2.1487410068511963,0.15413102507591248,2.09055757522583
119,34458,34455,0.019040243700146675,-0.006739317439496517,1.0241841077804565,-4.102123737335205,-9.116655349731445,7.232665538787842,2.0055551528930664,4.090885639190674,0.30642828345298767,-2.046612501144409,0.06902080029249191,2.155507802963257
120,34468,34465,-0.005878602620214224,0.02551349811255932,1.0473848581314087,-2.3813581466674805,-12.370491027832031,7.237452983856201,2.0071096420288086,4.092165946960449,0.3090815246105194,-1.9799586534500122,0.036726512014865875,2.2253429889678955
121,34478,34475,0.007147130090743303,0.013233724050223827,0.9969724416732788,0.18133167922496796,-12.61414623260498,7.470199108123779,2.008077383041382,4.091631889343262,0.3101159930229187,-1.8553669452667236,0.041176989674568176,2.3024864196777344
122,34488,34485,0.04352106153964996,-0.06878772377967834,0.9383617043495178,2.4659504890441895,-12.544937133789062,6.848818302154541,2.0074915885925293,4.091392517089844,0.3101598620414734,-1.6653603315353394,0.07658524811267853,2.3884501457214355
123,34498,34495,-0.046487413346767426,-0.009751788340508938,1.0511478185653687,2.859881639480591,-12.878003120422363,4.544367790222168,2.0092220306396484,4.089437961578369,0.310660183429718,-1.6235445737838745,0.28856393694877625,2.5034310817718506
124,34508,34505,0.027194984257221222,-0.12046820670366287,0.9589570760726929,-0.9567673206329346,-1.8960785865783691,1.8976871967315674,2.01003360748291,4.091546535491943,0.3117896616458893,-1.5559390783309937,0.08928579092025757,2.467741012573242
125,34518,34515,0.0689239650964737,-0.047714125365018845,1.005215048789978,-3.2524266242980957,-4.916334629058838,1.3329312801361084,2.0117239952087402,4.092319488525391,0.31292054057121277,-1.499645709991455,0.08070915937423706,2.4866416454315186
126,34528,34525,0.00716638658195734,0.10974671691656113,1.0139261484146118,-6.325449466705322,-2.7508513927459717,-0.02601437084376812,2.011680841445923,4.094241619110107,0.31294164061546326,-1.5326082706451416,0.017287136986851692,2.4862022399902344
127,34538,34535,-0.03794916719198227,-0.14246386289596558,0.9812607765197754,-7.837185382843018,-4.438514709472656,-0.7441526055335999,2.0132148265838623,4.096330642700195,0.3079291880130768,-1.5472599267959595,-0.003290601074695587,2.4935309886932373
128,34548,34545,-0.04729905724525452,-0.08851965516805649,0.9823407530784607,-6.7846198081970215,-4.327483654022217,-1.0585464239120483,2.014346122741699,4.096844673156738,0.30807286500930786,-1.5440372228622437,-0.11912901699542999,2.472177267074585
129,34558,34555,0.010277175344526768,-0.03455721586942673,0.9660130739212036,-3.3091936111450195,-6.257920265197754,-1.8051230907440186,2.014286994934082,4.096460342407227,0.3084079921245575,-1.3617088794708252,-0.12766052782535553,2.479349374771118
130,34568,34565,-0.036747176200151443,0.0268518328666687,1.0285108089447021,0.5695475339889526,-7.224127769470215,-2.035310745239258,2.0152251720428467,4.096585750579834,0.3086727261543274,-1.3157281875610352,-0.15382251143455505,2.457535743713379
131,34578,34575,0.028955023735761642,-0.03892219811677933,0.9496219754219055,4.884156227111816,-7.041009902954102,-1.4910491704940796,2.0159409046173096,4.0963640213012695,0.30888304114341736,-1.1811959743499756,-0.0974433496594429,2.4497148990631104
132,34588,34585,-0.003474058583378792,0.04889088496565819,1.0325392484664917,8.972342491149902,-8.376507759094238,-1.348527431488037,2.018974542617798,4.096111297607422,0.30892303586006165,-1.272706151008606,0.020772859454154968,2.4401957988739014
133,34598,34595,-0.007482717279344797,0.023847658187150955,0.9808328151702881,9.536515235900879,-6.210216522216797,-0.23872412741184235,2.0190415382385254,4.094902992248535,0.31166261434555054,-1.1295316219329834,0.17360420525074005,2.4493820667266846
134,34608,34605,0.008113180287182331,-0.016200566664338112,0.9698802828788757,6.300986289978027,-5.569780349731445,-0.003997683059424162,2.0191762447357178,4.0953850746154785,0.31196630001068115,-1.0091811418533325,0.23543775081634521,2.446561574935913
135,34618,34615,-0.008716583251953125,-0.0915074571967125,0.9960127472877502,3.0579159259796143,-8.12952995300293,-0.3549083173274994,2.0214853286743164,4.097263813018799,0.3122174143791199,-1.0326242446899414,0.16810554265975952,2.420689344406128
136,34628,34625,-0.02441294677555561,-0.06776341795921326,1.0634363889694214,0.604350209236145,-6.745471954345703,-0.8521986603736877,2.0219814777374268,4.097350597381592,0.31245413422584534,-0.9603649973869324,0.2072584331035614,2.418938636779785
137,34638,34635,0.033447764813899994,-0.06580187380313873,0.9499194622039795,-1.0758674144744873,-5.949222564697266,-1.2363183498382568,2.0231387615203857,4.100526332855225,0.3142651915550232,-0.8118941187858582,0.06574984639883041,2.3899922370910645
138,34648,34645,0.07956226170063019,-0.09842982888221741,0.998566210269928,-1.6333701610565186,-6.988650798797607,-1.5498818159103394,2.023301601409912,4.1007795333862305,0.3146795332431793,-0.7917581796646118,0.04909918084740639,2.3826189041137695
139,34658,34655,0.04776383936405182,-0.1719430685043335,0.9856809973716736,0.13400767743587494,-9.441512107849121,-0.7040755748748779,2.0257568359375,4.102652549743652,0.3150128424167633,-0.765240490436554,0.05833786353468895,2.3725521564483643
140,34668,34665,0.03375830873847008,-0.08770757168531418,0.9959291815757751,1.2712628841400146,-11.408920288085938,-0.4680045545101166,2.0249826908111572,4.102329254150391,0.31166282296180725,-0.47313380241394043,0.0927744135260582,2.3775758743286133
141,34678,34675,0.0020473776385188103,-0.040540095418691635,0.9657019972801208,3.0822532176971436,-12.043789863586426,-0.5955583453178406,2.0268754959106445,4.102892875671387,0.3117465674877167,-0.4857576787471771,0.144729346036911,2.3692057132720947
142,34688,34685,-0.005698352120816708,-0.0005448921583592892,1.0059289932250977,2.989427089691162,-9.42442798614502,-0.22228577733039856,2.0296919345855713,4.1041388511657715,0.3117748498916626,-0.50026535987854,0.21010379493236542,2.371549606323242
143,34698,34695,0.0015667174011468887,0.04513894394040108,1.022914171218872,2.9847240447998047,-9.10282039642334,-0.10146187990903854,2.0288405418395996,4.103825569152832,0.3123452067375183,-0.2958020269870758,0.2753576636314392,2.376685857772827
144,34708,34705,0.009603513404726982,-0.03432261571288109,0.9879975318908691,2.9086992740631104,-11.876778602600098,0.20146329700946808,2.0309510231018066,4.1063642501831055,0.3124731779098511,-0.2562550902366638,0.1769097000360489,2.3622665405273438
145,34718,34715,8.841553790261969e-05,-0.10898100584745407,0.9890952110290527,0.9423990845680237,-9.06363296508789,-0.6126865744590759,2.0302414894104004,4.105565547943115,0.31280043721199036,0.027278181165456772,0.3072696328163147,2.376377820968628
146,34728,34725,-0.009150692261755466,-0.057533275336027145,1.0015370845794678,-3.8527448177337646,-3.068235158920288,0.02612665668129921,2.0314972400665283,4.105261325836182,0.312976598739624,0.02463606931269169,0.22423093020915985,2.362522840499878
147,34738,34735,0.028884846717119217,-0.19498296082019806,1.0646108388900757,-2.9010276794433594,-6.329104423522949,-0.8372450470924377,2.0318570137023926,4.1060967445373535,0.31522610783576965,0.14894670248031616,0.1863231360912323,2.3594448566436768
148,34748,34745,0.03133195638656616,-0.055994268506765366,0.9863675236701965,-2.444674253463745,-5.278753757476807,1.1318007707595825,2.03129243850708,4.105865955352783,0.3155881464481354,0.25204917788505554,0.15591031312942505,2.3633108139038086
149,34758,34755,-0.004757951013743877,-0.07784609496593475,1.036433458328247,-1.8832439184188843,0.37447911500930786,0.7589049935340881,2.035900115966797,4.107688903808594,0.3158261179924011,-0.05842864513397217,0.06027739495038986,2.3606505393981934
150,34768,34765,0.0280038733035326,-0.07821523398160934,0.942243754863739,-0.004809890873730183,2.7811176776885986,1.2075444459915161,2.0352869033813477,4.106997013092041,0.31279146671295166,0.04865114763379097,0.05934847891330719,2.3753421306610107
151,34778,34775,0.001134356833063066,-0.014308992773294449,0.9438167214393616,0.9967429637908936,2.390397548675537,2.2164180278778076,2.0357937812805176,4.10695219039917,0.31304073333740234,0.1137261763215065,0.0890134871006012,2.398045778274536
152,34788,34785,0.044319331645965576,-0.06429030746221542,0.9602425694465637,1.867787480354309,0.5987314581871033,3.0913772583007812,2.038764715194702,4.107340335845947,0.3130038380622864,-0.11507833003997803,0.12739305198192596,2.4163055419921875
153,34798,34795,0.046692200005054474,-0.2327227145433426,0.9914207458496094,2.610048294067383,-5.5258402824401855,3.5626049041748047,2.038530111312866,4.106695652008057,0.31183895468711853,0.06262952834367752,0.1942797303199768,2.453758478164673
154,34808,34805,-0.007682207506150007,-0.09982509166002274,1.0342166423797607,2.6594369411468506,-8.154376029968262,3.2431154251098633,2.038794994354248,4.10728645324707,0.31186404824256897,0.21857087314128876,0.17586611211299896,2.4849212169647217
155,34818,34815,-0.00035032161395065486,-0.0390547439455986,0.9828430414199829,1.492342472076416,-9.029394149780273,2.755315065383911,2.04058575630188,4.106448650360107,0.3118233382701874,0.240891233086586,0.22490589320659637,2.5103204250335693
156,34828,34825,-0.003808351932093501,-0.007908537052571774,0.9979179501533508,0.38217541575431824,-6.800549507141113,1.4257820844650269,2.042168378829956,4.107057571411133,0.3117440938949585,0.2706088721752167,0.2578212320804596,2.5276598930358887
157,34838,34835,0.0050882031209766865,-0.0439053438603878,0.9995869994163513,0.2468368262052536,-5.492689609527588,1.3522939682006836,2.041424036026001,4.106688976287842,0.31370753049850464,0.5433468818664551,0.27367985248565674,2.5484836101531982
158,34848,34845,0.009766864590346813,-0.03528573736548424,0.9754959940910339,0.6124884486198425,-2.8654236793518066,0.7339959144592285,2.043517589569092,4.107463836669922,0.3137693405151367,0.4022882878780365,0.20135332643985748,2.5596725940704346
159,34858,34855,0.0054592047818005085,-0.10988298058509827,0.99244225025177,0.5062346458435059,1.7186129093170166,0.6946913003921509,2.0451712608337402,4.107583045959473,0.3138211965560913,0.36393865942955017,0.22663916647434235,2.566033363342285
160,34868,34865,0.04161772131919861,-0.027534369379281998,1.0622127056121826,1.9303786754608154,2.9275336265563965,0.9497861266136169,2.0453171730041504,4.108489513397217,0.31361788511276245,0.36238107085227966,0.1835574507713318,2.584897041320801
161,34878,34875,0.07898402214050293,-0.10716339200735092,1.0204064846038818,4.2038140296936035,0.8909644484519958,-0.10720396041870117,2.046391010284424,4.108373641967773,0.31377506256103516,0.42323368787765503,0.24772502481937408,2.5857837200164795
162,34888,34885,0.0073694163002073765,-0.12267781049013138,0.9933071732521057,4.588511943817139,3.861924171447754,-0.7940534353256226,2.046522378921509,4.108218669891357,0.3139524459838867,0.4715624153614044,0.333810031414032,2.577816963195801
163,34898,34895,-0.006629860028624535,-0.03771498054265976,1.019326090812683,5.641286373138428,3.964073419570923,-1.521946668624878,2.047828435897827,4.108015537261963,0.3136783838272095,0.33778640627861023,0.4347425699234009,2.554145336151123
164,34908,34905,-0.010040841065347195,-0.004292650148272514,1.0465835332870483,3.369846820831299,5.029477119445801,-1.8274480104446411,2.048311471939087,4.109318733215332,0.31388023495674133,0.3592577874660492,0.3679015636444092,2.5515670776367188
165,34918,34915,0.011228126473724842,0.022187182679772377,1.0311723947525024,0.9456868767738342,3.6448974609375,-2.748460054397583,2.0486021041870117,4.108908653259277,0.3140900433063507,0.41968411207199097,0.3995385766029358,2.5497119426727295
166,34928,34925,0.012489956803619862,0.007837442681193352,0.9681141376495361,-2.3304929733276367,3.5221424102783203,-2.527646064758301,2.0494344234466553,4.109344959259033,0.31385254859924316,0.3498939573764801,0.42310434579849243,2.5248162746429443
167,34938,34935,-0.07978805154561996,0.020813290029764175,1.0935152769088745,-3.588871717453003,2.7681539058685303,-3.4562432765960693,2.0495641231536865,4.10953950881958,0.31406423449516296,0.381481409072876,0.39576980471611023,2.5020079612731934
168,34948,34945,-0.03414226695895195,-0.06083594262599945,1.0447146892547607,-2.3150200843811035,0.7469824552536011,-2.549258232116699,2.0503084659576416,4.110096454620361,0.31426799297332764,0.35016825795173645,0.3563556969165802,2.472572088241577
169,34958,34955,-0.014711908996105194,-0.14592038094997406,0.9940711259841919,-3.390582799911499,1.4649361371994019,-1.9592088460922241,2.052060842514038,4.110459327697754,0.3145667612552643,0.26270800828933716,0.3998744785785675,2.4403164386749268
170,34968,34965,-0.006715313531458378,-0.017854414880275726,1.0080286264419556,-2.3764607906341553,-1.7664735317230225,-2.900899648666382,2.0530381202697754,4.110443115234375,0.3153868019580841,0.25340893864631653,0.3506065905094147,2.4157636165618896
171,34978,34975,0.0012128809466958046,-0.14362989366054535,0.9528128504753113,-1.7042460441589355,0.9842190742492676,-2.478445053100586,2.0539710521698,4.110561370849609,0.315733939409256,0.2629634141921997,0.31328171491622925,2.3910863399505615
172,34988,34985,0.023716937750577927,-0.0708528459072113,0.9888966083526611,-2.1398870944976807,2.5083413124084473,-3.8911099433898926,2.055466413497925,4.1108174324035645,0.3159867823123932,0.18802706897258759,0.2903357446193695,2.3614633083343506
173,34998,34995,0.025559714064002037,-0.015855511650443077,0.9706246852874756,-1.0508159399032593,1.4471999406814575,-2.799917697906494,2.0546748638153076,4.111199378967285,0.3187146782875061,0.24563896656036377,0.2622200548648834,2.3336057662963867
174,35008,35005,-0.002394986106082797,-0.028834166005253792,0.9904239773750305,-0.9611455798149109,2.284369707107544,-2.4273905754089355,2.0553054809570312,4.112541675567627,0.3192090094089508,0.29659736156463623,0.2459883987903595,2.3134517669677734
175,35018,35015,0.05335818976163864,-0.1526920348405838,0.9274173378944397,0.01983288675546646,2.115713119506836,-2.4034876823425293,2.057647705078125,4.113890171051025,0.3195241689682007,0.11092792451381683,0.16539372503757477,2.3015317916870117
176,35028,35025,0.03234515339136124,-0.0569782629609108,0.9648092985153198,0.9080047607421875,0.6380598545074463,-3.961698055267334,2.058760166168213,4.115945816040039,0.31758978962898254,0.09200366586446762,0.17650079727172852,2.292607307434082
177,35038,35035,-0.03123617358505726,-0.006875583902001381,0.9776198863983154,1.038684368133545,1.20775306224823,-2.5188939571380615,2.0585086345672607,4.11533260345459,0.3178735375404358,0.15668271481990814,0.2690815031528473,2.253232955932617
178,35048,35045,0.06869878619909286,-0.11311659961938858,0.9771664142608643,1.467659831047058,1.1332749128341675,-3.6918084621429443,2.0580153465270996,4.115998268127441,0.31807371973991394,0.20905300974845886,0.3072650730609894,2.205695390701294
179,35058,35055,-0.007833817973732948,-0.03593694418668747,1.00544273853302,1.134795904159546,1.2997053861618042,-3.567373275756836,2.0600063800811768,4.1167311668396,0.31817197799682617,0.12554271519184113,0.3158603310585022,2.2026050090789795
180,35068,35065,0.030441956594586372,-0.08791439980268478,0.9467042088508606,-0.9218641519546509,3.62593936920166,-3.8891372680664062,2.0602216720581055,4.116601467132568,0.31655368208885193,0.1886039674282074,0.3337627351284027,2.168821334838867
181,35078,35075,0.031260326504707336,-0.09451213479042053,0.9860032200813293,-2.841529130935669,1.556498408317566,-4.065815448760986,2.0612146854400635,4.118103981018066,0.3165949881076813,0.20980897545814514,0.3182663023471832,2.1510121822357178
182,35088,35085,0.006409750785678625,-0.013334700837731361,0.9877319931983948,-4.8348388671875,2.0016021728515625,-3.3501012325286865,2.0621137619018555,4.1185784339904785,0.31654486060142517,0.15594975650310516,0.26750561594963074,2.115426540374756
183,35098,35095,0.01840253174304962,-0.04153325408697128,0.9692278504371643,-4.314900875091553,3.403265953063965,-2.8935508728027344,2.0632455348968506,4.1194167137146,0.319462388753891,0.1118713840842247,0.19292877614498138,2.0819413661956787
184,35108,35105,-0.020315803587436676,0.04408993571996689,1.018558382987976,-3.7900917530059814,7.522085666656494,-3.205967426300049,2.064544677734375,4.120657444000244,0.31957393884658813,0.05510200932621956,0.1222350224852562,2.059002637863159
185,35118,35115,0.05866622552275658,0.019201887771487236,0.9238835573196411,-0.9747055172920227,1.6987119913101196,-2.7586090564727783,2.0651907920837402,4.120460510253906,0.3196577727794647,-0.02532382495701313,0.07614501565694809,2.028595447540283
186,35128,35125,-0.06641917675733566,-0.012314621359109879,1.0182453393936157,0.2478306144475937,6.726147651672363,-2.7025094032287598,2.067128896713257,4.12077522277832,0.32212331891059875,-0.16045205295085907,0.1366959661245346,2.002868413925171
187,35138,35135,0.045046351850032806,-0.04518566280603409,0.9835142493247986,1.6080981492996216,2.7809205055236816,-2.496783494949341,2.067188024520874,4.12031364440918,0.322385311126709,-0.1448097676038742,0.14496666193008423,1.976407527923584
188,35148,35145,0.03846542164683342,0.02275252714753151,1.0000579357147217,2.238978385925293,-0.16866348683834076,-2.489027976989746,2.0664021968841553,4.120118141174316,0.3227286636829376,-0.04851428419351578,0.16767287254333496,1.9525573253631592
189,35158,35155,-0.010106412693858147,0.10057581961154938,0.9893580675125122,0.8061225414276123,0.4936578571796417,-2.3902809619903564,2.0685174465179443,4.120391845703125,0.322811096906662,-0.22880183160305023,0.19267472624778748,1.9380724430084229
190,35168,35165,-0.016224613413214684,0.08947886526584625,1.019912600517273,-1.377422571182251,0.21849285066127777,-2.410496234893799,2.067814350128174,4.120761871337891,0.32034963369369507,-0.14543470740318298,0.2007889449596405,1.9169708490371704
191,35178,35175,0.012975300662219524,0.011881480924785137,0.9814192056655884,-1.4377070665359497,0.035650841891765594,-2.2392756938934326,2.068645715713501,4.120439529418945,0.32037246227264404,-0.1427663415670395,0.1850038766860962,1.8951079845428467
192,35188,35185,0.02740643359720707,-0.011870801448822021,1.0074849128723145,-2.0791590213775635,0.22620366513729095,-2.6710305213928223,2.069356918334961,4.119417667388916,0.32033005356788635,-0.23199507594108582,0.13681983947753906,1.829437255859375
193,35198,35195,-0.05623912066221237,0.09444507956504822,1.0206456184387207,-2.1795566082000732,-2.345876455307007,-1.0050891637802124,2.0694284439086914,4.1185078620910645,0.31820887327194214,-0.1493590921163559,0.19501638412475586,1.82497239112854
194,35208,35205,-0.005081753246486187,-0.01947835646569729,0.9868740439414978,-2.806478977203369,1.694900393486023,-1.9571442604064941,2.0699729919433594,4.118974208831787,0.3180992305278778,-0.14258486032485962,0.14731451869010925,1.8097383975982666
195,35218,35215,-0.013159690424799919,0.063874252140522,1.0066574811935425,-2.0514814853668213,0.3038215935230255,-2.134185791015625,2.069974660873413,4.119022846221924,0.318024218082428,-0.1598576158285141,0.0983668863773346,1.7913105487823486
196,35228,35225,-0.004020846448838711,0.008361456915736198,1.017818570137024,-0.9113604426383972,4.4678168296813965,-2.0840420722961426,2.070592164993286,4.118049144744873,0.3163209557533264,-0.1475042998790741,0.19430425763130188,1.749936580657959
197,35238,35235,-0.007093437481671572,-0.06379364430904388,0.9887240529060364,-0.9995912909507751,2.5505759716033936,-2.1954123973846436,2.0716633796691895,4.118474006652832,0.3161213994026184,-0.17490723729133606,0.17292557656764984,1.7586946487426758
198,35248,35245,0.023203641176223755,-0.11429019272327423,1.0005265474319458,-4.316154956817627,5.252111911773682,-1.6424791812896729,2.073676109313965,4.120819091796875,0.31589120626449585,-0.3072293996810913,0.13433320820331573,1.7640520334243774
199,35258,35255,0.06982987374067307,-0.11922898143529892,0.9730246663093567,-3.5213043689727783,1.3823648691177368,-1.734190821647644,2.074094295501709,4.121893882751465,0.3168737590312958,-0.2968063950538635,0.05676177144050598,1.7757794857025146
200,35268,35265,-0.020465927198529243,0.05254284664988518,1.0190969705581665,-4.142336845397949,2.265126943588257,-1.650709629058838,2.0746586322784424,4.12299108505249,0.31672924757003784,-0.3372950553894043,-0.02176312915980816,1.758285403251648
201,35278,35275,0.017895786091685295,-0.04767836630344391,0.9685577154159546,-2.2084310054779053,1.4603650569915771,-1.7927889823913574,2.074342727661133,4.123963832855225,0.31664666533470154,-0.2896672785282135,-0.09075003862380981,1.7570269107818604
202,35288,35285,-0.07818672806024551,-0.05512413755059242,1.0385857820510864,-0.4389938414096832,1.2522324323654175,-1.5087454319000244,2.076563835144043,4.1240949630737305,0.3164055347442627,-0.4634398818016052,-0.13193565607070923,1.7422504425048828
203,35298,35295,-0.0648568868637085,-0.021913308650255203,1.0279513597488403,1.3247106075286865,0.19448958337306976,-1.080386757850647,2.0762839317321777,4.125115871429443,0.31734099984169006,-0.30936720967292786,-0.06492365896701813,1.7470043897628784
204,35308,35305,-0.0029190245550125837,0.03927062451839447,0.9817557334899902,1.6642611026763916,-0.08049257844686508,-1.1475067138671875,2.0777077674865723,4.12591028213501,0.3173210322856903,-0.3218100070953369,-0.055235378444194794,1.7714121341705322
205,35318,35315,-0.04405428096652031,0.08514083176851273,1.0073822736740112,0.890146017074585,-0.546224057674408,-1.6413687467575073,2.0771896839141846,4.126474857330322,0.31734585762023926,-0.2512807846069336,0.038591720163822174,1.759442925453186
206,35328,35325,0.0033838795498013496,-0.0014092554338276386,0.9679578542709351,-1.1066639423370361,-1.3349579572677612,-2.260521411895752,2.076284885406494,4.127826690673828,0.3165343403816223,-0.1717003881931305,0.034070294350385666,1.7690614461898804
207,35338,35335,-0.017591137439012527,0.022005848586559296,1.028542399406433,-2.5237433910369873,-1.0140881538391113,-2.8213119506835938,2.077047824859619,4.12795877456665,0.316444993019104,-0.16471078991889954,0.00384798226878047,1.74787437915802
208,35348,35345,0.0197015218436718,-0.0076821548864245415,1.0061107873916626,-4.320762634277344,-1.7529375553131104,-3.121903896331787,2.0776538848876953,4.128668785095215,0.3163485825061798,-0.15814556181430817,-0.0510399155318737,1.7299519777297974
209,35358,35355,0.01915266364812851,-0.051428962498903275,0.9858644008636475,-5.628623008728027,-1.3615081310272217,-2.680752754211426,2.079996347427368,4.128995895385742,0.3171636462211609,-0.2978641986846924,-0.13397258520126343,1.6987775564193726
210,35368,35365,-0.024407392367720604,0.0028608113061636686,1.022106409072876,-6.785475730895996,-1.4381505250930786,-3.2114336490631104,2.080977201461792,4.128717422485352,0.31714847683906555,-0.2733016908168793,-0.16301941871643066,1.6707627773284912
211,35378,35375,0.04812129586935043,-0.08195842057466507,0.9859411120414734,-5.18317985534668,-1.4213759899139404,-3.5436320304870605,2.082218885421753,4.12889289855957,0.31714776158332825,-0.2498663365840912,-0.27492037415504456,1.6393808126449585
212,35388,35385,-0.005744653288275003,-0.026641609147191048,1.003290057182312,-3.7055182456970215,-0.526538074016571,-3.816676139831543,2.0830585956573486,4.127810478210449,0.3171617388725281,-0.2180052548646927,-0.20791630446910858,1.603213906288147
213,35398,35395,0.017533903941512108,-0.05023287609219551,0.9770810008049011,-1.5128101110458374,-0.965717613697052,-3.279533863067627,2.0845229625701904,4.128244400024414,0.31632497906684875,-0.2895272970199585,-0.2843199074268341,1.5684449672698975
214,35408,35405,0.01194425392895937,-0.006239490117877722,1.0042645931243896,0.01002009492367506,0.7194955348968506,-3.3911142349243164,2.0846445560455322,4.128292083740234,0.3163073658943176,-0.19879527390003204,-0.3210165500640869,1.5301640033721924
215,35418,35415,0.03149089962244034,-0.043170489370822906,1.0236437320709229,2.1345765590667725,3.518587350845337,-2.792419195175171,2.0855441093444824,4.128545761108398,0.31620049476623535,-0.22554291784763336,-0.32192742824554443,1.4974309206008911
216,35428,35425,0.02951996587216854,-0.12051476538181305,1.0096224546432495,4.694558143615723,5.536236763000488,-3.6843388080596924,2.086238384246826,4.129298210144043,0.3129390776157379,-0.21183769404888153,-0.28024595975875854,1.4875102043151855
217,35438,35435,-0.002101303543895483,-0.04710439220070839,1.0049846172332764,4.969693183898926,7.381694316864014,-4.494348526000977,2.087217330932617,4.1283979415893555,0.31267690658569336,-0.31630656123161316,-0.2027515023946762,1.4428889751434326
218,35448,35445,-0.016254376620054245,0.06997298449277878,1.014464020729065,4.0136284828186035,4.7229905128479,-5.433103561401367,2.0875189304351807,4.127894878387451,0.3124801814556122,-0.34476423263549805,-0.12550951540470123,1.3959122896194458
219,35458,35455,-0.004551811143755913,0.01343921385705471,1.0110124349594116,1.4584686756134033,3.093691349029541,-6.0296630859375,2.088343858718872,4.127716541290283,0.31179648637771606,-0.402320921421051,-0.07991062104701996,1.3425670862197876
220,35468,35465,-0.018118716776371002,0.04796338826417923,1.070965051651001,-1.05057954788208,-0.9730177521705627,-5.371158123016357,2.0888774394989014,4.127985000610352,0.3116413354873657,-0.34402036666870117,-0.07315223664045334,1.2862881422042847
221,35478,35475,-0.009400934912264347,-0.015678128227591515,1.057870864868164,-3.2624473571777344,-3.034864902496338,-5.737888336181641,2.0910110473632812,4.128286838531494,0.31135401129722595,-0.48801159858703613,-0.10984960198402405,1.2448738813400269
222,35488,35485,0.011985702440142632,0.037361402064561844,0.9539466500282288,-5.6266984939575195,-4.216128826141357,-5.577767848968506,2.090869665145874,4.128920555114746,0.311296671628952,-0.4288797676563263,-0.18231789767742157,1.1866587400436401
223,35498,35495,-0.07039275020360947,0.1015077605843544,0.9898589253425598,-8.337823867797852,-3.5644962787628174,-5.308048725128174,2.0922598838806152,4.130332946777344,0.3109097480773926,-0.5148764252662659,-0.29318439960479736,1.1616226434707642
224,35508,35505,0.026798272505402565,0.1465529054403305,1.000257968902588,-8.149703979492188,-4.2235612869262695,-5.258996963500977,2.0927650928497314,4.1314263343811035,0.3107677400112152,-0.42641961574554443,-0.43141335248947144,1.1200339794158936
225,35518,35515,0.0116958636790514,-0.04222071170806885,0.982329785823822,-3.247410535812378,-8.259052276611328,-5.282047748565674,2.09197998046875,4.131523609161377,0.31082600355148315,-0.22863085567951202,-0.38579538464546204,1.069165587425232
226,35528,35525,0.025556933134794235,-0.12776532769203186,1.0399200916290283,0.24466446042060852,-9.642759323120117,-5.1115498542785645,2.094310998916626,4.131199836730957,0.31095167994499207,-0.30924734473228455,-0.43436697125434875,1.0328989028930664
227,35538,35535,-0.001744376146234572,0.030520256608724594,0.9766955375671387,3.1232409477233887,-10.341096878051758,-3.8140766620635986,2.0931971073150635,4.130642414093018,0.3109593689441681,-0.046777836978435516,-0.34122785925865173,0.978696346282959
228,35548,35545,0.011938193812966347,-0.003246492939069867,1.0261162519454956,4.368997097015381,-5.276270389556885,-3.4389243125915527,2.094789981842041,4.130721569061279,0.31076779961586,-0.03233548626303673,-0.2929321825504303,0.9541566967964172
229,35558,35555,0.03754998371005058,0.028945976868271828,0.9439898133277893,3.3531293869018555,0.5679950714111328,-3.1213204860687256,2.0954911708831787,4.131036758422852,0.3100104331970215,-0.0025396079290658236,-0.3115406036376953,0.917080283164978
230,35568,35565,0.026423422619700432,0.056818753480911255,0.9985236525535583,1.381920576095581,2.288581371307373,-2.139105796813965,2.0971267223358154,4.132115364074707,0.3097519278526306,-0.052627697587013245,-0.33922094106674194,0.9006568789482117
231,35578,35575,0.021330896764993668,0.01157261710613966,1.0349500179290771,0.2294161319732666,0.37188735604286194,-1.239818811416626,2.0970287322998047,4.131779193878174,0.30961325764656067,0.011917288415133953,-0.3168116807937622,0.8749270439147949
232,35588,35585,-0.05703771114349365,-0.019411496818065643,1.0623098611831665,-1.4361345767974854,2.5604779720306396,-0.7068642973899841,2.098562717437744,4.13078498840332,0.30747687816619873,-0.162143275141716,-0.24489425122737885,0.8602333068847656
233,35598,35595,0.02446509525179863,0.0777832642197609,0.9352508187294006,-3.010883092880249,2.243828773498535,0.34367063641548157,2.0994656085968018,4.132335662841797,0.3073202967643738,-0.10396496206521988,-0.2816210091114044,0.8715296387672424
234,35608,35605,0.005342533811926842,0.12095750868320465,0.9565076231956482,-5.436838626861572,4.584328651428223,0.89966881275177,2.0995144844055176,4.131891250610352,0.3071127235889435,-0.048437826335430145,-0.2623630464076996,0.8748868703842163
235,35618,35615,0.004417544696480036,0.04962841793894768,0.998921275138855,-5.2262654304504395,1.4115381240844727,0.9864591956138611,2.1005778312683105,4.131916046142578,0.3067849278450012,-0.08680645376443863,-0.35748153924942017,0.8673197627067566
236,35628,35625,0.04099313169717789,-0.11428872495889664,0.9960644841194153,-1.3805067539215088,-1.0461879968643188,1.4411119222640991,2.1022520065307617,4.132634162902832,0.30428728461265564,-0.22964920103549957,-0.5002075433731079,0.8852850198745728
237,35638,35635,-0.007040832657366991,-0.0003842072910629213,1.0432850122451782,5.1988749504089355,-13.806341171264648,2.9801578521728516,2.102724313735962,4.132424354553223,0.3039296269416809,-0.1281309723854065,-0.47657865285873413,0.898064911365509
238,35648,35645,0.004376222379505634,-0.1627684086561203,1.0997350215911865,10.66823673248291,-9.075445175170898,2.390324592590332,2.102527618408203,4.132058620452881,0.3036143183708191,0.09650932997465134,-0.353350967168808,0.9307946562767029
239,35658,35655,0.018893882632255554,-0.0432920940220356,0.9836556315422058,11.954537391662598,-6.728686809539795,3.448071241378784,2.1019418239593506,4.131399154663086,0.30173203349113464,0.3639395534992218,-0.1651904135942459,0.9614813923835754
240,35668,35665,0.013132129795849323,0.022997597232460976,1.0321054458618164,12.274872779846191,-6.2615180015563965,4.331701755523682,2.104567766189575,4.133162021636963,0.3013107180595398,0.2572792172431946,-0.0362667478621006,1.0262937545776367
